[{"name":"Andorra la Vella","countryCode":"AD","stateCode":"07","latitude":42.50779,"longitude":1.52109},{"name":"Arinsal","countryCode":"AD","stateCode":"04","latitude":42.57205,"longitude":1.48453},{"name":"Canillo","countryCode":"AD","stateCode":"02","latitude":42.5676,"longitude":1.59756},{"name":"El Tarter","countryCode":"AD","stateCode":"02","latitude":42.57952,"longitude":1.65362},{"name":"Encamp","countryCode":"AD","stateCode":"03","latitude":42.53474,"longitude":1.58014},{"name":"la Massana","countryCode":"AD","stateCode":"04","latitude":42.54499,"longitude":1.51483},{"name":"les Escaldes","countryCode":"AD","stateCode":"08","latitude":42.50729,"longitude":1.53414},{"name":"Ordino","countryCode":"AD","stateCode":"05","latitude":42.55623,"longitude":1.53319},{"name":"Pas de la Casa","countryCode":"AD","stateCode":"03","latitude":42.54277,"longitude":1.73361},{"name":"Sant Julià de Lòria","countryCode":"AD","stateCode":"06","latitude":42.46372,"longitude":1.49129}]
