[{"name":"Bajram Curri","countryCode":"AL","stateCode":"KU","latitude":42.35734,"longitude":20.07679},{"name":"Ballsh","countryCode":"AL","stateCode":"04","latitude":40.59889,"longitude":19.73472},{"name":"Banaj","countryCode":"AL","stateCode":"BR","latitude":40.82492,"longitude":19.84074},{"name":"Bashkia Berat","countryCode":"AL","stateCode":"BR","latitude":40.69997,"longitude":19.94983},{"name":"Bashkia Bulqizë","countryCode":"AL","stateCode":"09","latitude":41.47152,"longitude":20.33192},{"name":"Bashkia Devoll","countryCode":"AL","stateCode":"06","latitude":40.60078,"longitude":20.93814},{"name":"Bashkia Divjakë","countryCode":"AL","stateCode":"04","latitude":40.95716,"longitude":19.52364},{"name":"Bashkia Dropull","countryCode":"AL","stateCode":"GJ","latitude":39.98584,"longitude":20.30529},{"name":"Bashkia Durrës","countryCode":"AL","stateCode":"DR","latitude":41.42743,"longitude":19.4869},{"name":"Bashkia Fier","countryCode":"AL","stateCode":"04","latitude":40.72937,"longitude":19.4869},{"name":"Bashkia Finiq","countryCode":"AL","stateCode":"12","latitude":39.84393,"longitude":20.16659},{"name":"Bashkia Himarë","countryCode":"AL","stateCode":"12","latitude":40.11581,"longitude":19.81389},{"name":"Bashkia Kavajë","countryCode":"AL","stateCode":"TR","latitude":41.18127,"longitude":19.55579},{"name":"Bashkia Kelcyrë","countryCode":"AL","stateCode":"GJ","latitude":40.36196,"longitude":20.16476},{"name":"Bashkia Klos","countryCode":"AL","stateCode":"09","latitude":41.50826,"longitude":20.07107},{"name":"Bashkia Kolonjë","countryCode":"AL","stateCode":"06","latitude":40.3142,"longitude":20.61482},{"name":"Bashkia Konispol","countryCode":"AL","stateCode":"12","latitude":39.70064,"longitude":20.13353},{"name":"Bashkia Krujë","countryCode":"AL","stateCode":"DR","latitude":41.50091,"longitude":19.72571},{"name":"Bashkia Kuçovë","countryCode":"AL","stateCode":"BR","latitude":40.82489,"longitude":19.9535},{"name":"Bashkia Kurbin","countryCode":"AL","stateCode":"08","latitude":41.62215,"longitude":19.70734},{"name":"Bashkia Lezhë","countryCode":"AL","stateCode":"08","latitude":41.8132,"longitude":19.64121},{"name":"Bashkia Libohovë","countryCode":"AL","stateCode":"GJ","latitude":40.10754,"longitude":20.25753},{"name":"Bashkia Malësi e Madhe","countryCode":"AL","stateCode":"SH","latitude":42.36798,"longitude":19.58977},{"name":"Bashkia Maliq","countryCode":"AL","stateCode":"06","latitude":40.75508,"longitude":20.60748},{"name":"Bashkia Mallakastër","countryCode":"AL","stateCode":"04","latitude":40.55669,"longitude":19.77347},{"name":"Bashkia Mat","countryCode":"AL","stateCode":"09","latitude":41.63317,"longitude":20.01228},{"name":"Bashkia Memaliaj","countryCode":"AL","stateCode":"GJ","latitude":40.41524,"longitude":19.96911},{"name":"Bashkia Mirditë","countryCode":"AL","stateCode":"08","latitude":41.80953,"longitude":19.99024},{"name":"Bashkia Patos","countryCode":"AL","stateCode":"04","latitude":40.67793,"longitude":19.65591},{"name":"Bashkia Përmet","countryCode":"AL","stateCode":"GJ","latitude":40.23246,"longitude":20.41091},{"name":"Bashkia Poliçan","countryCode":"AL","stateCode":"BR","latitude":40.58608,"longitude":20.04535},{"name":"Bashkia Pukë","countryCode":"AL","stateCode":"SH","latitude":42.02997,"longitude":19.92778},{"name":"Bashkia Pustec","countryCode":"AL","stateCode":"06","latitude":40.83591,"longitude":20.89405},{"name":"Bashkia Selenicë","countryCode":"AL","stateCode":"12","latitude":40.39503,"longitude":19.65958},{"name":"Bashkia Shijak","countryCode":"AL","stateCode":"DR","latitude":41.33558,"longitude":19.58977},{"name":"Bashkia Skrapar","countryCode":"AL","stateCode":"BR","latitude":40.56036,"longitude":20.25477},{"name":"Bashkia Tepelenë","countryCode":"AL","stateCode":"GJ","latitude":40.26736,"longitude":19.97003},{"name":"Bashkia Vau i Dejës","countryCode":"AL","stateCode":"SH","latitude":42.04834,"longitude":19.69999},{"name":"Bashkia Vlorë","countryCode":"AL","stateCode":"12","latitude":40.4134,"longitude":19.49792},{"name":"Bashkia Vorë","countryCode":"AL","stateCode":"TR","latitude":41.39804,"longitude":19.67703},{"name":"Berat","countryCode":"AL","stateCode":"BR","latitude":40.70583,"longitude":19.95222},{"name":"Bilisht","countryCode":"AL","stateCode":"06","latitude":40.6275,"longitude":20.99},{"name":"Bulqizë","countryCode":"AL","stateCode":"09","latitude":41.49167,"longitude":20.22194},{"name":"Burrel","countryCode":"AL","stateCode":"09","latitude":41.61028,"longitude":20.00889},{"name":"Çorovodë","countryCode":"AL","stateCode":"BR","latitude":40.50417,"longitude":20.22722},{"name":"Delvinë","countryCode":"AL","stateCode":"12","latitude":39.95111,"longitude":20.09778},{"name":"Divjakë","countryCode":"AL","stateCode":"04","latitude":40.99667,"longitude":19.52944},{"name":"Durrës","countryCode":"AL","stateCode":"DR","latitude":41.32355,"longitude":19.45469},{"name":"Durrës District","countryCode":"AL","stateCode":"DR","latitude":41.3166,"longitude":19.45},{"name":"Ersekë","countryCode":"AL","stateCode":"06","latitude":40.33778,"longitude":20.67889},{"name":"Fier","countryCode":"AL","stateCode":"04","latitude":40.72389,"longitude":19.55611},{"name":"Fier-Çifçi","countryCode":"AL","stateCode":"04","latitude":40.71667,"longitude":19.56667},{"name":"Fushë-Arrëz","countryCode":"AL","stateCode":"SH","latitude":42.06222,"longitude":20.01667},{"name":"Fushë-Krujë","countryCode":"AL","stateCode":"DR","latitude":41.47833,"longitude":19.71778},{"name":"Gjinkar","countryCode":"AL","stateCode":"GJ","latitude":40.19944,"longitude":20.40611},{"name":"Gjirokastër","countryCode":"AL","stateCode":"GJ","latitude":40.07583,"longitude":20.13889},{"name":"Himarë","countryCode":"AL","stateCode":"12","latitude":40.10167,"longitude":19.74472},{"name":"Kamëz","countryCode":"AL","stateCode":"TR","latitude":41.38167,"longitude":19.76028},{"name":"Kavajë","countryCode":"AL","stateCode":"TR","latitude":41.18556,"longitude":19.55694},{"name":"Këlcyrë","countryCode":"AL","stateCode":"GJ","latitude":40.31306,"longitude":20.18944},{"name":"Klos","countryCode":"AL","stateCode":"09","latitude":41.50694,"longitude":20.08667},{"name":"Konispol","countryCode":"AL","stateCode":"12","latitude":39.65889,"longitude":20.18139},{"name":"Koplik","countryCode":"AL","stateCode":"SH","latitude":42.21361,"longitude":19.43639},{"name":"Korçë","countryCode":"AL","stateCode":"06","latitude":40.61861,"longitude":20.78083},{"name":"Krrabë","countryCode":"AL","stateCode":"TR","latitude":41.21556,"longitude":19.97139},{"name":"Krujë","countryCode":"AL","stateCode":"DR","latitude":41.50917,"longitude":19.79278},{"name":"Krumë","countryCode":"AL","stateCode":"KU","latitude":42.19694,"longitude":20.41333},{"name":"Ksamil","countryCode":"AL","stateCode":"12","latitude":39.76889,"longitude":19.99972},{"name":"Kuçovë","countryCode":"AL","stateCode":"BR","latitude":40.80028,"longitude":19.91667},{"name":"Kukës","countryCode":"AL","stateCode":"KU","latitude":42.07694,"longitude":20.42194},{"name":"Kurbnesh","countryCode":"AL","stateCode":"08","latitude":41.77972,"longitude":20.08361},{"name":"Laç","countryCode":"AL","stateCode":"08","latitude":41.63556,"longitude":19.71306},{"name":"Lazarat","countryCode":"AL","stateCode":"GJ","latitude":40.04667,"longitude":20.1475},{"name":"Leskovik","countryCode":"AL","stateCode":"06","latitude":40.15139,"longitude":20.59722},{"name":"Lezhë","countryCode":"AL","stateCode":"08","latitude":41.78361,"longitude":19.64361},{"name":"Libohovë","countryCode":"AL","stateCode":"GJ","latitude":40.03111,"longitude":20.26306},{"name":"Libonik","countryCode":"AL","stateCode":"06","latitude":40.70444,"longitude":20.70861},{"name":"Lushnjë","countryCode":"AL","stateCode":"04","latitude":40.94194,"longitude":19.705},{"name":"Maliq","countryCode":"AL","stateCode":"06","latitude":40.70583,"longitude":20.69972},{"name":"Mamurras","countryCode":"AL","stateCode":"08","latitude":41.5775,"longitude":19.69222},{"name":"Mborje","countryCode":"AL","stateCode":"06","latitude":40.60333,"longitude":20.80306},{"name":"Memaliaj","countryCode":"AL","stateCode":"GJ","latitude":40.35167,"longitude":19.98028},{"name":"Milot","countryCode":"AL","stateCode":"08","latitude":41.68389,"longitude":19.71556},{"name":"Orikum","countryCode":"AL","stateCode":"12","latitude":40.32528,"longitude":19.47139},{"name":"Patos","countryCode":"AL","stateCode":"04","latitude":40.68333,"longitude":19.61944},{"name":"Patos Fshat","countryCode":"AL","stateCode":"04","latitude":40.64278,"longitude":19.65083},{"name":"Përmet","countryCode":"AL","stateCode":"GJ","latitude":40.23361,"longitude":20.35167},{"name":"Peshkopi","countryCode":"AL","stateCode":"09","latitude":41.685,"longitude":20.42889},{"name":"Pogradec","countryCode":"AL","stateCode":"06","latitude":40.9025,"longitude":20.6525},{"name":"Poliçan","countryCode":"AL","stateCode":"BR","latitude":40.61222,"longitude":20.09806},{"name":"Pukë","countryCode":"AL","stateCode":"SH","latitude":42.04444,"longitude":19.89972},{"name":"Roskovec","countryCode":"AL","stateCode":"04","latitude":40.7375,"longitude":19.70222},{"name":"Rrëshen","countryCode":"AL","stateCode":"08","latitude":41.7675,"longitude":19.87556},{"name":"Rrethi i Beratit","countryCode":"AL","stateCode":"BR","latitude":40.66667,"longitude":20},{"name":"Rrethi i Bulqizës","countryCode":"AL","stateCode":"09","latitude":41.5,"longitude":20.33333},{"name":"Rrethi i Delvinës","countryCode":"AL","stateCode":"12","latitude":39.91667,"longitude":20.08333},{"name":"Rrethi i Devollit","countryCode":"AL","stateCode":"06","latitude":40.58333,"longitude":20.91667},{"name":"Rrethi i Dibrës","countryCode":"AL","stateCode":"09","latitude":41.75,"longitude":20.33333},{"name":"Rrethi i Hasit","countryCode":"AL","stateCode":"KU","latitude":42.16667,"longitude":20.33333},{"name":"Rrethi i Kavajës","countryCode":"AL","stateCode":"TR","latitude":41.16667,"longitude":19.58333},{"name":"Rrethi i Kolonjës","countryCode":"AL","stateCode":"06","latitude":40.25,"longitude":20.66667},{"name":"Rrethi i Krujës","countryCode":"AL","stateCode":"DR","latitude":41.55,"longitude":19.75},{"name":"Rrethi i Kuçovës","countryCode":"AL","stateCode":"BR","latitude":40.83333,"longitude":19.91667},{"name":"Rrethi i Kukësit","countryCode":"AL","stateCode":"KU","latitude":42,"longitude":20.33333},{"name":"Rrethi i Kurbinit","countryCode":"AL","stateCode":"08","latitude":41.63333,"longitude":19.71667},{"name":"Rrethi i Malësia e Madhe","countryCode":"AL","stateCode":"SH","latitude":42.33333,"longitude":19.58333},{"name":"Rrethi i Mallakastrës","countryCode":"AL","stateCode":"04","latitude":40.55,"longitude":19.78333},{"name":"Rrethi i Matit","countryCode":"AL","stateCode":"09","latitude":41.58333,"longitude":20.08333},{"name":"Rrethi i Shkodrës","countryCode":"AL","stateCode":"SH","latitude":42.06917,"longitude":19.53506},{"name":"Rrethi i Skraparit","countryCode":"AL","stateCode":"BR","latitude":40.55,"longitude":20.26667},{"name":"Rrethi i Tiranës","countryCode":"AL","stateCode":"TR","latitude":41.33333,"longitude":19.91667},{"name":"Rrogozhinë","countryCode":"AL","stateCode":"TR","latitude":41.07639,"longitude":19.66528},{"name":"Rubik","countryCode":"AL","stateCode":"08","latitude":41.77444,"longitude":19.78611},{"name":"Sarandë","countryCode":"AL","stateCode":"12","latitude":39.87534,"longitude":20.00477},{"name":"Selenicë","countryCode":"AL","stateCode":"12","latitude":40.53056,"longitude":19.63583},{"name":"Shëngjin","countryCode":"AL","stateCode":"08","latitude":41.81361,"longitude":19.59389},{"name":"Shijak","countryCode":"AL","stateCode":"DR","latitude":41.34556,"longitude":19.56722},{"name":"Shkodër","countryCode":"AL","stateCode":"SH","latitude":42.06828,"longitude":19.51258},{"name":"Sinaballaj","countryCode":"AL","stateCode":"TR","latitude":41.06889,"longitude":19.69944},{"name":"Sukth","countryCode":"AL","stateCode":"DR","latitude":41.38056,"longitude":19.53778},{"name":"Tepelenë","countryCode":"AL","stateCode":"GJ","latitude":40.29583,"longitude":20.01917},{"name":"Tirana","countryCode":"AL","stateCode":"TR","latitude":41.3275,"longitude":19.81889},{"name":"Ulëz","countryCode":"AL","stateCode":"09","latitude":41.68278,"longitude":19.89333},{"name":"Ura Vajgurore","countryCode":"AL","stateCode":"BR","latitude":40.76889,"longitude":19.87778},{"name":"Vau i Dejës","countryCode":"AL","stateCode":"SH","latitude":42.01,"longitude":19.62472},{"name":"Velçan","countryCode":"AL","stateCode":"06","latitude":40.95472,"longitude":20.46222},{"name":"Vlorë","countryCode":"AL","stateCode":"12","latitude":40.4686,"longitude":19.48318},{"name":"Vorë","countryCode":"AL","stateCode":"TR","latitude":41.39083,"longitude":19.655},{"name":"Voskopojë","countryCode":"AL","stateCode":"06","latitude":40.63306,"longitude":20.58889},{"name":"Vukatanë","countryCode":"AL","stateCode":"SH","latitude":42.02806,"longitude":19.54778}]
