[{"name":"Belas","countryCode":"AO","stateCode":"LUA","latitude":-9.06875,"longitude":13.16072},{"name":"Benguela","countryCode":"AO","stateCode":"BGU","latitude":-12.57626,"longitude":13.40547},{"name":"Caála","countryCode":"AO","stateCode":"HUA","latitude":-12.8525,"longitude":15.56056},{"name":"Cabinda","countryCode":"AO","stateCode":"CAB","latitude":-5.55,"longitude":12.2},{"name":"Caconda","countryCode":"AO","stateCode":"HUI","latitude":-13.73333,"longitude":15.06667},{"name":"Caluquembe","countryCode":"AO","stateCode":"HUI","latitude":-13.92093,"longitude":14.53476},{"name":"Camabatela","countryCode":"AO","stateCode":"CNO","latitude":-8.18812,"longitude":15.37495},{"name":"Camacupa","countryCode":"AO","stateCode":"BIE","latitude":-12.01667,"longitude":17.48333},{"name":"Catabola","countryCode":"AO","stateCode":"BIE","latitude":-12.15,"longitude":17.28333},{"name":"Catumbela","countryCode":"AO","stateCode":"BGU","latitude":-12.43002,"longitude":13.54677},{"name":"Caxito","countryCode":"AO","stateCode":"BGO","latitude":-8.57848,"longitude":13.66425},{"name":"Cazaji","countryCode":"AO","stateCode":"LSU","latitude":-11.06715,"longitude":20.70148},{"name":"Chela","countryCode":"AO","stateCode":"HUA","latitude":-12.30261,"longitude":15.43358},{"name":"Chibia","countryCode":"AO","stateCode":"HUI","latitude":-15.23657,"longitude":13.88468},{"name":"Chicomba","countryCode":"AO","stateCode":"HUI","latitude":-14.30788,"longitude":14.98672},{"name":"Chipindo","countryCode":"AO","stateCode":"HUI","latitude":-13.8683,"longitude":15.73277},{"name":"Chissamba","countryCode":"AO","stateCode":"BIE","latitude":-12.16667,"longitude":17.33333},{"name":"Cuito","countryCode":"AO","stateCode":"BIE","latitude":-12.38333,"longitude":16.93333},{"name":"Cuvango","countryCode":"AO","stateCode":"HUI","latitude":-14.27693,"longitude":16.31475},{"name":"Gambos","countryCode":"AO","stateCode":"HUI","latitude":-15.80926,"longitude":14.07661},{"name":"Huambo","countryCode":"AO","stateCode":"HUA","latitude":-12.77611,"longitude":15.73917},{"name":"Humpata","countryCode":"AO","stateCode":"HUI","latitude":-15.0725,"longitude":13.36771},{"name":"Icolo e Bengo","countryCode":"AO","stateCode":"LUA","latitude":-9.24191,"longitude":13.73549},{"name":"Jamba","countryCode":"AO","stateCode":"HUI","latitude":-14.76294,"longitude":15.83493},{"name":"Léua","countryCode":"AO","stateCode":"MOX","latitude":-11.65,"longitude":20.45},{"name":"Lobito","countryCode":"AO","stateCode":"BGU","latitude":-12.3644,"longitude":13.53601},{"name":"Longonjo","countryCode":"AO","stateCode":"HUA","latitude":-12.90667,"longitude":15.25333},{"name":"Luanda","countryCode":"AO","stateCode":"LUA","latitude":-8.83682,"longitude":13.23432},{"name":"Luau","countryCode":"AO","stateCode":"MOX","latitude":-10.70727,"longitude":22.22466},{"name":"Lubango","countryCode":"AO","stateCode":"HUI","latitude":-14.91717,"longitude":13.4925},{"name":"Lucapa","countryCode":"AO","stateCode":"LNO","latitude":-8.68337,"longitude":20.27045},{"name":"Luena","countryCode":"AO","stateCode":"MOX","latitude":-11.78333,"longitude":19.91667},{"name":"Lumeje","countryCode":"AO","stateCode":"MOX","latitude":-11.55,"longitude":20.78333},{"name":"Malanje","countryCode":"AO","stateCode":"MAL","latitude":-9.54015,"longitude":16.34096},{"name":"Matala","countryCode":"AO","stateCode":"HUI","latitude":-15.23967,"longitude":15.17246},{"name":"Mbanza Congo","countryCode":"AO","stateCode":"ZAI","latitude":-6.26703,"longitude":14.2401},{"name":"Menongue","countryCode":"AO","stateCode":"CCU","latitude":-14.6585,"longitude":17.69099},{"name":"N’dalatando","countryCode":"AO","stateCode":"CNO","latitude":-9.29782,"longitude":14.91162},{"name":"N'zeto","countryCode":"AO","stateCode":"ZAI","latitude":-7.23116,"longitude":12.8666},{"name":"Ondjiva","countryCode":"AO","stateCode":"CNN","latitude":-17.06667,"longitude":15.73333},{"name":"Quibala","countryCode":"AO","stateCode":"CUS","latitude":-10.73366,"longitude":14.97995},{"name":"Quilengues","countryCode":"AO","stateCode":"HUI","latitude":-13.99213,"longitude":13.76705},{"name":"Quipungo","countryCode":"AO","stateCode":"HUI","latitude":-15.12203,"longitude":14.55953},{"name":"Saurimo","countryCode":"AO","stateCode":"LSU","latitude":-9.66078,"longitude":20.39155},{"name":"Soio","countryCode":"AO","stateCode":"ZAI","latitude":-6.1349,"longitude":12.36894},{"name":"Sumbe","countryCode":"AO","stateCode":"CUS","latitude":-11.20605,"longitude":13.84371},{"name":"Uacu Cungo","countryCode":"AO","stateCode":"CUS","latitude":-11.35669,"longitude":15.11719},{"name":"Uíge","countryCode":"AO","stateCode":"UIG","latitude":-7.60874,"longitude":15.06131}]
