[{"name":"Azimpur","countryCode":"BD","stateCode":"13","latitude":23.7298,"longitude":90.3854},{"name":"Badarganj","countryCode":"BD","stateCode":"55","latitude":25.67419,"longitude":89.05377},{"name":"Bagerhat","countryCode":"BD","stateCode":"27","latitude":22.4,"longitude":89.75},{"name":"Bājitpur","countryCode":"BD","stateCode":"13","latitude":24.21623,"longitude":90.95002},{"name":"Bandarban","countryCode":"BD","stateCode":"B","latitude":22,"longitude":92.33333},{"name":"Baniachang","countryCode":"BD","stateCode":"60","latitude":24.51863,"longitude":91.35787},{"name":"Barguna","countryCode":"BD","stateCode":"06","latitude":22.13333,"longitude":90.13333},{"name":"Barisal","countryCode":"BD","stateCode":"06","latitude":22.8,"longitude":90.5},{"name":"Bera","countryCode":"BD","stateCode":"54","latitude":24.07821,"longitude":89.63262},{"name":"Bhairab Bāzār","countryCode":"BD","stateCode":"13","latitude":24.0524,"longitude":90.9764},{"name":"Bhāndāria","countryCode":"BD","stateCode":"06","latitude":22.48898,"longitude":90.06273},{"name":"Bhātpāra Abhaynagar","countryCode":"BD","stateCode":"27","latitude":23.01472,"longitude":89.43936},{"name":"Bherāmāra","countryCode":"BD","stateCode":"27","latitude":24.02452,"longitude":88.99234},{"name":"Bhola","countryCode":"BD","stateCode":"06","latitude":22.36667,"longitude":90.81667},{"name":"Bibir Hat","countryCode":"BD","stateCode":"B","latitude":22.68347,"longitude":91.79058},{"name":"Bogra","countryCode":"BD","stateCode":"54","latitude":24.78333,"longitude":89.35},{"name":"Brahmanbaria","countryCode":"BD","stateCode":"B","latitude":23.98333,"longitude":91.16667},{"name":"Burhānuddin","countryCode":"BD","stateCode":"06","latitude":22.49518,"longitude":90.72391},{"name":"Chandpur","countryCode":"BD","stateCode":"B","latitude":23.25,"longitude":90.83333},{"name":"Chapai Nababganj","countryCode":"BD","stateCode":"54","latitude":24.68333,"longitude":88.25},{"name":"Char Bhadrāsan","countryCode":"BD","stateCode":"13","latitude":23.30916,"longitude":90.22698},{"name":"Char Golora","countryCode":"BD","stateCode":"13","latitude":23.82037,"longitude":90.12175},{"name":"Chhāgalnāiya","countryCode":"BD","stateCode":"B","latitude":23.02475,"longitude":91.51091},{"name":"Chhātak","countryCode":"BD","stateCode":"60","latitude":25.03852,"longitude":91.66958},{"name":"Chilmāri","countryCode":"BD","stateCode":"55","latitude":25.55613,"longitude":89.67097},{"name":"Chittagong","countryCode":"BD","stateCode":"B","latitude":22.4875,"longitude":91.96333},{"name":"Chuadanga","countryCode":"BD","stateCode":"27","latitude":23.63333,"longitude":88.85},{"name":"Comilla","countryCode":"BD","stateCode":"B","latitude":23.4417,"longitude":91.00987},{"name":"Cox's Bazar","countryCode":"BD","stateCode":"B","latitude":21.58389,"longitude":92.01528},{"name":"Cox’s Bāzār","countryCode":"BD","stateCode":"B","latitude":21.43973,"longitude":92.00955},{"name":"Dhaka","countryCode":"BD","stateCode":"13","latitude":23.81093,"longitude":90.36542},{"name":"Dinajpur","countryCode":"BD","stateCode":"55","latitude":25.61667,"longitude":88.75},{"name":"Dohār","countryCode":"BD","stateCode":"13","latitude":23.59311,"longitude":90.14251},{"name":"Faridpur","countryCode":"BD","stateCode":"13","latitude":23.59419,"longitude":89.82147},{"name":"Feni","countryCode":"BD","stateCode":"B","latitude":22.96667,"longitude":91.31667},{"name":"Gafargaon","countryCode":"BD","stateCode":"34","latitude":24.432,"longitude":90.5585},{"name":"Gaibandha","countryCode":"BD","stateCode":"55","latitude":25.25,"longitude":89.5},{"name":"Gaurnadi","countryCode":"BD","stateCode":"06","latitude":22.97372,"longitude":90.22376},{"name":"Gazipur","countryCode":"BD","stateCode":"13","latitude":24.20689,"longitude":90.47241},{"name":"Gopalganj","countryCode":"BD","stateCode":"13","latitude":23.16667,"longitude":89.91667},{"name":"Habiganj","countryCode":"BD","stateCode":"60","latitude":24.43333,"longitude":91.41667},{"name":"Hājīganj","countryCode":"BD","stateCode":"B","latitude":23.25191,"longitude":90.85508},{"name":"Ishurdi","countryCode":"BD","stateCode":"54","latitude":24.12858,"longitude":89.06573},{"name":"Jahedpur","countryCode":"BD","stateCode":"60","latitude":24.83333,"longitude":91.65},{"name":"Jamalpur","countryCode":"BD","stateCode":"34","latitude":25,"longitude":89.83333},{"name":"Jessore","countryCode":"BD","stateCode":"27","latitude":23.08333,"longitude":89.16667},{"name":"Jhalokati","countryCode":"BD","stateCode":"06","latitude":22.6,"longitude":90.2},{"name":"Jhenaidah","countryCode":"BD","stateCode":"27","latitude":23.5,"longitude":89.16667},{"name":"Jhingergācha","countryCode":"BD","stateCode":"27","latitude":23.11134,"longitude":89.09061},{"name":"Joymontop","countryCode":"BD","stateCode":"13","latitude":23.78789,"longitude":90.16472},{"name":"Joypur Hāt","countryCode":"BD","stateCode":"54","latitude":25.10147,"longitude":89.02734},{"name":"Joypurhat","countryCode":"BD","stateCode":"54","latitude":25.08333,"longitude":89.1},{"name":"Kālia","countryCode":"BD","stateCode":"27","latitude":23.043,"longitude":89.63094},{"name":"Kālīganj","countryCode":"BD","stateCode":"27","latitude":23.40964,"longitude":89.13801},{"name":"Kesabpur","countryCode":"BD","stateCode":"27","latitude":22.90725,"longitude":89.21954},{"name":"Khagrachhari","countryCode":"BD","stateCode":"B","latitude":23.16667,"longitude":91.9},{"name":"Khanbaniara","countryCode":"BD","stateCode":"13","latitude":23.78225,"longitude":90.18382},{"name":"Khulna","countryCode":"BD","stateCode":"27","latitude":22.5,"longitude":89.33333},{"name":"Kishoregonj","countryCode":"BD","stateCode":"13","latitude":24.41667,"longitude":90.95},{"name":"Kishorganj","countryCode":"BD","stateCode":"13","latitude":24.43944,"longitude":90.78291},{"name":"Kurigram","countryCode":"BD","stateCode":"55","latitude":25.75,"longitude":89.66667},{"name":"Kushtia","countryCode":"BD","stateCode":"27","latitude":23.83333,"longitude":88.91667},{"name":"Lākshām","countryCode":"BD","stateCode":"B","latitude":23.24018,"longitude":91.12143},{"name":"Lakshmipur","countryCode":"BD","stateCode":"B","latitude":22.91667,"longitude":90.83333},{"name":"Lālmohan","countryCode":"BD","stateCode":"06","latitude":22.33774,"longitude":90.73708},{"name":"Lalmonirhat","countryCode":"BD","stateCode":"55","latitude":25.91719,"longitude":89.44595},{"name":"Lalmonirhat District","countryCode":"BD","stateCode":"55","latitude":26,"longitude":89.25},{"name":"Madaripur","countryCode":"BD","stateCode":"13","latitude":23.25,"longitude":90.2},{"name":"Magura","countryCode":"BD","stateCode":"27","latitude":23.43333,"longitude":89.43333},{"name":"Mahasthangarh","countryCode":"BD","stateCode":"54","latitude":24.96111,"longitude":89.34278},{"name":"Manikchari","countryCode":"BD","stateCode":"B","latitude":22.83957,"longitude":91.84128},{"name":"Manikganj","countryCode":"BD","stateCode":"13","latitude":23.86667,"longitude":89.95},{"name":"Mathba","countryCode":"BD","stateCode":"06","latitude":22.28616,"longitude":89.95883},{"name":"Maulavi Bāzār","countryCode":"BD","stateCode":"60","latitude":24.48888,"longitude":91.77075},{"name":"Maulvibazar","countryCode":"BD","stateCode":"60","latitude":24.5,"longitude":91.83333},{"name":"Mehendiganj","countryCode":"BD","stateCode":"06","latitude":22.82257,"longitude":90.52859},{"name":"Meherpur","countryCode":"BD","stateCode":"27","latitude":23.75,"longitude":88.7},{"name":"Mirzāpur","countryCode":"BD","stateCode":"13","latitude":24.10287,"longitude":90.09841},{"name":"Morrelgonj","countryCode":"BD","stateCode":"27","latitude":22.45566,"longitude":89.85584},{"name":"Muktāgācha","countryCode":"BD","stateCode":"34","latitude":24.76484,"longitude":90.25698},{"name":"Munshiganj","countryCode":"BD","stateCode":"13","latitude":23.55,"longitude":90.36667},{"name":"Mymensingh","countryCode":"BD","stateCode":"34","latitude":24.75,"longitude":90.4},{"name":"Nabīnagar","countryCode":"BD","stateCode":"B","latitude":23.88791,"longitude":90.96792},{"name":"Nāgarpur","countryCode":"BD","stateCode":"13","latitude":24.05783,"longitude":89.87696},{"name":"Nageswari","countryCode":"BD","stateCode":"55","latitude":25.96817,"longitude":89.69153},{"name":"Nālchiti","countryCode":"BD","stateCode":"06","latitude":22.63696,"longitude":90.27195},{"name":"Naogaon","countryCode":"BD","stateCode":"54","latitude":24.8118,"longitude":88.94657},{"name":"Narail","countryCode":"BD","stateCode":"27","latitude":23.13333,"longitude":89.6},{"name":"Narayanganj","countryCode":"BD","stateCode":"13","latitude":23.75,"longitude":90.58333},{"name":"Narsingdi","countryCode":"BD","stateCode":"13","latitude":23.92298,"longitude":90.71768},{"name":"Natore","countryCode":"BD","stateCode":"54","latitude":24.35,"longitude":89.08333},{"name":"Nawābganj","countryCode":"BD","stateCode":"54","latitude":24.59025,"longitude":88.27444},{"name":"Netrakona","countryCode":"BD","stateCode":"34","latitude":24.86667,"longitude":90.86667},{"name":"Nilphamari Zila","countryCode":"BD","stateCode":"55","latitude":25.96667,"longitude":88.95},{"name":"Noakhali","countryCode":"BD","stateCode":"B","latitude":22.75,"longitude":91.16667},{"name":"Nowlamary","countryCode":"BD","stateCode":"27","latitude":23.67346,"longitude":88.98885},{"name":"Pabna","countryCode":"BD","stateCode":"54","latitude":24.00633,"longitude":89.33533},{"name":"Pālang","countryCode":"BD","stateCode":"13","latitude":23.21824,"longitude":90.35076},{"name":"Paltan","countryCode":"BD","stateCode":"13","latitude":23.73625,"longitude":90.41426},{"name":"Panchagarh","countryCode":"BD","stateCode":"55","latitude":26.33333,"longitude":88.56667},{"name":"Pār Naogaon","countryCode":"BD","stateCode":"54","latitude":24.80418,"longitude":88.94875},{"name":"Parbatipur","countryCode":"BD","stateCode":"55","latitude":25.66369,"longitude":88.93093},{"name":"Parvez Ali","countryCode":"BD","stateCode":"13","latitude":23.81741,"longitude":90.11921},{"name":"Parvez Ali Hossain","countryCode":"BD","stateCode":"13","latitude":23.78758,"longitude":90.16487},{"name":"Patiya","countryCode":"BD","stateCode":"B","latitude":22.29543,"longitude":91.979},{"name":"Patuakhali","countryCode":"BD","stateCode":"06","latitude":22.33333,"longitude":90.33333},{"name":"Phultala","countryCode":"BD","stateCode":"27","latitude":22.71673,"longitude":89.51194},{"name":"Pīrgaaj","countryCode":"BD","stateCode":"55","latitude":25.85587,"longitude":88.35943},{"name":"Pirojpur","countryCode":"BD","stateCode":"06","latitude":22.53671,"longitude":90.00033},{"name":"Puthia","countryCode":"BD","stateCode":"54","latitude":24.36537,"longitude":88.83431},{"name":"Rāipur","countryCode":"BD","stateCode":"B","latitude":23.0391,"longitude":90.76808},{"name":"Rajbari","countryCode":"BD","stateCode":"13","latitude":23.66667,"longitude":89.55},{"name":"Rajshahi","countryCode":"BD","stateCode":"54","latitude":24.36962,"longitude":88.60748},{"name":"Rāmganj","countryCode":"BD","stateCode":"B","latitude":23.1006,"longitude":90.84989},{"name":"Ramnagar","countryCode":"BD","stateCode":"13","latitude":23.7772,"longitude":90.17604},{"name":"Rangamati","countryCode":"BD","stateCode":"B","latitude":22.63333,"longitude":92.2},{"name":"Rangpur","countryCode":"BD","stateCode":"55","latitude":25.73333,"longitude":89.25},{"name":"Raojān","countryCode":"BD","stateCode":"B","latitude":22.53511,"longitude":91.91919},{"name":"Saidpur","countryCode":"BD","stateCode":"54","latitude":25.77769,"longitude":88.89169},{"name":"Sakhipur","countryCode":"BD","stateCode":"13","latitude":24.31988,"longitude":90.16943},{"name":"Sandwīp","countryCode":"BD","stateCode":"B","latitude":22.51409,"longitude":91.45491},{"name":"Sarankhola","countryCode":"BD","stateCode":"27","latitude":22.31006,"longitude":89.79113},{"name":"Sarishābāri","countryCode":"BD","stateCode":"34","latitude":24.75127,"longitude":89.83126},{"name":"Sātkania","countryCode":"BD","stateCode":"B","latitude":22.07639,"longitude":92.04955},{"name":"Satkhira","countryCode":"BD","stateCode":"27","latitude":22.35,"longitude":89.15},{"name":"Sayani","countryCode":"BD","stateCode":"13","latitude":23.79119,"longitude":90.16972},{"name":"Shāhzādpur","countryCode":"BD","stateCode":"54","latitude":24.17687,"longitude":89.5988},{"name":"Shariatpur","countryCode":"BD","stateCode":"13","latitude":23.25,"longitude":90.36667},{"name":"Sherpur","countryCode":"BD","stateCode":"34","latitude":25.08333,"longitude":90.08333},{"name":"Shibganj","countryCode":"BD","stateCode":"54","latitude":25.00146,"longitude":89.32266},{"name":"Sirajganj","countryCode":"BD","stateCode":"54","latitude":24.33333,"longitude":89.61667},{"name":"Sonārgaon","countryCode":"BD","stateCode":"13","latitude":23.65,"longitude":90.61667},{"name":"Sunamganj","countryCode":"BD","stateCode":"60","latitude":24.86667,"longitude":91.41667},{"name":"Sylhet","countryCode":"BD","stateCode":"60","latitude":24.91667,"longitude":91.76667},{"name":"Tangail","countryCode":"BD","stateCode":"13","latitude":24.33853,"longitude":89.98667},{"name":"Teknāf","countryCode":"BD","stateCode":"B","latitude":20.85829,"longitude":92.29773},{"name":"Thakurgaon","countryCode":"BD","stateCode":"55","latitude":25.96667,"longitude":88.33333},{"name":"Tungi","countryCode":"BD","stateCode":"13","latitude":23.89154,"longitude":90.40232},{"name":"Tungipāra","countryCode":"BD","stateCode":"13","latitude":22.89983,"longitude":89.90326},{"name":"Ujalpur","countryCode":"BD","stateCode":"27","latitude":23.80562,"longitude":88.62444},{"name":"Uttar Char Fasson","countryCode":"BD","stateCode":"27","latitude":22.22647,"longitude":90.71275}]
