[{"name":"Abraham’s Bay","countryCode":"BS","stateCode":"MG","latitude":22.36667,"longitude":-72.96667},{"name":"Alice Town","countryCode":"BS","stateCode":"BI","latitude":25.728,"longitude":-79.29721},{"name":"Andros Town","countryCode":"BS","stateCode":"NS","latitude":24.70502,"longitude":-77.76912},{"name":"Arthur’s Town","countryCode":"BS","stateCode":"CI","latitude":24.6224,"longitude":-75.67151},{"name":"Clarence Town","countryCode":"BS","stateCode":"LI","latitude":23.1,"longitude":-74.98333},{"name":"Cockburn Town","countryCode":"BS","stateCode":"SS","latitude":24.05179,"longitude":-74.53138},{"name":"Colonel Hill","countryCode":"BS","stateCode":"CK","latitude":22.7545,"longitude":-74.20415},{"name":"Cooper’s Town","countryCode":"BS","stateCode":"NO","latitude":26.87137,"longitude":-77.51131},{"name":"Duncan Town","countryCode":"BS","stateCode":"RI","latitude":22.19083,"longitude":-75.72583},{"name":"Dunmore Town","countryCode":"BS","stateCode":"HI","latitude":25.50216,"longitude":-76.63633},{"name":"Freeport","countryCode":"BS","stateCode":"FP","latitude":26.53333,"longitude":-78.7},{"name":"George Town","countryCode":"BS","stateCode":"EX","latitude":23.51616,"longitude":-75.78665},{"name":"High Rock","countryCode":"BS","stateCode":"EG","latitude":26.60999,"longitude":-78.27863},{"name":"Lucaya","countryCode":"BS","stateCode":"FP","latitude":26.53333,"longitude":-78.66667},{"name":"Marsh Harbour","countryCode":"BS","stateCode":"CO","latitude":26.54124,"longitude":-77.0636},{"name":"Matthew Town","countryCode":"BS","stateCode":"IN","latitude":20.94982,"longitude":-73.67346},{"name":"Nassau","countryCode":"BS","stateCode":"NP","latitude":25.06666667,"longitude":-77.33333333},{"name":"Port Nelson","countryCode":"BS","stateCode":"RC","latitude":23.64967,"longitude":-74.84157},{"name":"San Andros","countryCode":"BS","stateCode":"NS","latitude":25.06667,"longitude":-78.05},{"name":"Spanish Wells","countryCode":"BS","stateCode":"SW","latitude":25.54717,"longitude":-76.76405},{"name":"West End","countryCode":"BS","stateCode":"WG","latitude":26.68711,"longitude":-78.97702}]
