[{"name":"Daga","countryCode":"BT","stateCode":"22","latitude":27.07529,"longitude":89.87688},{"name":"Daphu","countryCode":"BT","stateCode":"12","latitude":26.96667,"longitude":89.38333},{"name":"Gasa","countryCode":"BT","stateCode":"GA","latitude":27.90372,"longitude":89.72689},{"name":"Ha","countryCode":"BT","stateCode":"13","latitude":27.38747,"longitude":89.28074},{"name":"Jakar","countryCode":"BT","stateCode":"33","latitude":27.54918,"longitude":90.7525},{"name":"Lhuentse","countryCode":"BT","stateCode":"44","latitude":27.66787,"longitude":91.18393},{"name":"Mongar","countryCode":"BT","stateCode":"42","latitude":27.27471,"longitude":91.23963},{"name":"Pajo","countryCode":"BT","stateCode":"23","latitude":27.53333,"longitude":89.88333},{"name":"Panbang","countryCode":"BT","stateCode":"34","latitude":26.86667,"longitude":90.98333},{"name":"Paro","countryCode":"BT","stateCode":"11","latitude":27.4305,"longitude":89.41334},{"name":"Pemagatshel","countryCode":"BT","stateCode":"43","latitude":27.03795,"longitude":91.40305},{"name":"Phuntsholing","countryCode":"BT","stateCode":"12","latitude":26.85164,"longitude":89.38837},{"name":"Punākha","countryCode":"BT","stateCode":"23","latitude":27.59137,"longitude":89.87743},{"name":"Samdrup Jongkhar","countryCode":"BT","stateCode":"45","latitude":26.80069,"longitude":91.50519},{"name":"Samtse","countryCode":"BT","stateCode":"14","latitude":26.89903,"longitude":89.09951},{"name":"Sarpang","countryCode":"BT","stateCode":"31","latitude":26.86395,"longitude":90.26745},{"name":"Shemgang","countryCode":"BT","stateCode":"34","latitude":27.21689,"longitude":90.65793},{"name":"Thimphu","countryCode":"BT","stateCode":"15","latitude":27.46609,"longitude":89.64191},{"name":"Trashi Yangtse","countryCode":"BT","stateCode":"24","latitude":27.6116,"longitude":91.498},{"name":"Trashigang","countryCode":"BT","stateCode":"41","latitude":27.3331,"longitude":91.55424},{"name":"Trongsa","countryCode":"BT","stateCode":"21","latitude":27.5026,"longitude":90.50716},{"name":"Tsimasham","countryCode":"BT","stateCode":"12","latitude":27.0989,"longitude":89.53604},{"name":"Tsirang","countryCode":"BT","stateCode":"21","latitude":27.0219,"longitude":90.12291},{"name":"Wangdue Phodrang","countryCode":"BT","stateCode":"22","latitude":27.48615,"longitude":89.89915}]
