[{"name":"Belize City","countryCode":"BZ","stateCode":"BZ","latitude":17.49952,"longitude":-88.19756},{"name":"Belmopan","countryCode":"BZ","stateCode":"CY","latitude":17.25,"longitude":-88.76667},{"name":"Benque Viejo el Carmen","countryCode":"BZ","stateCode":"CY","latitude":17.075,"longitude":-89.13917},{"name":"Corozal","countryCode":"BZ","stateCode":"CZL","latitude":18.39375,"longitude":-88.38849},{"name":"Dangriga","countryCode":"BZ","stateCode":"SC","latitude":16.9697,"longitude":-88.23313},{"name":"Hopelchén","countryCode":"BZ","stateCode":"OW","latitude":17.8,"longitude":-89.1},{"name":"Orange Walk","countryCode":"BZ","stateCode":"OW","latitude":18.08124,"longitude":-88.56328},{"name":"Placencia","countryCode":"BZ","stateCode":"SC","latitude":16.51419,"longitude":-88.36647},{"name":"Punta Gorda","countryCode":"BZ","stateCode":"TOL","latitude":16.09835,"longitude":-88.8097},{"name":"San Ignacio","countryCode":"BZ","stateCode":"CY","latitude":17.1588,"longitude":-89.0696},{"name":"San Pedro","countryCode":"BZ","stateCode":"BZ","latitude":17.91598,"longitude":-87.9659},{"name":"Shipyard","countryCode":"BZ","stateCode":"OW","latitude":17.89382,"longitude":-88.65452},{"name":"Valley of Peace","countryCode":"BZ","stateCode":"CY","latitude":17.33472,"longitude":-88.83472}]
