[{"name":"Aketi","countryCode":"CD","stateCode":"BU","latitude":2.73877,"longitude":23.78326},{"name":"Bandundu","countryCode":"CD","stateCode":"KL","latitude":-3.31687,"longitude":17.38063},{"name":"Basoko","countryCode":"CD","stateCode":"TO","latitude":1.23909,"longitude":23.61598},{"name":"Beni","countryCode":"CD","stateCode":"NK","latitude":0.49113,"longitude":29.47306},{"name":"Boende","countryCode":"CD","stateCode":"TU","latitude":-0.28163,"longitude":20.88053},{"name":"Bolobo","countryCode":"CD","stateCode":"MN","latitude":-2.158,"longitude":16.23249},{"name":"Boma","countryCode":"CD","stateCode":"BC","latitude":-5.85098,"longitude":13.05364},{"name":"Bondo","countryCode":"CD","stateCode":"BU","latitude":3.81461,"longitude":23.68665},{"name":"Bongandanga","countryCode":"CD","stateCode":"SU","latitude":1.50695,"longitude":21.0726},{"name":"Bosobolo","countryCode":"CD","stateCode":"NU","latitude":4.1898,"longitude":19.8833},{"name":"Bukama","countryCode":"CD","stateCode":"HL","latitude":-9.20443,"longitude":25.85475},{"name":"Bukavu","countryCode":"CD","stateCode":"SK","latitude":-2.49077,"longitude":28.84281},{"name":"Bulungu","countryCode":"CD","stateCode":"KL","latitude":-4.54437,"longitude":18.60364},{"name":"Bumba","countryCode":"CD","stateCode":"MO","latitude":2.18771,"longitude":22.46827},{"name":"Bunia","countryCode":"CD","stateCode":"IT","latitude":1.55941,"longitude":30.25224},{"name":"Businga","countryCode":"CD","stateCode":"NU","latitude":3.33863,"longitude":20.88577},{"name":"Buta","countryCode":"CD","stateCode":"BU","latitude":2.78582,"longitude":24.72997},{"name":"Butembo","countryCode":"CD","stateCode":"NK","latitude":0.14164,"longitude":29.29117},{"name":"Gandajika","countryCode":"CD","stateCode":"KE","latitude":-6.74504,"longitude":23.95328},{"name":"Gbadolite","countryCode":"CD","stateCode":"NU","latitude":4.279,"longitude":21.00284},{"name":"Gemena","countryCode":"CD","stateCode":"EQ","latitude":3.25651,"longitude":19.77234},{"name":"Goma","countryCode":"CD","stateCode":"NK","latitude":-1.67409,"longitude":29.22845},{"name":"Haut Katanga","countryCode":"CD","stateCode":"HK","latitude":-10.46044,"longitude":27.94322},{"name":"Ilebo","countryCode":"CD","stateCode":"KS","latitude":-4.33111,"longitude":20.58638},{"name":"Inongo","countryCode":"CD","stateCode":"MN","latitude":-1.9275,"longitude":18.2881},{"name":"Isiro","countryCode":"CD","stateCode":"HU","latitude":2.77391,"longitude":27.61603},{"name":"Kabalo","countryCode":"CD","stateCode":"TA","latitude":-6.05255,"longitude":26.9143},{"name":"Kabare","countryCode":"CD","stateCode":"SK","latitude":-2.49682,"longitude":28.79081},{"name":"Kabinda","countryCode":"CD","stateCode":"KE","latitude":-6.13791,"longitude":24.48179},{"name":"Kalemie","countryCode":"CD","stateCode":"TA","latitude":-5.94749,"longitude":29.19471},{"name":"Kambove","countryCode":"CD","stateCode":"HK","latitude":-10.87352,"longitude":26.59746},{"name":"Kamina","countryCode":"CD","stateCode":"HL","latitude":-8.73508,"longitude":24.99798},{"name":"Kampene","countryCode":"CD","stateCode":"MA","latitude":-3.59678,"longitude":26.66715},{"name":"Kasangulu","countryCode":"CD","stateCode":"BC","latitude":-4.5833,"longitude":15.16554},{"name":"Kasongo","countryCode":"CD","stateCode":"MA","latitude":-4.42741,"longitude":26.66656},{"name":"Kasongo-Lunda","countryCode":"CD","stateCode":"KG","latitude":-6.47833,"longitude":16.81735},{"name":"Kikwit","countryCode":"CD","stateCode":"KL","latitude":-5.04098,"longitude":18.81619},{"name":"Kindu","countryCode":"CD","stateCode":"MA","latitude":-2.94373,"longitude":25.92237},{"name":"Kinshasa","countryCode":"CD","stateCode":"KN","latitude":-4.32758,"longitude":15.31357},{"name":"Kipushi","countryCode":"CD","stateCode":"HK","latitude":-11.76097,"longitude":27.25135},{"name":"Kisangani","countryCode":"CD","stateCode":"TO","latitude":0.51528,"longitude":25.19099},{"name":"Kongolo","countryCode":"CD","stateCode":"TA","latitude":-5.38532,"longitude":27.00029},{"name":"Libenge","countryCode":"CD","stateCode":"SU","latitude":3.65332,"longitude":18.63566},{"name":"Likasi","countryCode":"CD","stateCode":"HK","latitude":-10.98303,"longitude":26.7384},{"name":"Lisala","countryCode":"CD","stateCode":"EQ","latitude":2.15127,"longitude":21.51672},{"name":"Lodja","countryCode":"CD","stateCode":"SA","latitude":-3.52105,"longitude":23.6005},{"name":"Lubao","countryCode":"CD","stateCode":"LO","latitude":-5.38771,"longitude":25.74885},{"name":"Lubumbashi","countryCode":"CD","stateCode":"HK","latitude":-11.66089,"longitude":27.47938},{"name":"Luebo","countryCode":"CD","stateCode":"KS","latitude":-5.35218,"longitude":21.42192},{"name":"Lukolela","countryCode":"CD","stateCode":"EQ","latitude":-1.06046,"longitude":17.1821},{"name":"Lusambo","countryCode":"CD","stateCode":"SA","latitude":-4.97503,"longitude":23.44391},{"name":"Mangai","countryCode":"CD","stateCode":"KL","latitude":-4.02328,"longitude":19.53385},{"name":"Masina","countryCode":"CD","stateCode":"KN","latitude":-4.38361,"longitude":15.39139},{"name":"Matadi","countryCode":"CD","stateCode":"BC","latitude":-5.83861,"longitude":13.46306},{"name":"Mbandaka","countryCode":"CD","stateCode":"EQ","latitude":0.04865,"longitude":18.26034},{"name":"Mbanza-Ngungu","countryCode":"CD","stateCode":"BC","latitude":-5.25837,"longitude":14.85838},{"name":"Mbuji-Mayi","countryCode":"CD","stateCode":"KE","latitude":-6.13603,"longitude":23.58979},{"name":"Moanda","countryCode":"CD","stateCode":"BC","latitude":-5.92753,"longitude":12.37148},{"name":"Mushie","countryCode":"CD","stateCode":"MN","latitude":-3.01728,"longitude":16.92238},{"name":"Mweka","countryCode":"CD","stateCode":"KS","latitude":-4.85187,"longitude":21.5595},{"name":"Mwene-Ditu","countryCode":"CD","stateCode":"LO","latitude":-7.00906,"longitude":23.45278},{"name":"Nioki","countryCode":"CD","stateCode":"MN","latitude":-2.72037,"longitude":17.69001},{"name":"Sake","countryCode":"CD","stateCode":"NK","latitude":-1.57386,"longitude":29.04339},{"name":"Tshela","countryCode":"CD","stateCode":"BC","latitude":-4.99707,"longitude":12.9484},{"name":"Tshikapa","countryCode":"CD","stateCode":"KS","latitude":-6.41621,"longitude":20.79995},{"name":"Uvira","countryCode":"CD","stateCode":"SK","latitude":-3.39534,"longitude":29.13779},{"name":"Wamba","countryCode":"CD","stateCode":"HU","latitude":2.14838,"longitude":27.99466},{"name":"Watsa","countryCode":"CD","stateCode":"HU","latitude":3.03716,"longitude":29.53551},{"name":"Yangambi","countryCode":"CD","stateCode":"TO","latitude":0.76755,"longitude":24.43973}]
