[{"name":"Abengourou","countryCode":"CI","stateCode":"CM","latitude":6.72972,"longitude":-3.49639},{"name":"Abidjan","countryCode":"CI","stateCode":"AB","latitude":5.30966,"longitude":-4.01266},{"name":"Abobo","countryCode":"CI","stateCode":"AB","latitude":5.41613,"longitude":-4.0159},{"name":"Aboisso","countryCode":"CI","stateCode":"CM","latitude":5.46779,"longitude":-3.20711},{"name":"Adiaké","countryCode":"CI","stateCode":"CM","latitude":5.28634,"longitude":-3.30403},{"name":"Adzopé","countryCode":"CI","stateCode":"01","latitude":6.10694,"longitude":-3.86194},{"name":"Affery","countryCode":"CI","stateCode":"01","latitude":6.32035,"longitude":-3.95235},{"name":"Agboville","countryCode":"CI","stateCode":"01","latitude":5.92801,"longitude":-4.21319},{"name":"Agnéby-Tiassa","countryCode":"CI","stateCode":"01","latitude":5.79488,"longitude":-4.37187},{"name":"Agnibilékrou","countryCode":"CI","stateCode":"CM","latitude":7.13113,"longitude":-3.20415},{"name":"Akoupé","countryCode":"CI","stateCode":"01","latitude":6.38423,"longitude":-3.88759},{"name":"Anyama","countryCode":"CI","stateCode":"AB","latitude":5.49462,"longitude":-4.05183},{"name":"Arrah","countryCode":"CI","stateCode":"07","latitude":6.67342,"longitude":-3.96938},{"name":"Ayamé","countryCode":"CI","stateCode":"CM","latitude":5.6052,"longitude":-3.15709},{"name":"Bafing","countryCode":"CI","stateCode":"WR","latitude":8.40611,"longitude":-7.58048},{"name":"Bangolo","countryCode":"CI","stateCode":"06","latitude":7.01232,"longitude":-7.48639},{"name":"Bélier","countryCode":"CI","stateCode":"07","latitude":7.02582,"longitude":-5.06744},{"name":"Béoumi","countryCode":"CI","stateCode":"04","latitude":7.67395,"longitude":-5.58085},{"name":"Béré","countryCode":"CI","stateCode":"WR","latitude":8.18952,"longitude":-6.17157},{"name":"Biankouma","countryCode":"CI","stateCode":"06","latitude":7.73909,"longitude":-7.61377},{"name":"Bingerville","countryCode":"CI","stateCode":"AB","latitude":5.35581,"longitude":-3.88537},{"name":"Bocanda","countryCode":"CI","stateCode":"07","latitude":7.06264,"longitude":-4.49948},{"name":"Bondoukou","countryCode":"CI","stateCode":"ZZ","latitude":8.0402,"longitude":-2.80003},{"name":"Bongouanou","countryCode":"CI","stateCode":"07","latitude":6.65175,"longitude":-4.20406},{"name":"Bonoua","countryCode":"CI","stateCode":"CM","latitude":5.27247,"longitude":-3.59625},{"name":"Botro","countryCode":"CI","stateCode":"04","latitude":7.85249,"longitude":-5.31063},{"name":"Bouaflé","countryCode":"CI","stateCode":"SM","latitude":6.99041,"longitude":-5.7442},{"name":"Bouaké","countryCode":"CI","stateCode":"04","latitude":7.69385,"longitude":-5.03031},{"name":"Bouna","countryCode":"CI","stateCode":"ZZ","latitude":9.26927,"longitude":-2.9951},{"name":"Bounkani","countryCode":"CI","stateCode":"ZZ","latitude":9.47841,"longitude":-3.31238},{"name":"Cavally","countryCode":"CI","stateCode":"06","latitude":6.56343,"longitude":-7.92526},{"name":"Dabakala","countryCode":"CI","stateCode":"04","latitude":8.36321,"longitude":-4.42863},{"name":"Dabou","countryCode":"CI","stateCode":"01","latitude":5.32556,"longitude":-4.37685},{"name":"Daloa","countryCode":"CI","stateCode":"SM","latitude":6.87735,"longitude":-6.45022},{"name":"Danané","countryCode":"CI","stateCode":"06","latitude":7.25957,"longitude":-8.15498},{"name":"Daoukro","countryCode":"CI","stateCode":"07","latitude":7.0591,"longitude":-3.9631},{"name":"Dimbokro","countryCode":"CI","stateCode":"07","latitude":6.64678,"longitude":-4.70519},{"name":"Divo","countryCode":"CI","stateCode":"GD","latitude":5.83739,"longitude":-5.35723},{"name":"Duekoué","countryCode":"CI","stateCode":"06","latitude":6.74202,"longitude":-7.34918},{"name":"Folon","countryCode":"CI","stateCode":"DN","latitude":9.81241,"longitude":-7.51894},{"name":"Gagnoa","countryCode":"CI","stateCode":"GD","latitude":6.13193,"longitude":-5.9506},{"name":"Gbêkê","countryCode":"CI","stateCode":"04","latitude":7.70271,"longitude":-5.28511},{"name":"Gbôklé","countryCode":"CI","stateCode":"BS","latitude":4.95712,"longitude":-6.09372},{"name":"Gôh","countryCode":"CI","stateCode":"GD","latitude":6.14459,"longitude":-5.92644},{"name":"Gontougo","countryCode":"CI","stateCode":"ZZ","latitude":7.87132,"longitude":-3.07068},{"name":"Grand-Bassam","countryCode":"CI","stateCode":"CM","latitude":5.2118,"longitude":-3.73884},{"name":"Grand-Lahou","countryCode":"CI","stateCode":"01","latitude":5.25068,"longitude":-5.00333},{"name":"Grands-Ponts","countryCode":"CI","stateCode":"01","latitude":5.30487,"longitude":-4.39247},{"name":"Guémon","countryCode":"CI","stateCode":"06","latitude":7.093,"longitude":-7.17785},{"name":"Guibéroua","countryCode":"CI","stateCode":"GD","latitude":6.23869,"longitude":-6.17147},{"name":"Guiglo","countryCode":"CI","stateCode":"06","latitude":6.54368,"longitude":-7.4935},{"name":"Hambol","countryCode":"CI","stateCode":"04","latitude":8.30368,"longitude":-5.15396},{"name":"Haut-Sassandra","countryCode":"CI","stateCode":"SM","latitude":6.66961,"longitude":-6.50116},{"name":"Iffou","countryCode":"CI","stateCode":"07","latitude":7.11509,"longitude":-3.95027},{"name":"Indénié-Djuablin","countryCode":"CI","stateCode":"CM","latitude":6.74434,"longitude":-3.494},{"name":"Issia","countryCode":"CI","stateCode":"SM","latitude":6.49224,"longitude":-6.58558},{"name":"Kabadougou","countryCode":"CI","stateCode":"DN","latitude":9.60571,"longitude":-7.43774},{"name":"Katiola","countryCode":"CI","stateCode":"04","latitude":8.13728,"longitude":-5.10095},{"name":"Lakota","countryCode":"CI","stateCode":"GD","latitude":5.84752,"longitude":-5.682},{"name":"Lôh-Djiboua","countryCode":"CI","stateCode":"GD","latitude":5.82483,"longitude":-5.47668},{"name":"Man","countryCode":"CI","stateCode":"06","latitude":7.41251,"longitude":-7.55383},{"name":"Mankono","countryCode":"CI","stateCode":"WR","latitude":8.05861,"longitude":-6.18972},{"name":"Marahoué","countryCode":"CI","stateCode":"SM","latitude":7.03252,"longitude":-5.80215},{"name":"Moronou","countryCode":"CI","stateCode":"07","latitude":6.6683,"longitude":-4.13155},{"name":"N'Zi","countryCode":"CI","stateCode":"07","latitude":6.82803,"longitude":-4.5813},{"name":"Nawa","countryCode":"CI","stateCode":"BS","latitude":5.80112,"longitude":-6.60313},{"name":"Odienné","countryCode":"CI","stateCode":"DN","latitude":9.50511,"longitude":-7.56433},{"name":"Oumé","countryCode":"CI","stateCode":"GD","latitude":6.38309,"longitude":-5.41759},{"name":"Sakassou","countryCode":"CI","stateCode":"04","latitude":7.45462,"longitude":-5.29263},{"name":"San-Pédro","countryCode":"CI","stateCode":"BS","latitude":4.76768,"longitude":-6.65033},{"name":"Sassandra","countryCode":"CI","stateCode":"BS","latitude":4.95384,"longitude":-6.08531},{"name":"Séguéla","countryCode":"CI","stateCode":"WR","latitude":7.96111,"longitude":-6.67306},{"name":"Sinfra","countryCode":"CI","stateCode":"ZZ","latitude":6.62103,"longitude":-5.91144},{"name":"Sud-Comoé","countryCode":"CI","stateCode":"CM","latitude":5.49961,"longitude":-3.2408},{"name":"Tabou","countryCode":"CI","stateCode":"BS","latitude":4.42295,"longitude":-7.3528},{"name":"Tanda","countryCode":"CI","stateCode":"ZZ","latitude":7.80335,"longitude":-3.16832},{"name":"Tiassalé","countryCode":"CI","stateCode":"01","latitude":5.89839,"longitude":-4.82293},{"name":"Tonkpi","countryCode":"CI","stateCode":"06","latitude":7.56785,"longitude":-7.60941},{"name":"Touba","countryCode":"CI","stateCode":"WR","latitude":8.28333,"longitude":-7.68333},{"name":"Toulépleu Gueré","countryCode":"CI","stateCode":"06","latitude":6.57395,"longitude":-8.42592},{"name":"Toumodi","countryCode":"CI","stateCode":"07","latitude":6.55799,"longitude":-5.01769},{"name":"Vavoua","countryCode":"CI","stateCode":"SM","latitude":7.38194,"longitude":-6.47778},{"name":"Worodougou","countryCode":"CI","stateCode":"WR","latitude":8.16482,"longitude":-6.66595},{"name":"Yamoussoukro","countryCode":"CI","stateCode":"07","latitude":6.82055,"longitude":-5.27674},{"name":"Zuénoula","countryCode":"CI","stateCode":"SM","latitude":7.43027,"longitude":-6.05054}]
