[{"name":"Abejorral","countryCode":"CO","stateCode":"ANT","latitude":5.78928,"longitude":-75.42725},{"name":"Abrego","countryCode":"CO","stateCode":"NSA","latitude":8,"longitude":-73.2},{"name":"Abriaquí","countryCode":"CO","stateCode":"ANT","latitude":6.63148,"longitude":-76.06444},{"name":"Acacías","countryCode":"CO","stateCode":"MET","latitude":3.98695,"longitude":-73.75797},{"name":"Acandí","countryCode":"CO","stateCode":"CHO","latitude":8.51158,"longitude":-77.27719},{"name":"Acevedo","countryCode":"CO","stateCode":"HUI","latitude":1.83611111,"longitude":-75.855},{"name":"Achí","countryCode":"CO","stateCode":"BOL","latitude":8.5695,"longitude":-74.55715},{"name":"Agua de Dios","countryCode":"CO","stateCode":"CUN","latitude":4.37648,"longitude":-74.66995},{"name":"Aguachica","countryCode":"CO","stateCode":"CES","latitude":8.30844,"longitude":-73.6166},{"name":"Aguada","countryCode":"CO","stateCode":"SAN","latitude":6.16019,"longitude":-73.52747},{"name":"Aguadas","countryCode":"CO","stateCode":"CAL","latitude":5.61161,"longitude":-75.45624},{"name":"Aguazul","countryCode":"CO","stateCode":"CAS","latitude":5.17282,"longitude":-72.54706},{"name":"Agustín Codazzi","countryCode":"CO","stateCode":"CES","latitude":10.03672,"longitude":-73.23558},{"name":"Aipe","countryCode":"CO","stateCode":"HUI","latitude":3.22194444,"longitude":-75.2375},{"name":"Albán","countryCode":"CO","stateCode":"CUN","latitude":4.89432,"longitude":-74.44388},{"name":"Albania","countryCode":"CO","stateCode":"CAQ","latitude":1.26325,"longitude":-75.95366},{"name":"Albania","countryCode":"CO","stateCode":"LAG","latitude":11.16099,"longitude":-72.59238},{"name":"Albania","countryCode":"CO","stateCode":"SAN","latitude":5.75894,"longitude":-73.91376},{"name":"Alcalá","countryCode":"CO","stateCode":"VAC","latitude":4.67458,"longitude":-75.77188},{"name":"Aldana","countryCode":"CO","stateCode":"NAR","latitude":0.88283,"longitude":-77.70103},{"name":"Alejandría","countryCode":"CO","stateCode":"ANT","latitude":6.36667,"longitude":-75.08333},{"name":"Algarrobo","countryCode":"CO","stateCode":"MAG","latitude":10.18553,"longitude":-74.06158},{"name":"Algeciras","countryCode":"CO","stateCode":"HUI","latitude":2.52194444,"longitude":-75.31444444},{"name":"Almaguer","countryCode":"CO","stateCode":"CAU","latitude":1.91472,"longitude":-76.85482},{"name":"Almeida","countryCode":"CO","stateCode":"BOY","latitude":4.97083,"longitude":-73.37972},{"name":"Alpujarra","countryCode":"CO","stateCode":"TOL","latitude":3.39222,"longitude":-74.93271},{"name":"Altamira","countryCode":"CO","stateCode":"HUI","latitude":2.06333333,"longitude":-75.78777778},{"name":"Alto Baudó","countryCode":"CO","stateCode":"CHO","latitude":5.51604,"longitude":-76.97449},{"name":"Altos del Rosario","countryCode":"CO","stateCode":"BOL","latitude":8.79162,"longitude":-74.16556},{"name":"Alvarado","countryCode":"CO","stateCode":"TOL","latitude":4.58826,"longitude":-74.9781},{"name":"Amagá","countryCode":"CO","stateCode":"ANT","latitude":6.04001,"longitude":-75.70315},{"name":"Amalfi","countryCode":"CO","stateCode":"ANT","latitude":6.91016,"longitude":-75.07764},{"name":"Ambalema","countryCode":"CO","stateCode":"TOL","latitude":4.78405,"longitude":-74.76268},{"name":"Anapoima","countryCode":"CO","stateCode":"CUN","latitude":4.55099,"longitude":-74.53517},{"name":"Ancuya","countryCode":"CO","stateCode":"NAR","latitude":1.2633,"longitude":-77.51376},{"name":"Andalucía","countryCode":"CO","stateCode":"VAC","latitude":4.14035,"longitude":-76.14739},{"name":"Andes","countryCode":"CO","stateCode":"ANT","latitude":5.66974,"longitude":-75.89905},{"name":"Angelópolis","countryCode":"CO","stateCode":"ANT","latitude":6.12228,"longitude":-75.71432},{"name":"Angostura","countryCode":"CO","stateCode":"ANT","latitude":6.8712,"longitude":-75.35947},{"name":"Anolaima","countryCode":"CO","stateCode":"CUN","latitude":4.83362,"longitude":-74.4995},{"name":"Anorí","countryCode":"CO","stateCode":"ANT","latitude":7.07361111,"longitude":-75.14694444},{"name":"Anserma","countryCode":"CO","stateCode":"CAL","latitude":5.20427,"longitude":-75.79167},{"name":"Ansermanuevo","countryCode":"CO","stateCode":"VAC","latitude":4.79722,"longitude":-75.995},{"name":"Anza","countryCode":"CO","stateCode":"ANT","latitude":6.33333,"longitude":-75.91667},{"name":"Anzoátegui","countryCode":"CO","stateCode":"TOL","latitude":4.62232,"longitude":-75.18046},{"name":"Apartadó","countryCode":"CO","stateCode":"ANT","latitude":7.88299,"longitude":-76.62587},{"name":"Apía","countryCode":"CO","stateCode":"RIS","latitude":5.10658,"longitude":-75.94244},{"name":"Apulo","countryCode":"CO","stateCode":"CUN","latitude":4.51952,"longitude":-74.59293},{"name":"Aquitania","countryCode":"CO","stateCode":"BOY","latitude":5.40341,"longitude":-72.90192},{"name":"Aracataca","countryCode":"CO","stateCode":"MAG","latitude":10.59181,"longitude":-74.18983},{"name":"Aranzazu","countryCode":"CO","stateCode":"CAL","latitude":5.25519,"longitude":-75.50984},{"name":"Aratoca","countryCode":"CO","stateCode":"SAN","latitude":6.69432,"longitude":-73.01868},{"name":"Arauca","countryCode":"CO","stateCode":"ARA","latitude":7.08471,"longitude":-70.75908},{"name":"Arauquita","countryCode":"CO","stateCode":"ARA","latitude":7.02917,"longitude":-71.42806},{"name":"Arbeláez","countryCode":"CO","stateCode":"CUN","latitude":4.21251,"longitude":-74.41464},{"name":"Arboleda","countryCode":"CO","stateCode":"NAR","latitude":1.4983,"longitude":-77.13613},{"name":"Arboledas","countryCode":"CO","stateCode":"NSA","latitude":7.63494,"longitude":-72.8605},{"name":"Arboletes","countryCode":"CO","stateCode":"ANT","latitude":8.85051,"longitude":-76.42694},{"name":"Arcabuco","countryCode":"CO","stateCode":"BOY","latitude":5.75463,"longitude":-73.43669},{"name":"Arenal","countryCode":"CO","stateCode":"BOL","latitude":8.45928,"longitude":-73.94331},{"name":"Argelia","countryCode":"CO","stateCode":"ANT","latitude":5.73127,"longitude":-75.14257},{"name":"Argelia","countryCode":"CO","stateCode":"CAU","latitude":2.31728,"longitude":-77.257},{"name":"Argelia","countryCode":"CO","stateCode":"VAC","latitude":4.72904,"longitude":-76.11637},{"name":"Ariguaní","countryCode":"CO","stateCode":"MAG","latitude":9.89383,"longitude":-74.13583},{"name":"Arjona","countryCode":"CO","stateCode":"BOL","latitude":10.17594,"longitude":-75.35884},{"name":"Armenia","countryCode":"CO","stateCode":"ANT","latitude":6.17554,"longitude":-75.8123},{"name":"Armenia","countryCode":"CO","stateCode":"QUI","latitude":4.53307,"longitude":-75.70438},{"name":"Armero","countryCode":"CO","stateCode":"TOL","latitude":5.03055666,"longitude":-74.88444444},{"name":"Arroyohondo","countryCode":"CO","stateCode":"BOL","latitude":10.2522,"longitude":-75.0198},{"name":"Astrea","countryCode":"CO","stateCode":"CES","latitude":9.49828,"longitude":-73.97591},{"name":"Ataco","countryCode":"CO","stateCode":"TOL","latitude":3.59147,"longitude":-75.38178},{"name":"Atrato","countryCode":"CO","stateCode":"CHO","latitude":5.57362,"longitude":-76.64063},{"name":"Ayapel","countryCode":"CO","stateCode":"COR","latitude":8.31372,"longitude":-75.13982},{"name":"Bagadó","countryCode":"CO","stateCode":"CHO","latitude":5.41164,"longitude":-76.4152},{"name":"Bahía Solano","countryCode":"CO","stateCode":"CHO","latitude":6.2252,"longitude":-77.39147},{"name":"Bajo Baudó","countryCode":"CO","stateCode":"CHO","latitude":4.95334,"longitude":-77.36598},{"name":"Balboa","countryCode":"CO","stateCode":"CAU","latitude":2.08436,"longitude":-77.20781},{"name":"Balboa","countryCode":"CO","stateCode":"RIS","latitude":4.92284,"longitude":-75.9403},{"name":"Baranoa","countryCode":"CO","stateCode":"ATL","latitude":10.79497,"longitude":-74.92073},{"name":"Baraya","countryCode":"CO","stateCode":"HUI","latitude":3.15305556,"longitude":-75.0525},{"name":"Barbacoas","countryCode":"CO","stateCode":"NAR","latitude":1.67154,"longitude":-78.13978},{"name":"Barbosa","countryCode":"CO","stateCode":"ANT","latitude":6.43809,"longitude":-75.33136},{"name":"Barbosa","countryCode":"CO","stateCode":"SAN","latitude":5.93168,"longitude":-73.61507},{"name":"Barichara","countryCode":"CO","stateCode":"SAN","latitude":6.63572,"longitude":-73.22282},{"name":"Barranca de Upía","countryCode":"CO","stateCode":"MET","latitude":4.56963,"longitude":-72.96676},{"name":"Barrancabermeja","countryCode":"CO","stateCode":"SAN","latitude":7.06528,"longitude":-73.85472},{"name":"Barrancas","countryCode":"CO","stateCode":"LAG","latitude":10.9718,"longitude":-72.69115},{"name":"Barranco de Loba","countryCode":"CO","stateCode":"BOL","latitude":8.94597,"longitude":-74.10647},{"name":"Barranco Minas","countryCode":"CO","stateCode":"GUA","latitude":3.09899,"longitude":-69.58297},{"name":"Barranquilla","countryCode":"CO","stateCode":"ATL","latitude":10.96854,"longitude":-74.78132},{"name":"Becerril","countryCode":"CO","stateCode":"CES","latitude":9.70413,"longitude":-73.2793},{"name":"Belalcázar","countryCode":"CO","stateCode":"CAL","latitude":4.99528,"longitude":-75.81278},{"name":"Belén","countryCode":"CO","stateCode":"BOY","latitude":5.98892,"longitude":-72.91254},{"name":"Belén","countryCode":"CO","stateCode":"NAR","latitude":1.59477,"longitude":-77.05408},{"name":"Belén de Los Andaquies","countryCode":"CO","stateCode":"CAQ","latitude":1.41667,"longitude":-75.91667},{"name":"Belén de Umbría","countryCode":"CO","stateCode":"RIS","latitude":5.20087,"longitude":-75.86865},{"name":"Bello","countryCode":"CO","stateCode":"ANT","latitude":6.3616,"longitude":-75.58728},{"name":"Belmira","countryCode":"CO","stateCode":"ANT","latitude":6.60508,"longitude":-75.66619},{"name":"Beltrán","countryCode":"CO","stateCode":"CUN","latitude":4.71947,"longitude":-74.7566},{"name":"Berbeo","countryCode":"CO","stateCode":"BOY","latitude":5.2276,"longitude":-73.12527},{"name":"Betania","countryCode":"CO","stateCode":"ANT","latitude":5.73571,"longitude":-75.98964},{"name":"Betéitiva","countryCode":"CO","stateCode":"BOY","latitude":5.91102,"longitude":-72.80926},{"name":"Betulia","countryCode":"CO","stateCode":"ANT","latitude":6.11284,"longitude":-75.98378},{"name":"Betulia","countryCode":"CO","stateCode":"SAN","latitude":6.90069,"longitude":-73.28347},{"name":"Bituima","countryCode":"CO","stateCode":"CUN","latitude":4.87252,"longitude":-74.53925},{"name":"Boavita","countryCode":"CO","stateCode":"BOY","latitude":6.33031,"longitude":-72.58505},{"name":"Bochalema","countryCode":"CO","stateCode":"NSA","latitude":7.60217,"longitude":-72.68839},{"name":"Bogotá D.C.","countryCode":"CO","stateCode":"CUN","latitude":4.61263889,"longitude":-74.0705},{"name":"Bogotá D.C.","countryCode":"CO","stateCode":"DC","latitude":4.61263889,"longitude":-74.0705},{"name":"Bojacá","countryCode":"CO","stateCode":"CUN","latitude":4.73176,"longitude":-74.34129},{"name":"Bojayá","countryCode":"CO","stateCode":"CHO","latitude":6.55645,"longitude":-76.88389},{"name":"Bolívar","countryCode":"CO","stateCode":"CAU","latitude":1.8467,"longitude":-76.98292},{"name":"Bolívar","countryCode":"CO","stateCode":"SAN","latitude":5.9893,"longitude":-73.77058},{"name":"Bolívar","countryCode":"CO","stateCode":"VAC","latitude":4.3771,"longitude":-76.3487},{"name":"Bosconia","countryCode":"CO","stateCode":"CES","latitude":9.97611111,"longitude":-73.89033333},{"name":"Boyacá","countryCode":"CO","stateCode":"BOY","latitude":5.45371,"longitude":-73.3625},{"name":"Briceño","countryCode":"CO","stateCode":"ANT","latitude":7.05001,"longitude":-75.50903},{"name":"Briceño","countryCode":"CO","stateCode":"BOY","latitude":5.68822,"longitude":-73.91784},{"name":"Bucaramanga","countryCode":"CO","stateCode":"SAN","latitude":7.12539,"longitude":-73.1198},{"name":"Bucarasica","countryCode":"CO","stateCode":"NSA","latitude":8.04096,"longitude":-72.86538},{"name":"Buenaventura","countryCode":"CO","stateCode":"VAC","latitude":3.8801,"longitude":-77.03116},{"name":"Buenavista","countryCode":"CO","stateCode":"BOY","latitude":5.5,"longitude":-73.96667},{"name":"Buenavista","countryCode":"CO","stateCode":"COR","latitude":9.04963,"longitude":-76.0028},{"name":"Buenavista","countryCode":"CO","stateCode":"QUI","latitude":4.35969,"longitude":-75.73888},{"name":"Buenavista","countryCode":"CO","stateCode":"SUC","latitude":9.31972222,"longitude":-74.97166777},{"name":"Buenos Aires","countryCode":"CO","stateCode":"CAU","latitude":3.04825,"longitude":-76.63066},{"name":"Buesaco","countryCode":"CO","stateCode":"NAR","latitude":1.38364,"longitude":-77.15622},{"name":"Bugalagrande","countryCode":"CO","stateCode":"VAC","latitude":4.21207,"longitude":-76.15564},{"name":"Buriticá","countryCode":"CO","stateCode":"ANT","latitude":6.80549,"longitude":-75.92093},{"name":"Busbanzá","countryCode":"CO","stateCode":"BOY","latitude":5.83047,"longitude":-72.88419},{"name":"Cabrera","countryCode":"CO","stateCode":"CUN","latitude":3.98598,"longitude":-74.48283},{"name":"Cabrera","countryCode":"CO","stateCode":"SAN","latitude":6.56443,"longitude":-73.26768},{"name":"Cabuyaro","countryCode":"CO","stateCode":"MET","latitude":4.2817,"longitude":-72.79399},{"name":"Cacahual","countryCode":"CO","stateCode":"GUA","latitude":3.32533,"longitude":-67.62397},{"name":"Cáceres","countryCode":"CO","stateCode":"ANT","latitude":7.68252,"longitude":-75.22481},{"name":"Cachipay","countryCode":"CO","stateCode":"CUN","latitude":5.26667,"longitude":-74.56667},{"name":"Cachirá","countryCode":"CO","stateCode":"NSA","latitude":7.75,"longitude":-73.16667},{"name":"Cácota","countryCode":"CO","stateCode":"NSA","latitude":7.26787,"longitude":-72.64197},{"name":"Caicedo","countryCode":"CO","stateCode":"ANT","latitude":6.42805,"longitude":-75.99715},{"name":"Caicedonia","countryCode":"CO","stateCode":"VAC","latitude":4.3324,"longitude":-75.82665},{"name":"Caimito","countryCode":"CO","stateCode":"SUC","latitude":8.78834,"longitude":-75.13583},{"name":"Cajamarca","countryCode":"CO","stateCode":"TOL","latitude":4.41667,"longitude":-75.5},{"name":"Cajibío","countryCode":"CO","stateCode":"CAU","latitude":2.62271,"longitude":-76.57039},{"name":"Cajicá","countryCode":"CO","stateCode":"CUN","latitude":4.91857,"longitude":-74.02799},{"name":"Calamar","countryCode":"CO","stateCode":"BOL","latitude":10.23377,"longitude":-74.9424},{"name":"Calamar","countryCode":"CO","stateCode":"GUV","latitude":1.9596,"longitude":-72.65315},{"name":"Calarca","countryCode":"CO","stateCode":"QUI","latitude":4.5,"longitude":-75.63333},{"name":"Caldas","countryCode":"CO","stateCode":"ANT","latitude":6.09106,"longitude":-75.63569},{"name":"Caldas","countryCode":"CO","stateCode":"BOY","latitude":5.5783,"longitude":-73.88066},{"name":"Caldono","countryCode":"CO","stateCode":"CAU","latitude":2.79739,"longitude":-76.48316},{"name":"Cali","countryCode":"CO","stateCode":"VAC","latitude":3.41033,"longitude":-76.58097},{"name":"California","countryCode":"CO","stateCode":"SAN","latitude":7.3434,"longitude":-72.95815},{"name":"Calima","countryCode":"CO","stateCode":"VAC","latitude":3.92511,"longitude":-76.62654},{"name":"Caloto","countryCode":"CO","stateCode":"CAU","latitude":3.03586,"longitude":-76.40788},{"name":"Campamento","countryCode":"CO","stateCode":"ANT","latitude":7.0391,"longitude":-75.28938},{"name":"Campo de la Cruz","countryCode":"CO","stateCode":"ATL","latitude":10.37844,"longitude":-74.90258},{"name":"Campoalegre","countryCode":"CO","stateCode":"HUI","latitude":2.68666667,"longitude":-75.32555556},{"name":"Campohermoso","countryCode":"CO","stateCode":"BOY","latitude":4.97733,"longitude":-73.16714},{"name":"Canalete","countryCode":"CO","stateCode":"COR","latitude":8.67611,"longitude":-76.20417},{"name":"Cañasgordas","countryCode":"CO","stateCode":"ANT","latitude":6.80951,"longitude":-76.03954},{"name":"Candelaria","countryCode":"CO","stateCode":"ATL","latitude":10.47387,"longitude":-74.88581},{"name":"Candelaria","countryCode":"CO","stateCode":"VAC","latitude":3.38367,"longitude":-76.42466},{"name":"Cantagallo","countryCode":"CO","stateCode":"BOL","latitude":7.37926,"longitude":-73.9155},{"name":"Caparrapí","countryCode":"CO","stateCode":"CUN","latitude":5.34644,"longitude":-74.49147},{"name":"Capitanejo","countryCode":"CO","stateCode":"SAN","latitude":6.52881,"longitude":-72.69595},{"name":"Caqueza","countryCode":"CO","stateCode":"CUN","latitude":4.38708,"longitude":-73.95722},{"name":"Caracolí","countryCode":"CO","stateCode":"ANT","latitude":6.4092,"longitude":-74.75715},{"name":"Caramanta","countryCode":"CO","stateCode":"ANT","latitude":5.54144,"longitude":-75.66961},{"name":"Carcasí","countryCode":"CO","stateCode":"SAN","latitude":6.62711,"longitude":-72.62625},{"name":"Carepa","countryCode":"CO","stateCode":"ANT","latitude":7.75849,"longitude":-76.65255},{"name":"Carmen de Apicalá","countryCode":"CO","stateCode":"TOL","latitude":4.14725,"longitude":-74.72014},{"name":"Carmen de Carupa","countryCode":"CO","stateCode":"CUN","latitude":5.34862,"longitude":-73.90168},{"name":"Carmen del Darien","countryCode":"CO","stateCode":"CHO","latitude":7.15777888,"longitude":-76.97083333},{"name":"Carolina","countryCode":"CO","stateCode":"ANT","latitude":6.74807,"longitude":-75.32131},{"name":"Cartagena de Indias","countryCode":"CO","stateCode":"BOL","latitude":10.39972,"longitude":-75.51444},{"name":"Cartagena del Chairá","countryCode":"CO","stateCode":"CAQ","latitude":1.33488,"longitude":-74.84289},{"name":"Cartago","countryCode":"CO","stateCode":"VAC","latitude":4.74639,"longitude":-75.91167},{"name":"Caruru","countryCode":"CO","stateCode":"VAU","latitude":1.02081,"longitude":-71.33788},{"name":"Casabianca","countryCode":"CO","stateCode":"TOL","latitude":5.07959,"longitude":-75.12059},{"name":"Castilla la Nueva","countryCode":"CO","stateCode":"MET","latitude":3.82722,"longitude":-73.68831},{"name":"Caucasia","countryCode":"CO","stateCode":"ANT","latitude":7.98654,"longitude":-75.19349},{"name":"Cepitá","countryCode":"CO","stateCode":"SAN","latitude":6.75427,"longitude":-72.9744},{"name":"Cereté","countryCode":"CO","stateCode":"COR","latitude":8.88479,"longitude":-75.79052},{"name":"Cerinza","countryCode":"CO","stateCode":"BOY","latitude":5.93649,"longitude":-72.99127},{"name":"Cerrito","countryCode":"CO","stateCode":"SAN","latitude":6.84315,"longitude":-72.69404},{"name":"Cerro de San Antonio","countryCode":"CO","stateCode":"MAG","latitude":10.32585,"longitude":-74.86933},{"name":"Cértegui","countryCode":"CO","stateCode":"CHO","latitude":5.37073,"longitude":-76.6044},{"name":"Chachagüí","countryCode":"CO","stateCode":"NAR","latitude":1.35943,"longitude":-77.28367},{"name":"Chaguaní","countryCode":"CO","stateCode":"CUN","latitude":4.94829,"longitude":-74.59392},{"name":"Chalán","countryCode":"CO","stateCode":"SUC","latitude":9.54765,"longitude":-75.31128},{"name":"Chameza","countryCode":"CO","stateCode":"CAS","latitude":5.19237,"longitude":-72.88952},{"name":"Chaparral","countryCode":"CO","stateCode":"TOL","latitude":3.75,"longitude":-75.58333},{"name":"Charalá","countryCode":"CO","stateCode":"SAN","latitude":6.17513,"longitude":-73.17587},{"name":"Charta","countryCode":"CO","stateCode":"SAN","latitude":7.28025,"longitude":-72.96782},{"name":"Chía","countryCode":"CO","stateCode":"CUN","latitude":4.84452,"longitude":-74.05848},{"name":"Chigorodó","countryCode":"CO","stateCode":"ANT","latitude":7.66638,"longitude":-76.68106},{"name":"Chima","countryCode":"CO","stateCode":"SAN","latitude":6.36289,"longitude":-73.42534},{"name":"Chimá","countryCode":"CO","stateCode":"COR","latitude":9.14893,"longitude":-75.62841},{"name":"Chimichagua","countryCode":"CO","stateCode":"CES","latitude":9.25778,"longitude":-73.81228},{"name":"Chinácota","countryCode":"CO","stateCode":"NSA","latitude":7.60731,"longitude":-72.60108},{"name":"Chinavita","countryCode":"CO","stateCode":"BOY","latitude":5.17915,"longitude":-73.37147},{"name":"Chinchiná","countryCode":"CO","stateCode":"CAL","latitude":4.97522,"longitude":-75.70416},{"name":"Chinú","countryCode":"CO","stateCode":"COR","latitude":9.03869,"longitude":-75.34273},{"name":"Chipaque","countryCode":"CO","stateCode":"CUN","latitude":4.4425,"longitude":-74.04417},{"name":"Chipatá","countryCode":"CO","stateCode":"SAN","latitude":6.06196,"longitude":-73.63718},{"name":"Chiquinquirá","countryCode":"CO","stateCode":"BOY","latitude":5.61363,"longitude":-73.83848},{"name":"Chíquiza","countryCode":"CO","stateCode":"BOY","latitude":5.60412,"longitude":-73.48518},{"name":"Chiriguaná","countryCode":"CO","stateCode":"CES","latitude":9.36238,"longitude":-73.60313},{"name":"Chiscas","countryCode":"CO","stateCode":"BOY","latitude":6.55642,"longitude":-72.50378},{"name":"Chita","countryCode":"CO","stateCode":"BOY","latitude":6.07788,"longitude":-72.46774},{"name":"Chitagá","countryCode":"CO","stateCode":"NSA","latitude":7.13781,"longitude":-72.66456},{"name":"Chitaraque","countryCode":"CO","stateCode":"BOY","latitude":5.96167,"longitude":-73.45761},{"name":"Chivatá","countryCode":"CO","stateCode":"BOY","latitude":5.55823,"longitude":-73.28198},{"name":"Chivolo","countryCode":"CO","stateCode":"MAG","latitude":10.02638888,"longitude":-74.62138888},{"name":"Chivor","countryCode":"CO","stateCode":"BOY","latitude":4.88556,"longitude":-73.36889},{"name":"Choachí","countryCode":"CO","stateCode":"CUN","latitude":4.52897,"longitude":-73.92273},{"name":"Chocontá","countryCode":"CO","stateCode":"CUN","latitude":5.14468,"longitude":-73.68578},{"name":"Cicuco","countryCode":"CO","stateCode":"BOL","latitude":9.27756,"longitude":-74.64312},{"name":"Ciénaga","countryCode":"CO","stateCode":"MAG","latitude":10.83333,"longitude":-74.08333},{"name":"Ciénaga de Oro","countryCode":"CO","stateCode":"COR","latitude":8.83581,"longitude":-75.60425},{"name":"Ciénega","countryCode":"CO","stateCode":"BOY","latitude":5.40867,"longitude":-73.29572},{"name":"Cimitarra","countryCode":"CO","stateCode":"SAN","latitude":6.31419,"longitude":-73.94968},{"name":"Circasia","countryCode":"CO","stateCode":"QUI","latitude":4.5994,"longitude":-75.68536},{"name":"Cisneros","countryCode":"CO","stateCode":"ANT","latitude":6.54507,"longitude":-75.09415},{"name":"Ciudad Bolívar","countryCode":"CO","stateCode":"ANT","latitude":5.85389,"longitude":-76.02528},{"name":"Clemencia","countryCode":"CO","stateCode":"BOL","latitude":10.56645,"longitude":-75.32499},{"name":"Cocorná","countryCode":"CO","stateCode":"ANT","latitude":6.00579,"longitude":-75.16984},{"name":"Coello","countryCode":"CO","stateCode":"TOL","latitude":4.3733,"longitude":-74.88655},{"name":"Cogua","countryCode":"CO","stateCode":"CUN","latitude":5.06051,"longitude":-73.97925},{"name":"Colombia","countryCode":"CO","stateCode":"HUI","latitude":3.375,"longitude":-74.80194444},{"name":"Colón","countryCode":"CO","stateCode":"NAR","latitude":1.6285,"longitude":-77.02927},{"name":"Colón","countryCode":"CO","stateCode":"PUT","latitude":1.19034,"longitude":-76.97369},{"name":"Coloso","countryCode":"CO","stateCode":"SUC","latitude":9.51176,"longitude":-75.36233},{"name":"Combita","countryCode":"CO","stateCode":"BOY","latitude":5.63333,"longitude":-73.31667},{"name":"Concepción","countryCode":"CO","stateCode":"ANT","latitude":6.39408,"longitude":-75.2583},{"name":"Concepción","countryCode":"CO","stateCode":"SAN","latitude":6.76619,"longitude":-72.694},{"name":"Concordia","countryCode":"CO","stateCode":"ANT","latitude":6.04639,"longitude":-75.90705},{"name":"Concordia","countryCode":"CO","stateCode":"MAG","latitude":9.83545,"longitude":-74.45548},{"name":"Condoto","countryCode":"CO","stateCode":"CHO","latitude":5.09351,"longitude":-76.64973},{"name":"Confines","countryCode":"CO","stateCode":"SAN","latitude":6.34875,"longitude":-73.2099},{"name":"Consaca","countryCode":"CO","stateCode":"NAR","latitude":1.20841,"longitude":-77.46323},{"name":"Contadero","countryCode":"CO","stateCode":"NAR","latitude":0.93072,"longitude":-77.53333},{"name":"Contratación","countryCode":"CO","stateCode":"SAN","latitude":6.29005,"longitude":-73.47354},{"name":"Convención","countryCode":"CO","stateCode":"NSA","latitude":8.82242,"longitude":-73.2285},{"name":"Copacabana","countryCode":"CO","stateCode":"ANT","latitude":6.3623,"longitude":-75.49922},{"name":"Coper","countryCode":"CO","stateCode":"BOY","latitude":5.47681,"longitude":-74.04416},{"name":"Córdoba","countryCode":"CO","stateCode":"BOL","latitude":9.55149,"longitude":-74.898},{"name":"Córdoba","countryCode":"CO","stateCode":"NAR","latitude":0.85362,"longitude":-77.51817},{"name":"Córdoba","countryCode":"CO","stateCode":"QUI","latitude":4.38055,"longitude":-75.66685},{"name":"Corinto","countryCode":"CO","stateCode":"CAU","latitude":3.13598,"longitude":-76.20646},{"name":"Coromoro","countryCode":"CO","stateCode":"SAN","latitude":6.29461,"longitude":-73.04022},{"name":"Corozal","countryCode":"CO","stateCode":"SUC","latitude":9.31847,"longitude":-75.2933},{"name":"Corrales","countryCode":"CO","stateCode":"BOY","latitude":5.82497,"longitude":-72.84539},{"name":"Cota","countryCode":"CO","stateCode":"CUN","latitude":4.80938,"longitude":-74.098},{"name":"Cotorra","countryCode":"CO","stateCode":"COR","latitude":9.03886,"longitude":-75.78969},{"name":"Covarachía","countryCode":"CO","stateCode":"BOY","latitude":6.50563,"longitude":-72.7331},{"name":"Coveñas","countryCode":"CO","stateCode":"SUC","latitude":9.40254,"longitude":-75.68029},{"name":"Coyaima","countryCode":"CO","stateCode":"TOL","latitude":3.72781,"longitude":-75.17397},{"name":"Cravo Norte","countryCode":"CO","stateCode":"ARA","latitude":6.30173,"longitude":-70.20415},{"name":"Cuaspud","countryCode":"CO","stateCode":"NAR","latitude":0.8757,"longitude":-77.7364},{"name":"Cubará","countryCode":"CO","stateCode":"BOY","latitude":7.00578,"longitude":-72.10568},{"name":"Cubarral","countryCode":"CO","stateCode":"MET","latitude":3.79536,"longitude":-73.84063},{"name":"Cucaita","countryCode":"CO","stateCode":"BOY","latitude":5.54373,"longitude":-73.45433},{"name":"Cucunubá","countryCode":"CO","stateCode":"CUN","latitude":5.24958,"longitude":-73.7661},{"name":"Cúcuta","countryCode":"CO","stateCode":"NSA","latitude":7.89391,"longitude":-72.50782},{"name":"Cucutilla","countryCode":"CO","stateCode":"NSA","latitude":7.53941,"longitude":-72.77238},{"name":"Cuítiva","countryCode":"CO","stateCode":"BOY","latitude":5.58007,"longitude":-72.96687},{"name":"Cumaral","countryCode":"CO","stateCode":"MET","latitude":4.23814,"longitude":-73.34101},{"name":"Cumaribo","countryCode":"CO","stateCode":"VID","latitude":4.44552,"longitude":-69.79897},{"name":"Cumbal","countryCode":"CO","stateCode":"NAR","latitude":0.90875,"longitude":-77.79145},{"name":"Cumbitara","countryCode":"CO","stateCode":"NAR","latitude":1.64786,"longitude":-77.57819},{"name":"Cunday","countryCode":"CO","stateCode":"TOL","latitude":4.00284,"longitude":-74.69295},{"name":"Curillo","countryCode":"CO","stateCode":"CAQ","latitude":1.03327,"longitude":-75.91907},{"name":"Curití","countryCode":"CO","stateCode":"SAN","latitude":6.60519,"longitude":-73.06809},{"name":"Curumaní","countryCode":"CO","stateCode":"CES","latitude":9.19992,"longitude":-73.54274},{"name":"Dabeiba","countryCode":"CO","stateCode":"ANT","latitude":7.03367,"longitude":-76.34161},{"name":"Dagua","countryCode":"CO","stateCode":"VAC","latitude":3.65685,"longitude":-76.68859},{"name":"Dibulla","countryCode":"CO","stateCode":"LAG","latitude":11.27251,"longitude":-73.30911},{"name":"Distracción","countryCode":"CO","stateCode":"LAG","latitude":10.89784,"longitude":-72.88666},{"name":"Dolores","countryCode":"CO","stateCode":"TOL","latitude":3.60534,"longitude":-74.80585},{"name":"Donmatías","countryCode":"CO","stateCode":"ANT","latitude":6.48569,"longitude":-75.39496},{"name":"Dosquebradas","countryCode":"CO","stateCode":"RIS","latitude":4.83916,"longitude":-75.66727},{"name":"Duitama","countryCode":"CO","stateCode":"BOY","latitude":5.8245,"longitude":-73.03408},{"name":"Durania","countryCode":"CO","stateCode":"NSA","latitude":7.71307,"longitude":-72.65759},{"name":"Ebéjico","countryCode":"CO","stateCode":"ANT","latitude":6.32598,"longitude":-75.76835},{"name":"El Agrado","countryCode":"CO","stateCode":"HUI","latitude":2.25833056,"longitude":-75.7725},{"name":"El Águila","countryCode":"CO","stateCode":"VAC","latitude":4.91946,"longitude":-76.0568},{"name":"El Bagre","countryCode":"CO","stateCode":"ANT","latitude":7.60347,"longitude":-74.80951},{"name":"El Banco","countryCode":"CO","stateCode":"MAG","latitude":9.00114,"longitude":-73.97581},{"name":"El Cairo","countryCode":"CO","stateCode":"VAC","latitude":4.74889,"longitude":-76.24443},{"name":"El Calvario","countryCode":"CO","stateCode":"MET","latitude":4.35426,"longitude":-73.74431},{"name":"El Cantón de San Pablo","countryCode":"CO","stateCode":"CHO","latitude":5.33889,"longitude":-76.73139},{"name":"El Carmen","countryCode":"CO","stateCode":"NSA","latitude":8.51064,"longitude":-73.44776},{"name":"El Carmen de Atrato","countryCode":"CO","stateCode":"CHO","latitude":5.83333,"longitude":-76.25},{"name":"El Carmen de Bolívar","countryCode":"CO","stateCode":"BOL","latitude":9.7174,"longitude":-75.12023},{"name":"El Carmen de Chucurí","countryCode":"CO","stateCode":"SAN","latitude":6.69736,"longitude":-73.51117},{"name":"El Carmen de Viboral","countryCode":"CO","stateCode":"ANT","latitude":6.08236,"longitude":-75.33509},{"name":"El Castillo","countryCode":"CO","stateCode":"MET","latitude":3.56363,"longitude":-73.79488},{"name":"El Cerrito","countryCode":"CO","stateCode":"VAC","latitude":3.64273,"longitude":-76.2096},{"name":"El Charco","countryCode":"CO","stateCode":"NAR","latitude":2.47926,"longitude":-78.10972},{"name":"El Cocuy","countryCode":"CO","stateCode":"BOY","latitude":6.32839,"longitude":-72.43577},{"name":"El Colegio","countryCode":"CO","stateCode":"CUN","latitude":4.56047,"longitude":-74.42614},{"name":"El Copey","countryCode":"CO","stateCode":"CES","latitude":10.15031,"longitude":-73.9614},{"name":"El Doncello","countryCode":"CO","stateCode":"CAQ","latitude":1.67817,"longitude":-75.28466},{"name":"El Dorado","countryCode":"CO","stateCode":"MET","latitude":3.73916777,"longitude":-73.83527888},{"name":"El Dovio","countryCode":"CO","stateCode":"VAC","latitude":4.5079,"longitude":-76.23619},{"name":"El Encanto","countryCode":"CO","stateCode":"AMA","latitude":-1.56261,"longitude":-73.25684},{"name":"El Espino","countryCode":"CO","stateCode":"BOY","latitude":6.50812,"longitude":-72.48036},{"name":"El Guacamayo","countryCode":"CO","stateCode":"SAN","latitude":6.24856,"longitude":-73.52957},{"name":"El Guamo","countryCode":"CO","stateCode":"BOL","latitude":10.01753,"longitude":-74.93483},{"name":"El Molino","countryCode":"CO","stateCode":"LAG","latitude":10.65296,"longitude":-72.92461},{"name":"El Paso","countryCode":"CO","stateCode":"CES","latitude":9.65724,"longitude":-73.74685},{"name":"El Paujil","countryCode":"CO","stateCode":"CAQ","latitude":1.57085,"longitude":-75.31403},{"name":"El Peñol","countryCode":"CO","stateCode":"NAR","latitude":1.45365,"longitude":-77.44017},{"name":"El Peñón","countryCode":"CO","stateCode":"BOL","latitude":8.98691,"longitude":-73.94697},{"name":"El Peñón","countryCode":"CO","stateCode":"CUN","latitude":5.25264,"longitude":-74.29069},{"name":"El Peñón","countryCode":"CO","stateCode":"SAN","latitude":6.099,"longitude":-73.92835},{"name":"El Piñon","countryCode":"CO","stateCode":"MAG","latitude":10.33333,"longitude":-74.66667},{"name":"El Playón","countryCode":"CO","stateCode":"SAN","latitude":7.47131,"longitude":-73.2031},{"name":"El Retén","countryCode":"CO","stateCode":"MAG","latitude":10.61135,"longitude":-74.26824},{"name":"El Retorno","countryCode":"CO","stateCode":"GUV","latitude":2.33022,"longitude":-72.62765},{"name":"El Roble","countryCode":"CO","stateCode":"SUC","latitude":9.10193,"longitude":-75.19508},{"name":"El Rosal","countryCode":"CO","stateCode":"CUN","latitude":4.85314,"longitude":-74.25996},{"name":"El Rosario","countryCode":"CO","stateCode":"NAR","latitude":1.84593,"longitude":-77.4062},{"name":"El Santuario","countryCode":"CO","stateCode":"ANT","latitude":6.13833,"longitude":-75.26417},{"name":"El Tablón de Gómez","countryCode":"CO","stateCode":"NAR","latitude":1.42717,"longitude":-77.09693},{"name":"El Tambo","countryCode":"CO","stateCode":"CAU","latitude":2.45199,"longitude":-76.81029},{"name":"El Tambo","countryCode":"CO","stateCode":"NAR","latitude":1.43049,"longitude":-77.38326},{"name":"El Tarra","countryCode":"CO","stateCode":"NSA","latitude":8.57562,"longitude":-73.09489},{"name":"El Zulia","countryCode":"CO","stateCode":"NSA","latitude":7.93248,"longitude":-72.60125},{"name":"Elias","countryCode":"CO","stateCode":"HUI","latitude":2.01361111,"longitude":-75.93972222},{"name":"Encino","countryCode":"CO","stateCode":"SAN","latitude":6.13735,"longitude":-73.09847},{"name":"Enciso","countryCode":"CO","stateCode":"SAN","latitude":6.64651,"longitude":-72.70709},{"name":"Entrerrios","countryCode":"CO","stateCode":"ANT","latitude":6.58333,"longitude":-75.58333},{"name":"Envigado","countryCode":"CO","stateCode":"ANT","latitude":6.17591,"longitude":-75.59174},{"name":"Espinal","countryCode":"CO","stateCode":"TOL","latitude":4.14924,"longitude":-74.88429},{"name":"Facatativá","countryCode":"CO","stateCode":"CUN","latitude":4.81367,"longitude":-74.35453},{"name":"Falan","countryCode":"CO","stateCode":"TOL","latitude":5.12383,"longitude":-74.95181},{"name":"Filadelfia","countryCode":"CO","stateCode":"CAL","latitude":5.29606,"longitude":-75.5612},{"name":"Filandia","countryCode":"CO","stateCode":"QUI","latitude":4.67525,"longitude":-75.67142},{"name":"Firavitoba","countryCode":"CO","stateCode":"BOY","latitude":5.66885,"longitude":-72.99289},{"name":"Flandes","countryCode":"CO","stateCode":"TOL","latitude":4.25,"longitude":-74.83333},{"name":"Florencia","countryCode":"CO","stateCode":"CAQ","latitude":1.71619,"longitude":-75.59624},{"name":"Florencia","countryCode":"CO","stateCode":"CAU","latitude":1.68318,"longitude":-77.07331},{"name":"Floresta","countryCode":"CO","stateCode":"BOY","latitude":5.85903,"longitude":-72.92511},{"name":"Florián","countryCode":"CO","stateCode":"SAN","latitude":5.80487,"longitude":-73.97029},{"name":"Florida","countryCode":"CO","stateCode":"VAC","latitude":3.3094,"longitude":-76.18989},{"name":"Floridablanca","countryCode":"CO","stateCode":"SAN","latitude":7.06315,"longitude":-73.08586},{"name":"Fomeque","countryCode":"CO","stateCode":"CUN","latitude":4.52806,"longitude":-73.78879},{"name":"Fonseca","countryCode":"CO","stateCode":"LAG","latitude":10.82966,"longitude":-72.79778},{"name":"Fortul","countryCode":"CO","stateCode":"ARA","latitude":6.74611,"longitude":-71.85667},{"name":"Fosca","countryCode":"CO","stateCode":"CUN","latitude":4.33916,"longitude":-73.93852},{"name":"Francisco Pizarro","countryCode":"CO","stateCode":"NAR","latitude":2.0406,"longitude":-78.65877},{"name":"Fredonia","countryCode":"CO","stateCode":"ANT","latitude":5.89239,"longitude":-75.68546},{"name":"Fresno","countryCode":"CO","stateCode":"TOL","latitude":5.15264,"longitude":-75.03624},{"name":"Frontino","countryCode":"CO","stateCode":"ANT","latitude":6.77133,"longitude":-76.13324},{"name":"Fuente de Oro","countryCode":"CO","stateCode":"MET","latitude":3.46263,"longitude":-73.62162},{"name":"Fundación","countryCode":"CO","stateCode":"MAG","latitude":10.52066,"longitude":-74.18504},{"name":"Funes","countryCode":"CO","stateCode":"NAR","latitude":1.00075,"longitude":-77.44918},{"name":"Funza","countryCode":"CO","stateCode":"CUN","latitude":4.71638,"longitude":-74.21195},{"name":"Fúquene","countryCode":"CO","stateCode":"CUN","latitude":5.41988,"longitude":-73.76997},{"name":"Fusagasugá","countryCode":"CO","stateCode":"CUN","latitude":4.33646,"longitude":-74.36378},{"name":"Gachala","countryCode":"CO","stateCode":"CUN","latitude":4.66667,"longitude":-73.5},{"name":"Gachancipá","countryCode":"CO","stateCode":"CUN","latitude":4.99111,"longitude":-73.87154},{"name":"Gachantivá","countryCode":"CO","stateCode":"BOY","latitude":5.74417,"longitude":-73.54253},{"name":"Gachetá","countryCode":"CO","stateCode":"CUN","latitude":4.87104,"longitude":-73.6173},{"name":"Galán","countryCode":"CO","stateCode":"SAN","latitude":6.66271,"longitude":-73.34233},{"name":"Galapa","countryCode":"CO","stateCode":"ATL","latitude":10.8979,"longitude":-74.887},{"name":"Galeras","countryCode":"CO","stateCode":"SUC","latitude":9.16095,"longitude":-75.04811},{"name":"Gama","countryCode":"CO","stateCode":"CUN","latitude":4.76288,"longitude":-73.61091},{"name":"Gamarra","countryCode":"CO","stateCode":"CES","latitude":8.32969,"longitude":-73.71773},{"name":"Gambita","countryCode":"CO","stateCode":"SAN","latitude":5.90273,"longitude":-73.36788},{"name":"Gameza","countryCode":"CO","stateCode":"BOY","latitude":5.80313,"longitude":-72.73721},{"name":"Garagoa","countryCode":"CO","stateCode":"BOY","latitude":5.08236,"longitude":-73.36334},{"name":"Garzón","countryCode":"CO","stateCode":"HUI","latitude":2.19611111,"longitude":-75.62916667},{"name":"Génova","countryCode":"CO","stateCode":"QUI","latitude":4.22743,"longitude":-75.7548},{"name":"Gigante","countryCode":"CO","stateCode":"HUI","latitude":2.38666944,"longitude":-75.5461},{"name":"Ginebra","countryCode":"CO","stateCode":"VAC","latitude":3.74296,"longitude":-76.19412},{"name":"Giraldo","countryCode":"CO","stateCode":"ANT","latitude":6.66667,"longitude":-75.95346},{"name":"Girardot","countryCode":"CO","stateCode":"CUN","latitude":4.31802,"longitude":-74.83504},{"name":"Girardota","countryCode":"CO","stateCode":"ANT","latitude":6.36789,"longitude":-75.46231},{"name":"Girón","countryCode":"CO","stateCode":"SAN","latitude":7.0682,"longitude":-73.16981},{"name":"Gómez Plata","countryCode":"CO","stateCode":"ANT","latitude":6.68178,"longitude":-75.21907},{"name":"González","countryCode":"CO","stateCode":"CES","latitude":8.36735,"longitude":-73.40032},{"name":"Gramalote","countryCode":"CO","stateCode":"NSA","latitude":7.88752,"longitude":-72.79749},{"name":"Granada","countryCode":"CO","stateCode":"ANT","latitude":6.14353,"longitude":-75.18532},{"name":"Granada","countryCode":"CO","stateCode":"CUN","latitude":5.06667,"longitude":-74.56667},{"name":"Granada","countryCode":"CO","stateCode":"MET","latitude":3.54625,"longitude":-73.70687},{"name":"Guaca","countryCode":"CO","stateCode":"SAN","latitude":6.87621,"longitude":-72.85594},{"name":"Guacamayas","countryCode":"CO","stateCode":"BOY","latitude":6.44599,"longitude":-72.51676},{"name":"Guacarí","countryCode":"CO","stateCode":"VAC","latitude":3.76383,"longitude":-76.33292},{"name":"Guachené","countryCode":"CO","stateCode":"CAU","latitude":3.13361111,"longitude":-76.39255555},{"name":"Guachetá","countryCode":"CO","stateCode":"CUN","latitude":5.38425,"longitude":-73.68617},{"name":"Guachucal","countryCode":"CO","stateCode":"NAR","latitude":0.96093,"longitude":-77.73161},{"name":"Guadalajara de Buga","countryCode":"CO","stateCode":"VAC","latitude":3.90089,"longitude":-76.29783},{"name":"Guadalupe","countryCode":"CO","stateCode":"ANT","latitude":6.81449,"longitude":-75.24063},{"name":"Guadalupe","countryCode":"CO","stateCode":"HUI","latitude":2.025,"longitude":-75.75638889},{"name":"Guadalupe","countryCode":"CO","stateCode":"SAN","latitude":6.2464,"longitude":-73.41833},{"name":"Guaduas","countryCode":"CO","stateCode":"CUN","latitude":5.0743,"longitude":-74.59854},{"name":"Guaitarilla","countryCode":"CO","stateCode":"NAR","latitude":1.13103,"longitude":-77.54815},{"name":"Gualmatán","countryCode":"CO","stateCode":"NAR","latitude":0.91992,"longitude":-77.56738},{"name":"Guamal","countryCode":"CO","stateCode":"MAG","latitude":9.14334,"longitude":-74.22384},{"name":"Guamal","countryCode":"CO","stateCode":"MET","latitude":3.88043,"longitude":-73.76566},{"name":"Guamo","countryCode":"CO","stateCode":"TOL","latitude":4.07457,"longitude":-74.97689},{"name":"Guapi","countryCode":"CO","stateCode":"CAU","latitude":2.5521,"longitude":-77.87865},{"name":"Guapotá","countryCode":"CO","stateCode":"SAN","latitude":6.30697,"longitude":-73.32848},{"name":"Guaranda","countryCode":"CO","stateCode":"SUC","latitude":8.46746,"longitude":-74.53617},{"name":"Guarne","countryCode":"CO","stateCode":"ANT","latitude":6.28345,"longitude":-75.44363},{"name":"Guasca","countryCode":"CO","stateCode":"CUN","latitude":4.86601,"longitude":-73.87748},{"name":"Guatapé","countryCode":"CO","stateCode":"ANT","latitude":6.25548,"longitude":-75.16432},{"name":"Guataquí","countryCode":"CO","stateCode":"CUN","latitude":4.51573,"longitude":-74.78935},{"name":"Guatavita","countryCode":"CO","stateCode":"CUN","latitude":4.93658,"longitude":-73.83314},{"name":"Guateque","countryCode":"CO","stateCode":"BOY","latitude":5.00619,"longitude":-73.47274},{"name":"Guática","countryCode":"CO","stateCode":"RIS","latitude":5.31569,"longitude":-75.79826},{"name":"Guavatá","countryCode":"CO","stateCode":"SAN","latitude":5.95502,"longitude":-73.70018},{"name":"Guayabal de Siquima","countryCode":"CO","stateCode":"CUN","latitude":4.87881,"longitude":-74.48306},{"name":"Guayabetal","countryCode":"CO","stateCode":"CUN","latitude":4.21472,"longitude":-73.81719},{"name":"Guayatá","countryCode":"CO","stateCode":"BOY","latitude":4.96417,"longitude":-73.4875},{"name":"Güepsa","countryCode":"CO","stateCode":"SAN","latitude":6.02505,"longitude":-73.57313},{"name":"Güicán","countryCode":"CO","stateCode":"BOY","latitude":6.46554,"longitude":-72.41539},{"name":"Gutiérrez","countryCode":"CO","stateCode":"CUN","latitude":4.18486,"longitude":-74.01168},{"name":"Hacarí","countryCode":"CO","stateCode":"NSA","latitude":8.32333,"longitude":-73.14889},{"name":"Hatillo de Loba","countryCode":"CO","stateCode":"BOL","latitude":8.95635,"longitude":-74.07819},{"name":"Hato","countryCode":"CO","stateCode":"SAN","latitude":6.56113,"longitude":-73.35895},{"name":"Hato Corozal","countryCode":"CO","stateCode":"CAS","latitude":6.15472222,"longitude":-71.76527888},{"name":"Hatonuevo","countryCode":"CO","stateCode":"LAG","latitude":11.0694,"longitude":-72.7669},{"name":"Heliconia","countryCode":"CO","stateCode":"ANT","latitude":6.20831,"longitude":-75.73565},{"name":"Herrán","countryCode":"CO","stateCode":"NSA","latitude":7.50611,"longitude":-72.48332},{"name":"Herveo","countryCode":"CO","stateCode":"TOL","latitude":5.08004,"longitude":-75.17556},{"name":"Hispania","countryCode":"CO","stateCode":"ANT","latitude":5.79925,"longitude":-75.90718},{"name":"Hobo","countryCode":"CO","stateCode":"HUI","latitude":2.5825,"longitude":-75.45111111},{"name":"Honda","countryCode":"CO","stateCode":"TOL","latitude":5.20856,"longitude":-74.73584},{"name":"Ibagué","countryCode":"CO","stateCode":"TOL","latitude":4.43889,"longitude":-75.23222},{"name":"Icononzo","countryCode":"CO","stateCode":"TOL","latitude":4.17698,"longitude":-74.53254},{"name":"Iles","countryCode":"CO","stateCode":"NAR","latitude":0.9704,"longitude":-77.52146},{"name":"Imués","countryCode":"CO","stateCode":"NAR","latitude":1.05516,"longitude":-77.49669},{"name":"Inírida","countryCode":"CO","stateCode":"GUA","latitude":3.86528,"longitude":-67.92389},{"name":"Inzá","countryCode":"CO","stateCode":"CAU","latitude":2.55452,"longitude":-76.06722},{"name":"Ipiales","countryCode":"CO","stateCode":"NAR","latitude":0.82501,"longitude":-77.63966},{"name":"Iquira","countryCode":"CO","stateCode":"HUI","latitude":2.64833333,"longitude":-75.63638889},{"name":"Isnos","countryCode":"CO","stateCode":"HUI","latitude":1.92888889,"longitude":-76.21583333},{"name":"Istmina","countryCode":"CO","stateCode":"CHO","latitude":5.16054,"longitude":-76.68397},{"name":"Itagui","countryCode":"CO","stateCode":"ANT","latitude":6.17874,"longitude":-75.63117},{"name":"Ituango","countryCode":"CO","stateCode":"ANT","latitude":7.17117,"longitude":-75.76404},{"name":"Iza","countryCode":"CO","stateCode":"BOY","latitude":5.61203,"longitude":-72.9793},{"name":"Jambaló","countryCode":"CO","stateCode":"CAU","latitude":2.85065,"longitude":-76.32506},{"name":"Jamundí","countryCode":"CO","stateCode":"VAC","latitude":3.26074,"longitude":-76.53499},{"name":"Jardín","countryCode":"CO","stateCode":"ANT","latitude":5.59038,"longitude":-75.81846},{"name":"Jenesano","countryCode":"CO","stateCode":"BOY","latitude":5.38541,"longitude":-73.36364},{"name":"Jericó","countryCode":"CO","stateCode":"ANT","latitude":5.79211,"longitude":-75.78601},{"name":"Jericó","countryCode":"CO","stateCode":"BOY","latitude":6.14577,"longitude":-72.58598},{"name":"Jerusalén","countryCode":"CO","stateCode":"CUN","latitude":4.56309,"longitude":-74.69519},{"name":"Jesús María","countryCode":"CO","stateCode":"SAN","latitude":5.87715,"longitude":-73.78097},{"name":"Jordán","countryCode":"CO","stateCode":"SAN","latitude":6.69857,"longitude":-73.10966},{"name":"Juan de Acosta","countryCode":"CO","stateCode":"ATL","latitude":10.8293,"longitude":-75.03346},{"name":"Junín","countryCode":"CO","stateCode":"CUN","latitude":4.70725,"longitude":-73.69549},{"name":"Juradó","countryCode":"CO","stateCode":"CHO","latitude":7.10421,"longitude":-77.762},{"name":"La Apartada","countryCode":"CO","stateCode":"COR","latitude":8.04787,"longitude":-75.30097},{"name":"La Argentina","countryCode":"CO","stateCode":"HUI","latitude":2.19755555,"longitude":-75.98888888},{"name":"La Belleza","countryCode":"CO","stateCode":"SAN","latitude":5.86371,"longitude":-73.96167},{"name":"La Calera","countryCode":"CO","stateCode":"CUN","latitude":4.68678,"longitude":-73.9359},{"name":"La Capilla","countryCode":"CO","stateCode":"BOY","latitude":5.08076,"longitude":-73.48076},{"name":"La Ceja","countryCode":"CO","stateCode":"ANT","latitude":6,"longitude":-75.43311},{"name":"La Celia","countryCode":"CO","stateCode":"RIS","latitude":5.00332,"longitude":-76.00355},{"name":"La Chorrera","countryCode":"CO","stateCode":"AMA","latitude":-1.48894,"longitude":-72.72935},{"name":"La Cruz","countryCode":"CO","stateCode":"NAR","latitude":1.60221,"longitude":-76.9713},{"name":"La Cumbre","countryCode":"CO","stateCode":"VAC","latitude":3.7225,"longitude":-76.02083},{"name":"La Dorada","countryCode":"CO","stateCode":"CAL","latitude":5.53333,"longitude":-74.7},{"name":"La Esperanza","countryCode":"CO","stateCode":"NSA","latitude":8.21043,"longitude":-72.46399},{"name":"La Estrella","countryCode":"CO","stateCode":"ANT","latitude":6.14239,"longitude":-75.65257},{"name":"La Florida","countryCode":"CO","stateCode":"NAR","latitude":1.35693,"longitude":-77.41271},{"name":"La Gloria","countryCode":"CO","stateCode":"CES","latitude":8.6116,"longitude":-73.63045},{"name":"La Guadalupe","countryCode":"CO","stateCode":"GUA","latitude":1.39579,"longitude":-67.0015},{"name":"La Jagua de Ibirico","countryCode":"CO","stateCode":"CES","latitude":9.56228,"longitude":-73.33405},{"name":"La Jagua del Pilar","countryCode":"CO","stateCode":"LAG","latitude":10.51061,"longitude":-73.07178},{"name":"La Llanada","countryCode":"CO","stateCode":"NAR","latitude":1.4731,"longitude":-77.58024},{"name":"La Macarena","countryCode":"CO","stateCode":"MET","latitude":2.00702,"longitude":-74.0732},{"name":"La Merced","countryCode":"CO","stateCode":"CAL","latitude":5.3806,"longitude":-75.58842},{"name":"La Mesa","countryCode":"CO","stateCode":"CUN","latitude":4.65374,"longitude":-74.47316},{"name":"La Montañita","countryCode":"CO","stateCode":"CAQ","latitude":1.46389,"longitude":-75.30363},{"name":"La Palma","countryCode":"CO","stateCode":"CUN","latitude":5.31732,"longitude":-74.43003},{"name":"La Paz","countryCode":"CO","stateCode":"CES","latitude":10.10487,"longitude":-73.22056},{"name":"La Paz","countryCode":"CO","stateCode":"SAN","latitude":6.17848,"longitude":-73.58948},{"name":"La Pedrera","countryCode":"CO","stateCode":"AMA","latitude":-1.65596,"longitude":-70.22186},{"name":"La Peña","countryCode":"CO","stateCode":"CUN","latitude":5.19847,"longitude":-74.39368},{"name":"La Pintada","countryCode":"CO","stateCode":"ANT","latitude":5.74867,"longitude":-75.60626},{"name":"La Plata","countryCode":"CO","stateCode":"HUI","latitude":2.39,"longitude":-75.89194444},{"name":"La Playa","countryCode":"CO","stateCode":"NSA","latitude":8.25833,"longitude":-73.19222},{"name":"La Primavera","countryCode":"CO","stateCode":"VID","latitude":5.49056,"longitude":-70.40917},{"name":"La Salina","countryCode":"CO","stateCode":"CAS","latitude":6.12755555,"longitude":-72.33416777},{"name":"La Sierra","countryCode":"CO","stateCode":"CAU","latitude":2.19665,"longitude":-76.7859},{"name":"La Tebaida","countryCode":"CO","stateCode":"QUI","latitude":4.43353,"longitude":-75.81476},{"name":"La Tola","countryCode":"CO","stateCode":"NAR","latitude":2.39949,"longitude":-78.18923},{"name":"La Unión","countryCode":"CO","stateCode":"ANT","latitude":5.94642,"longitude":-75.35917},{"name":"La Unión","countryCode":"CO","stateCode":"NAR","latitude":1.6045,"longitude":-77.13152},{"name":"La Unión","countryCode":"CO","stateCode":"SUC","latitude":8.84965,"longitude":-75.27942},{"name":"La Unión","countryCode":"CO","stateCode":"VAC","latitude":4.53282,"longitude":-76.10318},{"name":"La Uvita","countryCode":"CO","stateCode":"BOY","latitude":6.24262,"longitude":-72.56448},{"name":"La Vega","countryCode":"CO","stateCode":"CAU","latitude":2.06201,"longitude":-76.76808},{"name":"La Vega","countryCode":"CO","stateCode":"CUN","latitude":4.97382,"longitude":-74.34476},{"name":"La Victoria","countryCode":"CO","stateCode":"AMA","latitude":-0.18311,"longitude":-71.0376},{"name":"La Victoria","countryCode":"CO","stateCode":"BOY","latitude":5.52278,"longitude":-74.2328},{"name":"La Victoria","countryCode":"CO","stateCode":"VAC","latitude":4.52483,"longitude":-76.03921},{"name":"La Virginia","countryCode":"CO","stateCode":"RIS","latitude":4.89972,"longitude":-75.8825},{"name":"Labateca","countryCode":"CO","stateCode":"NSA","latitude":7.24558,"longitude":-72.55286},{"name":"Labranzagrande","countryCode":"CO","stateCode":"BOY","latitude":5.56223,"longitude":-72.57499},{"name":"Landázuri","countryCode":"CO","stateCode":"SAN","latitude":6.21826,"longitude":-73.81121},{"name":"Lebrija","countryCode":"CO","stateCode":"SAN","latitude":7.11317,"longitude":-73.2178},{"name":"Leiva","countryCode":"CO","stateCode":"NAR","latitude":1.93497,"longitude":-77.30634},{"name":"Lejanías","countryCode":"CO","stateCode":"MET","latitude":3.52762,"longitude":-74.02335},{"name":"Lenguazaque","countryCode":"CO","stateCode":"CUN","latitude":5.30711,"longitude":-73.71152},{"name":"Lérida","countryCode":"CO","stateCode":"TOL","latitude":4.86242,"longitude":-74.90977},{"name":"Leticia","countryCode":"CO","stateCode":"AMA","latitude":-4.21528,"longitude":-69.94056},{"name":"Líbano","countryCode":"CO","stateCode":"TOL","latitude":4.8356,"longitude":-75.10834},{"name":"Liborina","countryCode":"CO","stateCode":"ANT","latitude":6.6779,"longitude":-75.81218},{"name":"Linares","countryCode":"CO","stateCode":"NAR","latitude":1.35078,"longitude":-77.52339},{"name":"Litoral del San Juan","countryCode":"CO","stateCode":"CHO","latitude":4.25875,"longitude":-77.36516},{"name":"Lloró","countryCode":"CO","stateCode":"CHO","latitude":5.49605,"longitude":-76.54945},{"name":"López de Micay","countryCode":"CO","stateCode":"CAU","latitude":3,"longitude":-77.25},{"name":"Lorica","countryCode":"CO","stateCode":"COR","latitude":9.23648,"longitude":-75.8135},{"name":"Los Andes","countryCode":"CO","stateCode":"NAR","latitude":1.49474,"longitude":-77.52136},{"name":"Los Córdobas","countryCode":"CO","stateCode":"COR","latitude":8.89403,"longitude":-76.35455},{"name":"Los Palmitos","countryCode":"CO","stateCode":"SUC","latitude":9.37899,"longitude":-75.26769},{"name":"Los Patios","countryCode":"CO","stateCode":"NSA","latitude":7.83793,"longitude":-72.5037},{"name":"Los Santos","countryCode":"CO","stateCode":"SAN","latitude":6.79734,"longitude":-73.1249},{"name":"Lourdes","countryCode":"CO","stateCode":"NSA","latitude":7.96774,"longitude":-72.84519},{"name":"Luruaco","countryCode":"CO","stateCode":"ATL","latitude":10.61712,"longitude":-75.15146},{"name":"Macanal","countryCode":"CO","stateCode":"BOY","latitude":4.9505,"longitude":-73.32029},{"name":"Macaravita","countryCode":"CO","stateCode":"SAN","latitude":6.50567,"longitude":-72.59299},{"name":"Maceo","countryCode":"CO","stateCode":"ANT","latitude":6.55196,"longitude":-74.78741},{"name":"Macheta","countryCode":"CO","stateCode":"CUN","latitude":5.08333,"longitude":-73.61667},{"name":"Madrid","countryCode":"CO","stateCode":"CUN","latitude":4.75564,"longitude":-74.27708},{"name":"Magangué","countryCode":"CO","stateCode":"BOL","latitude":9.24202,"longitude":-74.75467},{"name":"Magüí Payán","countryCode":"CO","stateCode":"NAR","latitude":1.76645,"longitude":-78.18326},{"name":"Mahates","countryCode":"CO","stateCode":"BOL","latitude":10.23293,"longitude":-75.18985},{"name":"Maicao","countryCode":"CO","stateCode":"LAG","latitude":11.37837,"longitude":-72.2395},{"name":"Majagual","countryCode":"CO","stateCode":"SUC","latitude":8.535,"longitude":-74.71499},{"name":"Málaga","countryCode":"CO","stateCode":"SAN","latitude":6.69903,"longitude":-72.73233},{"name":"Malambo","countryCode":"CO","stateCode":"ATL","latitude":10.85953,"longitude":-74.77386},{"name":"Mallama","countryCode":"CO","stateCode":"NAR","latitude":1.14109,"longitude":-77.86479},{"name":"Manatí","countryCode":"CO","stateCode":"ATL","latitude":10.46402,"longitude":-74.9822},{"name":"Manaure","countryCode":"CO","stateCode":"LAG","latitude":11.77505,"longitude":-72.44447},{"name":"Manaure Balcón del Cesar","countryCode":"CO","stateCode":"CES","latitude":10.39278,"longitude":-73.0325},{"name":"Maní","countryCode":"CO","stateCode":"CAS","latitude":4.81638,"longitude":-72.27946},{"name":"Manizales","countryCode":"CO","stateCode":"CAL","latitude":5.06889,"longitude":-75.51738},{"name":"Manta","countryCode":"CO","stateCode":"CUN","latitude":4.9572,"longitude":-73.58583},{"name":"Manzanares","countryCode":"CO","stateCode":"CAL","latitude":5.23305,"longitude":-75.15168},{"name":"Mapiripán","countryCode":"CO","stateCode":"MET","latitude":2.89115,"longitude":-72.13328},{"name":"Mapiripana","countryCode":"CO","stateCode":"GUA","latitude":2.81003,"longitude":-70.28568},{"name":"Margarita","countryCode":"CO","stateCode":"BOL","latitude":9.06325,"longitude":-74.28134},{"name":"María la Baja","countryCode":"CO","stateCode":"BOL","latitude":9.99228,"longitude":-75.34364},{"name":"Marinilla","countryCode":"CO","stateCode":"ANT","latitude":6.19609,"longitude":-75.30313},{"name":"Maripí","countryCode":"CO","stateCode":"BOY","latitude":5.55194,"longitude":-74.00861},{"name":"Marmato","countryCode":"CO","stateCode":"CAL","latitude":5.47554,"longitude":-75.5971},{"name":"Marquetalia","countryCode":"CO","stateCode":"CAL","latitude":5.29069,"longitude":-75.08028},{"name":"Marsella","countryCode":"CO","stateCode":"RIS","latitude":4.95238,"longitude":-75.75265},{"name":"Marulanda","countryCode":"CO","stateCode":"CAL","latitude":5.28393,"longitude":-75.26016},{"name":"Matanza","countryCode":"CO","stateCode":"SAN","latitude":7.35605,"longitude":-73.05303},{"name":"Medellín","countryCode":"CO","stateCode":"ANT","latitude":6.25184,"longitude":-75.56359},{"name":"Medina","countryCode":"CO","stateCode":"CUN","latitude":4.51005,"longitude":-73.34982},{"name":"Medio Atrato","countryCode":"CO","stateCode":"CHO","latitude":5.995,"longitude":-76.7825},{"name":"Medio Baudó","countryCode":"CO","stateCode":"CHO","latitude":5.05,"longitude":-77.05},{"name":"Medio San Juan","countryCode":"CO","stateCode":"CHO","latitude":5.09278,"longitude":-76.69528},{"name":"Melgar","countryCode":"CO","stateCode":"TOL","latitude":4.20475,"longitude":-74.64075},{"name":"Mercaderes","countryCode":"CO","stateCode":"CAU","latitude":1.80175,"longitude":-77.17032},{"name":"Mesetas","countryCode":"CO","stateCode":"MET","latitude":3.38463,"longitude":-74.04424},{"name":"Milán","countryCode":"CO","stateCode":"CAQ","latitude":1.29034,"longitude":-75.50757},{"name":"Miraflores","countryCode":"CO","stateCode":"BOY","latitude":5.12216,"longitude":-73.21212},{"name":"Miraflores","countryCode":"CO","stateCode":"GUV","latitude":1.33667,"longitude":-71.95111},{"name":"Miranda","countryCode":"CO","stateCode":"CAU","latitude":3.23773,"longitude":-76.22093},{"name":"Miriti - Paraná","countryCode":"CO","stateCode":"AMA","latitude":-0.81858,"longitude":-70.78925},{"name":"Mistrató","countryCode":"CO","stateCode":"RIS","latitude":5.29622,"longitude":-75.8839},{"name":"Mitú","countryCode":"CO","stateCode":"VAU","latitude":1.25778,"longitude":-70.23472},{"name":"Mocoa","countryCode":"CO","stateCode":"PUT","latitude":1.15284,"longitude":-76.65208},{"name":"Mogotes","countryCode":"CO","stateCode":"SAN","latitude":6.47559,"longitude":-72.97046},{"name":"Molagavita","countryCode":"CO","stateCode":"SAN","latitude":6.67315,"longitude":-72.80875},{"name":"Momil","countryCode":"CO","stateCode":"COR","latitude":9.23767,"longitude":-75.67489},{"name":"Mompós","countryCode":"CO","stateCode":"BOL","latitude":9.1399,"longitude":-74.54513},{"name":"Mongua","countryCode":"CO","stateCode":"BOY","latitude":5.75084,"longitude":-72.80339},{"name":"Monguí","countryCode":"CO","stateCode":"BOY","latitude":5.69752,"longitude":-72.83359},{"name":"Moniquirá","countryCode":"CO","stateCode":"BOY","latitude":5.84315,"longitude":-73.57775},{"name":"Moñitos","countryCode":"CO","stateCode":"COR","latitude":9.22615,"longitude":-76.13594},{"name":"Montebello","countryCode":"CO","stateCode":"ANT","latitude":5.93703,"longitude":-75.52741},{"name":"Montecristo","countryCode":"CO","stateCode":"BOL","latitude":8.2971,"longitude":-74.4733},{"name":"Montelíbano","countryCode":"CO","stateCode":"COR","latitude":7.97917,"longitude":-75.4202},{"name":"Montenegro","countryCode":"CO","stateCode":"QUI","latitude":4.52676,"longitude":-75.82265},{"name":"Montería","countryCode":"CO","stateCode":"COR","latitude":8.74798,"longitude":-75.88143},{"name":"Monterrey","countryCode":"CO","stateCode":"CAS","latitude":4.82015,"longitude":-72.87901},{"name":"Morales","countryCode":"CO","stateCode":"BOL","latitude":8.2752,"longitude":-73.86884},{"name":"Morales","countryCode":"CO","stateCode":"CAU","latitude":2.75446,"longitude":-76.62791},{"name":"Morelia","countryCode":"CO","stateCode":"CAQ","latitude":1.48747,"longitude":-75.72581},{"name":"Morichal","countryCode":"CO","stateCode":"GUA","latitude":2.4298,"longitude":-69.83284},{"name":"Morroa","countryCode":"CO","stateCode":"SUC","latitude":9.33348,"longitude":-75.30542},{"name":"Mosquera","countryCode":"CO","stateCode":"CUN","latitude":4.68935,"longitude":-74.23599},{"name":"Mosquera","countryCode":"CO","stateCode":"NAR","latitude":2.49139,"longitude":-78.44307},{"name":"Motavita","countryCode":"CO","stateCode":"BOY","latitude":5.57655,"longitude":-73.36696},{"name":"Murillo","countryCode":"CO","stateCode":"TOL","latitude":4.87393,"longitude":-75.17151},{"name":"Murindó","countryCode":"CO","stateCode":"ANT","latitude":6.84698,"longitude":-76.71544},{"name":"Mutatá","countryCode":"CO","stateCode":"ANT","latitude":7.24407,"longitude":-76.43564},{"name":"Mutiscua","countryCode":"CO","stateCode":"NSA","latitude":7.2981,"longitude":-72.79879},{"name":"Muzo","countryCode":"CO","stateCode":"BOY","latitude":5.53528,"longitude":-74.10778},{"name":"Nariño","countryCode":"CO","stateCode":"ANT","latitude":5.60893,"longitude":-75.17656},{"name":"Nariño","countryCode":"CO","stateCode":"CUN","latitude":4.39913,"longitude":-74.82239},{"name":"Nariño","countryCode":"CO","stateCode":"NAR","latitude":1.28995,"longitude":-77.35721},{"name":"Nataga","countryCode":"CO","stateCode":"HUI","latitude":2.54388889,"longitude":-75.80861111},{"name":"Natagaima","countryCode":"CO","stateCode":"TOL","latitude":3.55212,"longitude":-75.11345},{"name":"Nechí","countryCode":"CO","stateCode":"ANT","latitude":8.09419,"longitude":-74.77573},{"name":"Necoclí","countryCode":"CO","stateCode":"ANT","latitude":8.42627,"longitude":-76.78926},{"name":"Neira","countryCode":"CO","stateCode":"CAL","latitude":5.17534,"longitude":-75.52405},{"name":"Neiva","countryCode":"CO","stateCode":"HUI","latitude":2.9275,"longitude":-75.2875},{"name":"Nemocón","countryCode":"CO","stateCode":"CUN","latitude":5.06767,"longitude":-73.87769},{"name":"Nilo","countryCode":"CO","stateCode":"CUN","latitude":4.30604,"longitude":-74.62083},{"name":"Nimaima","countryCode":"CO","stateCode":"CUN","latitude":5.12614,"longitude":-74.38495},{"name":"Nobsa","countryCode":"CO","stateCode":"BOY","latitude":5.76978,"longitude":-72.94099},{"name":"Nocaima","countryCode":"CO","stateCode":"CUN","latitude":5.06696,"longitude":-74.38439},{"name":"Norcasia","countryCode":"CO","stateCode":"CAL","latitude":5.57535,"longitude":-74.88831},{"name":"Norosí","countryCode":"CO","stateCode":"BOL","latitude":8.52692,"longitude":-74.03736},{"name":"Nóvita","countryCode":"CO","stateCode":"CHO","latitude":4.95511,"longitude":-76.60526},{"name":"Nueva Granada","countryCode":"CO","stateCode":"MAG","latitude":9.80168,"longitude":-74.39304},{"name":"Nuevo Colón","countryCode":"CO","stateCode":"BOY","latitude":5.35368,"longitude":-73.4566},{"name":"Nunchía","countryCode":"CO","stateCode":"CAS","latitude":5.63589,"longitude":-72.19543},{"name":"Nuquí","countryCode":"CO","stateCode":"CHO","latitude":5.7125,"longitude":-77.27083},{"name":"Obando","countryCode":"CO","stateCode":"VAC","latitude":4.5959,"longitude":-75.94879},{"name":"Ocamonte","countryCode":"CO","stateCode":"SAN","latitude":6.34001,"longitude":-73.12205},{"name":"Ocaña","countryCode":"CO","stateCode":"NSA","latitude":8.23773,"longitude":-73.35604},{"name":"Oiba","countryCode":"CO","stateCode":"SAN","latitude":6.26387,"longitude":-73.29876},{"name":"Oicatá","countryCode":"CO","stateCode":"BOY","latitude":5.59548,"longitude":-73.3082},{"name":"Olaya","countryCode":"CO","stateCode":"ANT","latitude":6.62773,"longitude":-75.8127},{"name":"Olaya Herrera","countryCode":"CO","stateCode":"NAR","latitude":1.24803,"longitude":-77.49085},{"name":"Onzaga","countryCode":"CO","stateCode":"SAN","latitude":6.34434,"longitude":-72.81726},{"name":"Oporapa","countryCode":"CO","stateCode":"HUI","latitude":2.02305556,"longitude":-75.99527778},{"name":"Orito","countryCode":"CO","stateCode":"PUT","latitude":0.66749,"longitude":-76.87297},{"name":"Orocué","countryCode":"CO","stateCode":"CAS","latitude":4.79035,"longitude":-71.33917},{"name":"Ortega","countryCode":"CO","stateCode":"TOL","latitude":3.94514,"longitude":-75.27245},{"name":"Ospina","countryCode":"CO","stateCode":"NAR","latitude":1.02962,"longitude":-77.55252},{"name":"Otanche","countryCode":"CO","stateCode":"BOY","latitude":5.77534,"longitude":-74.20315},{"name":"Ovejas","countryCode":"CO","stateCode":"SUC","latitude":9.54083,"longitude":-75.18333},{"name":"Pachavita","countryCode":"CO","stateCode":"BOY","latitude":5.13969,"longitude":-73.39739},{"name":"Pacho","countryCode":"CO","stateCode":"CUN","latitude":5.13055555,"longitude":-74.15833333},{"name":"Pacoa","countryCode":"CO","stateCode":"VAU","latitude":0.15636,"longitude":-70.89274},{"name":"Pácora","countryCode":"CO","stateCode":"CAL","latitude":5.50631,"longitude":-75.49054},{"name":"Padilla","countryCode":"CO","stateCode":"CAU","latitude":3.22038,"longitude":-76.31385},{"name":"Páez","countryCode":"CO","stateCode":"BOY","latitude":5.10112,"longitude":-73.05123},{"name":"Páez","countryCode":"CO","stateCode":"CAU","latitude":2.64644,"longitude":-75.97269},{"name":"Paicol","countryCode":"CO","stateCode":"HUI","latitude":2.44972222,"longitude":-75.77388889},{"name":"Pailitas","countryCode":"CO","stateCode":"CES","latitude":8.95652,"longitude":-73.62548},{"name":"Paime","countryCode":"CO","stateCode":"CUN","latitude":5.37054,"longitude":-74.15219},{"name":"Paipa","countryCode":"CO","stateCode":"BOY","latitude":5.78013,"longitude":-73.11708},{"name":"Pajarito","countryCode":"CO","stateCode":"BOY","latitude":5.34751,"longitude":-72.72075},{"name":"Palermo","countryCode":"CO","stateCode":"HUI","latitude":2.88833333,"longitude":-75.43388889},{"name":"Palestina","countryCode":"CO","stateCode":"CAL","latitude":5.04571,"longitude":-75.69552},{"name":"Palestina","countryCode":"CO","stateCode":"HUI","latitude":1.7225,"longitude":-76.13055556},{"name":"Palmar","countryCode":"CO","stateCode":"SAN","latitude":6.4974,"longitude":-73.3074},{"name":"Palmar de Varela","countryCode":"CO","stateCode":"ATL","latitude":10.74055,"longitude":-74.75443},{"name":"Palmas del Socorro","countryCode":"CO","stateCode":"SAN","latitude":6.40756,"longitude":-73.28824},{"name":"Palmira","countryCode":"CO","stateCode":"VAC","latitude":3.53969,"longitude":-76.22607},{"name":"Palmito","countryCode":"CO","stateCode":"SUC","latitude":9.33667,"longitude":-75.56333},{"name":"Palocabildo","countryCode":"CO","stateCode":"TOL","latitude":5.11705,"longitude":-75.01732},{"name":"Pamplona","countryCode":"CO","stateCode":"NSA","latitude":7.37565,"longitude":-72.64795},{"name":"Pamplonita","countryCode":"CO","stateCode":"NSA","latitude":7.45814,"longitude":-72.65965},{"name":"Pana Pana","countryCode":"CO","stateCode":"GUA","latitude":1.96249,"longitude":-69.126},{"name":"Pandi","countryCode":"CO","stateCode":"CUN","latitude":4.18032,"longitude":-74.47099},{"name":"Panqueba","countryCode":"CO","stateCode":"BOY","latitude":6.44533,"longitude":-72.46268},{"name":"Papunaua","countryCode":"CO","stateCode":"VAU","latitude":1.68335,"longitude":-70.70968},{"name":"Páramo","countryCode":"CO","stateCode":"SAN","latitude":6.4375,"longitude":-73.18027},{"name":"Paratebueno","countryCode":"CO","stateCode":"CUN","latitude":4.37575,"longitude":-73.21547},{"name":"Pasca","countryCode":"CO","stateCode":"CUN","latitude":4.30722,"longitude":-74.30056},{"name":"Pasto","countryCode":"CO","stateCode":"NAR","latitude":1.21467,"longitude":-77.27865},{"name":"Patía","countryCode":"CO","stateCode":"CAU","latitude":2.14018,"longitude":-77.01744},{"name":"Pauna","countryCode":"CO","stateCode":"BOY","latitude":5.65861,"longitude":-73.9825},{"name":"Paya","countryCode":"CO","stateCode":"BOY","latitude":5.62492,"longitude":-72.42345},{"name":"Paz de Ariporo","countryCode":"CO","stateCode":"CAS","latitude":5.88111111,"longitude":-71.89166777},{"name":"Paz de Río","countryCode":"CO","stateCode":"BOY","latitude":6.00219,"longitude":-72.78857},{"name":"Pedraza","countryCode":"CO","stateCode":"MAG","latitude":10.18739,"longitude":-74.91504},{"name":"Pelaya","countryCode":"CO","stateCode":"CES","latitude":8.68819,"longitude":-73.66451},{"name":"Peñol","countryCode":"CO","stateCode":"ANT","latitude":6.23434,"longitude":-75.22573},{"name":"Pensilvania","countryCode":"CO","stateCode":"CAL","latitude":5.3884,"longitude":-75.2042},{"name":"Peque","countryCode":"CO","stateCode":"ANT","latitude":7.02123,"longitude":-75.90926},{"name":"Pereira","countryCode":"CO","stateCode":"RIS","latitude":4.76896,"longitude":-75.72222},{"name":"Pesca","countryCode":"CO","stateCode":"BOY","latitude":5.50213,"longitude":-73.08794},{"name":"Piamonte","countryCode":"CO","stateCode":"CAU","latitude":1.11583333,"longitude":-76.32611111},{"name":"Piedecuesta","countryCode":"CO","stateCode":"SAN","latitude":6.97443,"longitude":-73.02284},{"name":"Piedras","countryCode":"CO","stateCode":"TOL","latitude":4.5,"longitude":-74.91667},{"name":"Piendamo","countryCode":"CO","stateCode":"CAU","latitude":2.63918,"longitude":-76.53055},{"name":"Pijao","countryCode":"CO","stateCode":"QUI","latitude":4.3335,"longitude":-75.70463},{"name":"Pijiño del Carmen","countryCode":"CO","stateCode":"MAG","latitude":9.32908,"longitude":-74.45302},{"name":"Pinchote","countryCode":"CO","stateCode":"SAN","latitude":6.53226,"longitude":-73.17309},{"name":"Pinillos","countryCode":"CO","stateCode":"BOL","latitude":8.91925,"longitude":-74.46771},{"name":"Piojó","countryCode":"CO","stateCode":"ATL","latitude":10.74846,"longitude":-75.10776},{"name":"Pisba","countryCode":"CO","stateCode":"BOY","latitude":5.72396,"longitude":-72.48646},{"name":"Pital","countryCode":"CO","stateCode":"HUI","latitude":2.26638889,"longitude":-75.80444444},{"name":"Pitalito","countryCode":"CO","stateCode":"HUI","latitude":1.85388889,"longitude":-76.05138889},{"name":"Pivijay","countryCode":"CO","stateCode":"MAG","latitude":10.46167,"longitude":-74.61621},{"name":"Planadas","countryCode":"CO","stateCode":"TOL","latitude":3.10326,"longitude":-75.8168},{"name":"Planeta Rica","countryCode":"CO","stateCode":"COR","latitude":8.4115,"longitude":-75.58508},{"name":"Plato","countryCode":"CO","stateCode":"MAG","latitude":9.77267,"longitude":-74.74548},{"name":"Policarpa","countryCode":"CO","stateCode":"NAR","latitude":1.62843,"longitude":-77.45956},{"name":"Polonuevo","countryCode":"CO","stateCode":"ATL","latitude":10.77697,"longitude":-74.85344},{"name":"Ponedera","countryCode":"CO","stateCode":"ATL","latitude":10.64297,"longitude":-74.75393},{"name":"Popayán","countryCode":"CO","stateCode":"CAU","latitude":2.43823,"longitude":-76.61316},{"name":"Pore","countryCode":"CO","stateCode":"CAS","latitude":5.72792,"longitude":-71.99266},{"name":"Potosí","countryCode":"CO","stateCode":"NAR","latitude":0.80739,"longitude":-77.57216},{"name":"Pradera","countryCode":"CO","stateCode":"VAC","latitude":3.42793,"longitude":-76.17159},{"name":"Prado","countryCode":"CO","stateCode":"TOL","latitude":3.73219,"longitude":-74.86494},{"name":"Providencia","countryCode":"CO","stateCode":"NAR","latitude":1.23888999,"longitude":-77.59755555},{"name":"Providencia","countryCode":"CO","stateCode":"SAP","latitude":13.38479,"longitude":-81.37468},{"name":"Pueblo Bello","countryCode":"CO","stateCode":"CES","latitude":10.41638999,"longitude":-73.58666777},{"name":"Pueblo Nuevo","countryCode":"CO","stateCode":"COR","latitude":8.2411,"longitude":-74.95815},{"name":"Pueblo Rico","countryCode":"CO","stateCode":"RIS","latitude":5.29453,"longitude":-76.06702},{"name":"Pueblorrico","countryCode":"CO","stateCode":"ANT","latitude":5.8,"longitude":-75.85},{"name":"Puebloviejo","countryCode":"CO","stateCode":"MAG","latitude":10.84239,"longitude":-74.38538},{"name":"Puente Nacional","countryCode":"CO","stateCode":"SAN","latitude":5.87739,"longitude":-73.6781},{"name":"Puerres","countryCode":"CO","stateCode":"NAR","latitude":1.19374,"longitude":-77.26661},{"name":"Puerto Alegría","countryCode":"CO","stateCode":"AMA","latitude":-0.96886,"longitude":-73.74962},{"name":"Puerto Arica","countryCode":"CO","stateCode":"AMA","latitude":-1.90677,"longitude":-71.14653},{"name":"Puerto Asís","countryCode":"CO","stateCode":"PUT","latitude":0.50514,"longitude":-76.49571},{"name":"Puerto Berrío","countryCode":"CO","stateCode":"ANT","latitude":6.50749,"longitude":-74.52271},{"name":"Puerto Boyacá","countryCode":"CO","stateCode":"BOY","latitude":5.97214,"longitude":-74.46349},{"name":"Puerto Caicedo","countryCode":"CO","stateCode":"PUT","latitude":0.68555555,"longitude":-76.60444444},{"name":"Puerto Carreño","countryCode":"CO","stateCode":"VID","latitude":6.18903,"longitude":-67.48588},{"name":"Puerto Colombia","countryCode":"CO","stateCode":"ATL","latitude":11.00854,"longitude":-74.90887},{"name":"Puerto Colombia","countryCode":"CO","stateCode":"GUA","latitude":2.43903,"longitude":-68.16419},{"name":"Puerto Concordia","countryCode":"CO","stateCode":"MET","latitude":2.62206,"longitude":-72.75724},{"name":"Puerto Escondido","countryCode":"CO","stateCode":"COR","latitude":8.99453,"longitude":-76.19351},{"name":"Puerto Gaitán","countryCode":"CO","stateCode":"MET","latitude":4.31328,"longitude":-72.08157},{"name":"Puerto Guzmán","countryCode":"CO","stateCode":"PUT","latitude":0.97028,"longitude":-76.58583},{"name":"Puerto Leguízamo","countryCode":"CO","stateCode":"PUT","latitude":-0.19337,"longitude":-74.78189},{"name":"Puerto Libertador","countryCode":"CO","stateCode":"COR","latitude":7.68181,"longitude":-75.78312},{"name":"Puerto Lleras","countryCode":"CO","stateCode":"MET","latitude":3.21794,"longitude":-73.23215},{"name":"Puerto López","countryCode":"CO","stateCode":"MET","latitude":4.04426,"longitude":-72.65731},{"name":"Puerto Nare","countryCode":"CO","stateCode":"ANT","latitude":6.19167,"longitude":-74.5867},{"name":"Puerto Nariño","countryCode":"CO","stateCode":"AMA","latitude":-3.78889,"longitude":-70.35584},{"name":"Puerto Parra","countryCode":"CO","stateCode":"SAN","latitude":6.65149,"longitude":-74.05734},{"name":"Puerto Rico","countryCode":"CO","stateCode":"CAQ","latitude":1.90999,"longitude":-75.15931},{"name":"Puerto Rico","countryCode":"CO","stateCode":"MET","latitude":2.93833,"longitude":-73.20833},{"name":"Puerto Rondón","countryCode":"CO","stateCode":"ARA","latitude":6.28048,"longitude":-71.1},{"name":"Puerto Salgar","countryCode":"CO","stateCode":"CUN","latitude":5.61892,"longitude":-74.58483},{"name":"Puerto Santander","countryCode":"CO","stateCode":"AMA","latitude":-1.0987,"longitude":-71.93911},{"name":"Puerto Santander","countryCode":"CO","stateCode":"NSA","latitude":8.36361,"longitude":-72.4063},{"name":"Puerto Tejada","countryCode":"CO","stateCode":"CAU","latitude":3.23393,"longitude":-76.41935},{"name":"Puerto Triunfo","countryCode":"CO","stateCode":"ANT","latitude":5.87259,"longitude":-74.6405},{"name":"Puerto Wilches","countryCode":"CO","stateCode":"SAN","latitude":7.34828,"longitude":-73.89601},{"name":"Pulí","countryCode":"CO","stateCode":"CUN","latitude":4.68116,"longitude":-74.71406},{"name":"Pupiales","countryCode":"CO","stateCode":"NAR","latitude":0.87136,"longitude":-77.64027},{"name":"Puracé","countryCode":"CO","stateCode":"CAU","latitude":2.33851,"longitude":-76.38759},{"name":"Purificación","countryCode":"CO","stateCode":"TOL","latitude":3.85871,"longitude":-74.93129},{"name":"Purísima","countryCode":"CO","stateCode":"COR","latitude":9.23657,"longitude":-75.72191},{"name":"Quebradanegra","countryCode":"CO","stateCode":"CUN","latitude":5.08262,"longitude":-74.52117},{"name":"Quetame","countryCode":"CO","stateCode":"CUN","latitude":4.33234,"longitude":-73.86141},{"name":"Quibdó","countryCode":"CO","stateCode":"CHO","latitude":5.76075,"longitude":-76.83701},{"name":"Quimbaya","countryCode":"CO","stateCode":"QUI","latitude":4.59342,"longitude":-75.83758},{"name":"Quinchía","countryCode":"CO","stateCode":"RIS","latitude":5.33957,"longitude":-75.73018},{"name":"Quípama","countryCode":"CO","stateCode":"BOY","latitude":5.5194,"longitude":-74.17765},{"name":"Quipile","countryCode":"CO","stateCode":"CUN","latitude":4.74517,"longitude":-74.53378},{"name":"Ragonvalia","countryCode":"CO","stateCode":"NSA","latitude":7.57749,"longitude":-72.47574},{"name":"Ramiriquí","countryCode":"CO","stateCode":"BOY","latitude":5.4002,"longitude":-73.33544},{"name":"Ráquira","countryCode":"CO","stateCode":"BOY","latitude":5.53793,"longitude":-73.63201},{"name":"Recetor","countryCode":"CO","stateCode":"CAS","latitude":5.22947,"longitude":-72.76099},{"name":"Regidor","countryCode":"CO","stateCode":"BOL","latitude":8.72229,"longitude":-73.84891},{"name":"Remedios","countryCode":"CO","stateCode":"ANT","latitude":7.02835,"longitude":-74.69379},{"name":"Remolino","countryCode":"CO","stateCode":"MAG","latitude":10.65048,"longitude":-74.58442},{"name":"Repelón","countryCode":"CO","stateCode":"ATL","latitude":10.50937,"longitude":-75.1283},{"name":"Restrepo","countryCode":"CO","stateCode":"MET","latitude":4.25833,"longitude":-73.56142},{"name":"Restrepo","countryCode":"CO","stateCode":"VAC","latitude":3.82203,"longitude":-76.52242},{"name":"Retiro","countryCode":"CO","stateCode":"ANT","latitude":6.05906,"longitude":-75.51488},{"name":"Ricaurte","countryCode":"CO","stateCode":"CUN","latitude":4.28075,"longitude":-74.76469},{"name":"Ricaurte","countryCode":"CO","stateCode":"NAR","latitude":1.21474,"longitude":-77.99801},{"name":"Río de Oro","countryCode":"CO","stateCode":"CES","latitude":8.17879,"longitude":-73.51218},{"name":"Río Iro","countryCode":"CO","stateCode":"CHO","latitude":5.18333,"longitude":-76.4833},{"name":"Río Quito","countryCode":"CO","stateCode":"CHO","latitude":5.51667,"longitude":-76.75},{"name":"Río Viejo","countryCode":"CO","stateCode":"BOL","latitude":8.5874,"longitude":-73.83901},{"name":"Rioblanco","countryCode":"CO","stateCode":"TOL","latitude":3.5,"longitude":-75.83333},{"name":"Riofrío","countryCode":"CO","stateCode":"VAC","latitude":4.1571,"longitude":-76.28852},{"name":"Riohacha","countryCode":"CO","stateCode":"LAG","latitude":11.54444,"longitude":-72.90722},{"name":"Rionegro","countryCode":"CO","stateCode":"ANT","latitude":6.16667,"longitude":-75.41667},{"name":"Rionegro","countryCode":"CO","stateCode":"SAN","latitude":7.5,"longitude":-73.33333},{"name":"Riosucio","countryCode":"CO","stateCode":"CAL","latitude":5.42164,"longitude":-75.70318},{"name":"Riosucio","countryCode":"CO","stateCode":"CHO","latitude":7.41667,"longitude":-77.16667},{"name":"Risaralda","countryCode":"CO","stateCode":"CAL","latitude":5.11237,"longitude":-75.75861},{"name":"Rivera","countryCode":"CO","stateCode":"HUI","latitude":2.77722222,"longitude":-75.25638889},{"name":"Roberto Payán","countryCode":"CO","stateCode":"NAR","latitude":1.91757,"longitude":-78.38191},{"name":"Roldanillo","countryCode":"CO","stateCode":"VAC","latitude":4.41256,"longitude":-76.15457},{"name":"Roncesvalles","countryCode":"CO","stateCode":"TOL","latitude":4.0108,"longitude":-75.60493},{"name":"Rondón","countryCode":"CO","stateCode":"BOY","latitude":5.38173,"longitude":-73.19683},{"name":"Rosas","countryCode":"CO","stateCode":"CAU","latitude":2.26093,"longitude":-76.73986},{"name":"Rovira","countryCode":"CO","stateCode":"TOL","latitude":4.21222,"longitude":-75.3421},{"name":"Sabana de Torres","countryCode":"CO","stateCode":"SAN","latitude":7.3915,"longitude":-73.49574},{"name":"Sabanagrande","countryCode":"CO","stateCode":"ATL","latitude":10.80077,"longitude":-74.77051},{"name":"Sabanalarga","countryCode":"CO","stateCode":"ANT","latitude":6.84893,"longitude":-75.81711},{"name":"Sabanalarga","countryCode":"CO","stateCode":"ATL","latitude":10.61636,"longitude":-74.95717},{"name":"Sabanalarga","countryCode":"CO","stateCode":"CAS","latitude":4.8543,"longitude":-73.04003},{"name":"Sabanas de San Angel","countryCode":"CO","stateCode":"MAG","latitude":10.11072,"longitude":-74.26007},{"name":"Sabaneta","countryCode":"CO","stateCode":"ANT","latitude":6.15153,"longitude":-75.61657},{"name":"Saboyá","countryCode":"CO","stateCode":"BOY","latitude":5.69636,"longitude":-73.76932},{"name":"Sácama","countryCode":"CO","stateCode":"CAS","latitude":6.09908,"longitude":-72.2488},{"name":"Sáchica","countryCode":"CO","stateCode":"BOY","latitude":5.58453,"longitude":-73.54184},{"name":"Sahagún","countryCode":"CO","stateCode":"COR","latitude":8.94617,"longitude":-75.44275},{"name":"Saladoblanco","countryCode":"CO","stateCode":"HUI","latitude":1.99333333,"longitude":-76.04527778},{"name":"Salamina","countryCode":"CO","stateCode":"CAL","latitude":5.37014,"longitude":-75.41548},{"name":"Salamina","countryCode":"CO","stateCode":"MAG","latitude":10.49027,"longitude":-74.79463},{"name":"Salazar","countryCode":"CO","stateCode":"NSA","latitude":7.78249,"longitude":-72.85741},{"name":"Saldaña","countryCode":"CO","stateCode":"TOL","latitude":3.92923,"longitude":-75.01517},{"name":"Salento","countryCode":"CO","stateCode":"QUI","latitude":4.63643,"longitude":-75.5674},{"name":"Salgar","countryCode":"CO","stateCode":"ANT","latitude":5.96711,"longitude":-75.98747},{"name":"Samacá","countryCode":"CO","stateCode":"BOY","latitude":5.49273,"longitude":-73.48537},{"name":"Samaná","countryCode":"CO","stateCode":"CAL","latitude":5.54061,"longitude":-74.99346},{"name":"Samaniego","countryCode":"CO","stateCode":"NAR","latitude":1.33849,"longitude":-77.5957},{"name":"Sampués","countryCode":"CO","stateCode":"SUC","latitude":9.18361,"longitude":-75.38167},{"name":"San Agustín","countryCode":"CO","stateCode":"HUI","latitude":1.87916667,"longitude":-76.26833333},{"name":"San Alberto","countryCode":"CO","stateCode":"CES","latitude":7.76107,"longitude":-73.3922},{"name":"San Andrés","countryCode":"CO","stateCode":"SAN","latitude":6.81148,"longitude":-72.84929},{"name":"San Andrés","countryCode":"CO","stateCode":"SAP","latitude":12.58317,"longitude":-81.70636},{"name":"San Andrés de Cuerquía","countryCode":"CO","stateCode":"ANT","latitude":6.90333,"longitude":-75.6825},{"name":"San Andrés de Sotavento","countryCode":"CO","stateCode":"COR","latitude":9.12183,"longitude":-75.51627},{"name":"San Antero","countryCode":"CO","stateCode":"COR","latitude":9.3741,"longitude":-75.75891},{"name":"San Antonio","countryCode":"CO","stateCode":"TOL","latitude":3.95664,"longitude":-75.5},{"name":"San Antonio del Tequendama","countryCode":"CO","stateCode":"CUN","latitude":4.61667,"longitude":-74.35},{"name":"San Benito","countryCode":"CO","stateCode":"SAN","latitude":6.10206,"longitude":-73.53753},{"name":"San Benito Abad","countryCode":"CO","stateCode":"SUC","latitude":8.78833,"longitude":-74.95666},{"name":"San Bernardo","countryCode":"CO","stateCode":"CUN","latitude":4.12956,"longitude":-74.35903},{"name":"San Bernardo","countryCode":"CO","stateCode":"NAR","latitude":1.51525,"longitude":-77.04679},{"name":"San Bernardo del Viento","countryCode":"CO","stateCode":"COR","latitude":9.3533,"longitude":-75.95244},{"name":"San Calixto","countryCode":"CO","stateCode":"NSA","latitude":8.4021,"longitude":-73.20737},{"name":"San Carlos","countryCode":"CO","stateCode":"ANT","latitude":7.79177,"longitude":-74.77316},{"name":"San Carlos","countryCode":"CO","stateCode":"COR","latitude":8.79577,"longitude":-75.69947},{"name":"San Carlos de Guaroa","countryCode":"CO","stateCode":"MET","latitude":3.71161,"longitude":-73.24344},{"name":"San Cayetano","countryCode":"CO","stateCode":"CUN","latitude":5.31693,"longitude":-74.07141},{"name":"San Cayetano","countryCode":"CO","stateCode":"NSA","latitude":7.84771,"longitude":-72.61014},{"name":"San Cristóbal","countryCode":"CO","stateCode":"BOL","latitude":9.87809,"longitude":-75.25248},{"name":"San Diego","countryCode":"CO","stateCode":"CES","latitude":10.33623,"longitude":-73.18203},{"name":"San Eduardo","countryCode":"CO","stateCode":"BOY","latitude":5.22396,"longitude":-73.07696},{"name":"San Estanislao","countryCode":"CO","stateCode":"BOL","latitude":10.39833,"longitude":-75.15111},{"name":"San Felipe","countryCode":"CO","stateCode":"GUA","latitude":2.14321,"longitude":-67.34122},{"name":"San Fernando","countryCode":"CO","stateCode":"BOL","latitude":9.27972,"longitude":-74.53389},{"name":"San Francisco","countryCode":"CO","stateCode":"ANT","latitude":6.11667,"longitude":-75.98333},{"name":"San Francisco","countryCode":"CO","stateCode":"CUN","latitude":4.96335,"longitude":-74.26613},{"name":"San Francisco","countryCode":"CO","stateCode":"PUT","latitude":1.17644,"longitude":-76.87838},{"name":"San Gil","countryCode":"CO","stateCode":"SAN","latitude":6.55952,"longitude":-73.13637},{"name":"San Jacinto","countryCode":"CO","stateCode":"BOL","latitude":9.83906,"longitude":-75.11043},{"name":"San Jacinto del Cauca","countryCode":"CO","stateCode":"BOL","latitude":8.23729,"longitude":-74.66782},{"name":"San Jerónimo","countryCode":"CO","stateCode":"ANT","latitude":6.44139,"longitude":-75.70783},{"name":"San Joaquín","countryCode":"CO","stateCode":"SAN","latitude":6.46554,"longitude":-72.84852},{"name":"San José","countryCode":"CO","stateCode":"CAL","latitude":5.08221,"longitude":-75.79107},{"name":"San José de Albán","countryCode":"CO","stateCode":"NAR","latitude":1.47388999,"longitude":-77.08083333},{"name":"San José de la Montaña","countryCode":"CO","stateCode":"ANT","latitude":6.82205,"longitude":-75.69757},{"name":"San José de Miranda","countryCode":"CO","stateCode":"SAN","latitude":6.63051,"longitude":-72.73155},{"name":"San José de Pare","countryCode":"CO","stateCode":"BOY","latitude":6.01746,"longitude":-73.54703},{"name":"San José de Uré","countryCode":"CO","stateCode":"COR","latitude":7.78722222,"longitude":-75.53305666},{"name":"San José del Fragua","countryCode":"CO","stateCode":"CAQ","latitude":1.3078,"longitude":-76.16554},{"name":"San José del Guaviare","countryCode":"CO","stateCode":"GUV","latitude":2.57286,"longitude":-72.64591},{"name":"San José del Palmar","countryCode":"CO","stateCode":"CHO","latitude":4.89616,"longitude":-76.23422},{"name":"San Juan de Arama","countryCode":"CO","stateCode":"MET","latitude":3.29034,"longitude":-73.82065},{"name":"San Juan de Betulia","countryCode":"CO","stateCode":"SUC","latitude":9.27345,"longitude":-75.24103},{"name":"San Juan de Río Seco","countryCode":"CO","stateCode":"CUN","latitude":4.83077,"longitude":-74.68248},{"name":"San Juan de Urabá","countryCode":"CO","stateCode":"ANT","latitude":8.75924,"longitude":-76.52969},{"name":"San Juan del Cesar","countryCode":"CO","stateCode":"LAG","latitude":10.77107,"longitude":-73.00314},{"name":"San Juan Nepomuceno","countryCode":"CO","stateCode":"BOL","latitude":9.94976,"longitude":-75.07426},{"name":"San Juanito","countryCode":"CO","stateCode":"MET","latitude":4.45861111,"longitude":-73.67555666},{"name":"San Lorenzo","countryCode":"CO","stateCode":"NAR","latitude":1.55731,"longitude":-77.24599},{"name":"San Luis","countryCode":"CO","stateCode":"ANT","latitude":6.04222222,"longitude":-74.99333333},{"name":"San Luis","countryCode":"CO","stateCode":"TOL","latitude":4.16667,"longitude":-75.08333},{"name":"San Luis de Gaceno","countryCode":"CO","stateCode":"BOY","latitude":4.82052,"longitude":-73.16851},{"name":"San Luis de Palenque","countryCode":"CO","stateCode":"CAS","latitude":5.42139,"longitude":-71.73167},{"name":"San Luis de Sincé","countryCode":"CO","stateCode":"SUC","latitude":9.24391,"longitude":-75.14675},{"name":"San Marcos","countryCode":"CO","stateCode":"SUC","latitude":8.58333,"longitude":-75.16667},{"name":"San Martín","countryCode":"CO","stateCode":"CES","latitude":8.00151,"longitude":-73.51126},{"name":"San Martín","countryCode":"CO","stateCode":"MET","latitude":3.50819,"longitude":-73.03975},{"name":"San Martín de Loba","countryCode":"CO","stateCode":"BOL","latitude":8.88214,"longitude":-74.00353},{"name":"San Mateo","countryCode":"CO","stateCode":"BOY","latitude":6.37704,"longitude":-72.57797},{"name":"San Miguel","countryCode":"CO","stateCode":"PUT","latitude":0.34361111,"longitude":-76.91083333},{"name":"San Miguel","countryCode":"CO","stateCode":"SAN","latitude":6.57583,"longitude":-72.64591},{"name":"San Miguel de Sema","countryCode":"CO","stateCode":"BOY","latitude":5.51847,"longitude":-73.72238},{"name":"San Onofre","countryCode":"CO","stateCode":"SUC","latitude":9.73586,"longitude":-75.52626},{"name":"San Pablo","countryCode":"CO","stateCode":"BOL","latitude":10.05154,"longitude":-75.26775},{"name":"San Pablo","countryCode":"CO","stateCode":"NAR","latitude":1.6725,"longitude":-77.01389},{"name":"San Pablo de Borbur","countryCode":"CO","stateCode":"BOY","latitude":5.66638,"longitude":-74.13723},{"name":"San Pedro","countryCode":"CO","stateCode":"SUC","latitude":9.3956,"longitude":-75.06476},{"name":"San Pedro","countryCode":"CO","stateCode":"VAC","latitude":3.99936,"longitude":-76.26123},{"name":"San Pedro de Cartago","countryCode":"CO","stateCode":"NAR","latitude":1.55151,"longitude":-77.11948},{"name":"San Pedro de los Milagros","countryCode":"CO","stateCode":"ANT","latitude":6.45944444,"longitude":-75.55777888},{"name":"San Pedro de Uraba","countryCode":"CO","stateCode":"ANT","latitude":8.42291,"longitude":-76.31747},{"name":"San Pelayo","countryCode":"CO","stateCode":"COR","latitude":8.95833,"longitude":-75.83627},{"name":"San Rafael","countryCode":"CO","stateCode":"ANT","latitude":6.31234,"longitude":-75.02426},{"name":"San Roque","countryCode":"CO","stateCode":"ANT","latitude":6.48511,"longitude":-75.0196},{"name":"San Sebastián","countryCode":"CO","stateCode":"CAU","latitude":1.91667,"longitude":-76.66667},{"name":"San Sebastián de Buenavista","countryCode":"CO","stateCode":"MAG","latitude":9.23916666,"longitude":-74.35194444},{"name":"San Sebastián de Mariquita","countryCode":"CO","stateCode":"TOL","latitude":5.24269,"longitude":-74.90772},{"name":"San Vicente de Chucurí","countryCode":"CO","stateCode":"SAN","latitude":6.881,"longitude":-73.40977},{"name":"San Vicente del Caguán","countryCode":"CO","stateCode":"CAQ","latitude":2.11527888,"longitude":-74.77777777},{"name":"San Vicente Ferrer","countryCode":"CO","stateCode":"ANT","latitude":6.32237,"longitude":-75.3302},{"name":"San Zenón","countryCode":"CO","stateCode":"MAG","latitude":9.32686,"longitude":-74.32914},{"name":"Sandoná","countryCode":"CO","stateCode":"NAR","latitude":1.28626,"longitude":-77.46921},{"name":"Santa Ana","countryCode":"CO","stateCode":"MAG","latitude":9.51484,"longitude":-74.3433},{"name":"Santa Bárbara","countryCode":"CO","stateCode":"ANT","latitude":5.88937,"longitude":-75.58255},{"name":"Santa Bárbara","countryCode":"CO","stateCode":"NAR","latitude":2.30185,"longitude":-77.91487},{"name":"Santa Bárbara","countryCode":"CO","stateCode":"SAN","latitude":6.99022,"longitude":-72.907},{"name":"Santa Bárbara de Pinto","countryCode":"CO","stateCode":"MAG","latitude":9.52107,"longitude":-74.64912},{"name":"Santa Catalina","countryCode":"CO","stateCode":"BOL","latitude":10.60448,"longitude":-75.29555},{"name":"Santa Fe de Antioquia","countryCode":"CO","stateCode":"ANT","latitude":6.55687,"longitude":-75.82806},{"name":"Santa Helena Del Opón","countryCode":"CO","stateCode":"SAN","latitude":6.33916777,"longitude":-73.61666777},{"name":"Santa Isabel","countryCode":"CO","stateCode":"TOL","latitude":4.72626,"longitude":-75.22391},{"name":"Santa Lucía","countryCode":"CO","stateCode":"ATL","latitude":10.3242,"longitude":-74.96017},{"name":"Santa María","countryCode":"CO","stateCode":"BOY","latitude":4.82282,"longitude":-73.25373},{"name":"Santa María","countryCode":"CO","stateCode":"HUI","latitude":2.93777778,"longitude":-75.58694444},{"name":"Santa Marta","countryCode":"CO","stateCode":"MAG","latitude":11.24348,"longitude":-74.20835},{"name":"Santa Rosa","countryCode":"CO","stateCode":"BOL","latitude":10.47312,"longitude":-75.3616},{"name":"Santa Rosa","countryCode":"CO","stateCode":"CAU","latitude":1.70055666,"longitude":-76.57277888},{"name":"Santa Rosa de Cabal","countryCode":"CO","stateCode":"RIS","latitude":4.86806,"longitude":-75.62139},{"name":"Santa Rosa de Osos","countryCode":"CO","stateCode":"ANT","latitude":6.64738,"longitude":-75.46031},{"name":"Santa Rosa de Viterbo","countryCode":"CO","stateCode":"BOY","latitude":5.87401,"longitude":-72.98217},{"name":"Santa Rosa del Sur","countryCode":"CO","stateCode":"BOL","latitude":7.96444,"longitude":-74.05444},{"name":"Santa Rosalia","countryCode":"CO","stateCode":"VID","latitude":5.13356,"longitude":-70.86233},{"name":"Santa Sofía","countryCode":"CO","stateCode":"BOY","latitude":5.70213,"longitude":-73.62976},{"name":"Santacruz","countryCode":"CO","stateCode":"NAR","latitude":1.5209,"longitude":-77.26206},{"name":"Santana","countryCode":"CO","stateCode":"BOY","latitude":6.04464,"longitude":-73.51107},{"name":"Santander de Quilichao","countryCode":"CO","stateCode":"CAU","latitude":3.00945,"longitude":-76.48494},{"name":"Santiago","countryCode":"CO","stateCode":"NSA","latitude":7.8693,"longitude":-72.73753},{"name":"Santiago","countryCode":"CO","stateCode":"PUT","latitude":1.14844,"longitude":-77.0045},{"name":"Santiago de Tolú","countryCode":"CO","stateCode":"SUC","latitude":9.52392,"longitude":-75.58139},{"name":"Santo Domingo","countryCode":"CO","stateCode":"ANT","latitude":6.47282,"longitude":-75.16547},{"name":"Santo Tomás","countryCode":"CO","stateCode":"ATL","latitude":10.75773,"longitude":-74.75451},{"name":"Santuario","countryCode":"CO","stateCode":"RIS","latitude":5.05321,"longitude":-75.9906},{"name":"Sapuyes","countryCode":"CO","stateCode":"NAR","latitude":1.03728,"longitude":-77.62094},{"name":"Saravena","countryCode":"CO","stateCode":"ARA","latitude":6.96319,"longitude":-71.8823},{"name":"Sardinata","countryCode":"CO","stateCode":"NSA","latitude":8.08289,"longitude":-72.80071},{"name":"Sasaima","countryCode":"CO","stateCode":"CUN","latitude":4.96705,"longitude":-74.43512},{"name":"Sativanorte","countryCode":"CO","stateCode":"BOY","latitude":6.13156,"longitude":-72.70895},{"name":"Sativasur","countryCode":"CO","stateCode":"BOY","latitude":6.08959,"longitude":-72.72432},{"name":"Segovia","countryCode":"CO","stateCode":"ANT","latitude":7.28132,"longitude":-74.64273},{"name":"Sesquilé","countryCode":"CO","stateCode":"CUN","latitude":5.04463,"longitude":-73.79724},{"name":"Sevilla","countryCode":"CO","stateCode":"VAC","latitude":4.19345,"longitude":-75.88829},{"name":"Siachoque","countryCode":"CO","stateCode":"BOY","latitude":5.51238,"longitude":-73.24436},{"name":"Sibaté","countryCode":"CO","stateCode":"CUN","latitude":4.49154,"longitude":-74.25957},{"name":"Sibundoy","countryCode":"CO","stateCode":"PUT","latitude":1.20296,"longitude":-76.92275},{"name":"Silos","countryCode":"CO","stateCode":"NSA","latitude":7.20524,"longitude":-72.75639},{"name":"Silvania","countryCode":"CO","stateCode":"CUN","latitude":4.40367,"longitude":-74.3867},{"name":"Silvia","countryCode":"CO","stateCode":"CAU","latitude":2.61557,"longitude":-76.38261},{"name":"Simacota","countryCode":"CO","stateCode":"SAN","latitude":6.4429,"longitude":-73.33688},{"name":"Simijaca","countryCode":"CO","stateCode":"CUN","latitude":5.50415,"longitude":-73.86944},{"name":"Simití","countryCode":"CO","stateCode":"BOL","latitude":7.81632,"longitude":-73.97922},{"name":"Sincelejo","countryCode":"CO","stateCode":"SUC","latitude":9.30472,"longitude":-75.39778},{"name":"Sipí","countryCode":"CO","stateCode":"CHO","latitude":4.65374,"longitude":-76.64442},{"name":"Sitionuevo","countryCode":"CO","stateCode":"MAG","latitude":10.77737,"longitude":-74.72049},{"name":"Soacha","countryCode":"CO","stateCode":"CUN","latitude":4.57937,"longitude":-74.21682},{"name":"Soatá","countryCode":"CO","stateCode":"BOY","latitude":6.29966,"longitude":-72.72422},{"name":"Socha","countryCode":"CO","stateCode":"BOY","latitude":5.92926,"longitude":-72.70072},{"name":"Socorro","countryCode":"CO","stateCode":"SAN","latitude":6.45647,"longitude":-73.25502},{"name":"Socotá","countryCode":"CO","stateCode":"BOY","latitude":6.04028,"longitude":-72.63509},{"name":"Sogamoso","countryCode":"CO","stateCode":"BOY","latitude":5.71434,"longitude":-72.93391},{"name":"Solano","countryCode":"CO","stateCode":"CAQ","latitude":0.22842,"longitude":-73.27597},{"name":"Soledad","countryCode":"CO","stateCode":"ATL","latitude":10.89986,"longitude":-74.78787},{"name":"Solita","countryCode":"CO","stateCode":"CAQ","latitude":0.87583333,"longitude":-75.61972222},{"name":"Somondoco","countryCode":"CO","stateCode":"BOY","latitude":4.98495,"longitude":-73.43238},{"name":"Sonson","countryCode":"CO","stateCode":"ANT","latitude":5.75,"longitude":-75},{"name":"Sopetrán","countryCode":"CO","stateCode":"ANT","latitude":6.52271,"longitude":-75.74608},{"name":"Soplaviento","countryCode":"CO","stateCode":"BOL","latitude":10.33176,"longitude":-75.11853},{"name":"Sopó","countryCode":"CO","stateCode":"CUN","latitude":4.9075,"longitude":-73.9384},{"name":"Sora","countryCode":"CO","stateCode":"BOY","latitude":5.56514,"longitude":-73.45017},{"name":"Soracá","countryCode":"CO","stateCode":"BOY","latitude":5.50055,"longitude":-73.33299},{"name":"Sotaquirá","countryCode":"CO","stateCode":"BOY","latitude":5.76483,"longitude":-73.24758},{"name":"Sotará","countryCode":"CO","stateCode":"CAU","latitude":2.25,"longitude":-76.58333},{"name":"Suaita","countryCode":"CO","stateCode":"SAN","latitude":6.08221,"longitude":-73.37008},{"name":"Suan","countryCode":"CO","stateCode":"ATL","latitude":10.30214,"longitude":-74.91934},{"name":"Suárez","countryCode":"CO","stateCode":"CAU","latitude":2.95395,"longitude":-76.69644},{"name":"Suárez","countryCode":"CO","stateCode":"TOL","latitude":4.04897,"longitude":-74.81821},{"name":"Suaza","countryCode":"CO","stateCode":"HUI","latitude":1.975,"longitude":-75.79555556},{"name":"Subachoque","countryCode":"CO","stateCode":"CUN","latitude":4.92614,"longitude":-74.17299},{"name":"Sucre","countryCode":"CO","stateCode":"CAU","latitude":2.06182,"longitude":-76.91438},{"name":"Sucre","countryCode":"CO","stateCode":"SAN","latitude":5.96995,"longitude":-73.96629},{"name":"Sucre","countryCode":"CO","stateCode":"SUC","latitude":8.81136,"longitude":-74.72084},{"name":"Suesca","countryCode":"CO","stateCode":"CUN","latitude":5.10289,"longitude":-73.79845},{"name":"Supatá","countryCode":"CO","stateCode":"CUN","latitude":5.06097,"longitude":-74.23721},{"name":"Supía","countryCode":"CO","stateCode":"CAL","latitude":5.45303,"longitude":-75.65072},{"name":"Suratá","countryCode":"CO","stateCode":"SAN","latitude":7.36633,"longitude":-72.98361},{"name":"Susa","countryCode":"CO","stateCode":"CUN","latitude":5.427,"longitude":-73.84786},{"name":"Susacón","countryCode":"CO","stateCode":"BOY","latitude":6.22978,"longitude":-72.6901},{"name":"Sutamarchán","countryCode":"CO","stateCode":"BOY","latitude":5.61538,"longitude":-73.61701},{"name":"Sutatausa","countryCode":"CO","stateCode":"CUN","latitude":5.24779,"longitude":-73.85238},{"name":"Sutatenza","countryCode":"CO","stateCode":"BOY","latitude":5.02311,"longitude":-73.4523},{"name":"Tabio","countryCode":"CO","stateCode":"CUN","latitude":4.91726,"longitude":-74.09364},{"name":"Tadó","countryCode":"CO","stateCode":"CHO","latitude":5.26598,"longitude":-76.56487},{"name":"Talaigua Nuevo","countryCode":"CO","stateCode":"BOL","latitude":9.30347,"longitude":-74.56477},{"name":"Tamalameque","countryCode":"CO","stateCode":"CES","latitude":8.86422,"longitude":-73.78106},{"name":"Támara","countryCode":"CO","stateCode":"CAS","latitude":5.82998,"longitude":-72.16286},{"name":"Tame","countryCode":"CO","stateCode":"ARA","latitude":6.46065,"longitude":-71.73618},{"name":"Támesis","countryCode":"CO","stateCode":"ANT","latitude":5.66462,"longitude":-75.71339},{"name":"Taminango","countryCode":"CO","stateCode":"NAR","latitude":1.57032,"longitude":-77.28043},{"name":"Tangua","countryCode":"CO","stateCode":"NAR","latitude":1.09189,"longitude":-77.38645},{"name":"Taraira","countryCode":"CO","stateCode":"VAU","latitude":-0.74835,"longitude":-69.89662},{"name":"Tarapacá","countryCode":"CO","stateCode":"AMA","latitude":-2.88544,"longitude":-69.77692},{"name":"Tarazá","countryCode":"CO","stateCode":"ANT","latitude":7.58358,"longitude":-75.40068},{"name":"Tarqui","countryCode":"CO","stateCode":"HUI","latitude":2.11055556,"longitude":-75.82305556},{"name":"Tarso","countryCode":"CO","stateCode":"ANT","latitude":5.86467,"longitude":-75.82192},{"name":"Tasco","countryCode":"CO","stateCode":"BOY","latitude":5.91044,"longitude":-72.78001},{"name":"Tauramena","countryCode":"CO","stateCode":"CAS","latitude":5.01789,"longitude":-72.74675},{"name":"Tausa","countryCode":"CO","stateCode":"CUN","latitude":5.19903,"longitude":-73.89128},{"name":"Tello","countryCode":"CO","stateCode":"HUI","latitude":3.06666667,"longitude":-75.13861111},{"name":"Tena","countryCode":"CO","stateCode":"CUN","latitude":4.66001,"longitude":-74.39258},{"name":"Tenerife","countryCode":"CO","stateCode":"MAG","latitude":9.93201,"longitude":-74.73465},{"name":"Tenjo","countryCode":"CO","stateCode":"CUN","latitude":4.8727,"longitude":-74.14435},{"name":"Tenza","countryCode":"CO","stateCode":"BOY","latitude":5.07664,"longitude":-73.42077},{"name":"Teorama","countryCode":"CO","stateCode":"NSA","latitude":8.43527888,"longitude":-73.28638999},{"name":"Teruel","countryCode":"CO","stateCode":"HUI","latitude":2.74055556,"longitude":-75.56833333},{"name":"Tesalia","countryCode":"CO","stateCode":"HUI","latitude":2.48472222,"longitude":-75.73},{"name":"Tibacuy","countryCode":"CO","stateCode":"CUN","latitude":4.30606,"longitude":-74.51639},{"name":"Tibaná","countryCode":"CO","stateCode":"BOY","latitude":5.31728,"longitude":-73.39655},{"name":"Tibasosa","countryCode":"CO","stateCode":"BOY","latitude":5.74722,"longitude":-73.01091},{"name":"Tibirita","countryCode":"CO","stateCode":"CUN","latitude":5.05227,"longitude":-73.50459},{"name":"Tibú","countryCode":"CO","stateCode":"NSA","latitude":8.63895,"longitude":-72.73583},