[{"name":"’Aïn Abid","countryCode":"DZ","stateCode":"25","latitude":36.23194,"longitude":6.94333},{"name":"’Aïn Benian","countryCode":"DZ","stateCode":"42","latitude":36.80277,"longitude":2.92185},{"name":"’Aïn Boucif","countryCode":"DZ","stateCode":"26","latitude":35.89123,"longitude":3.1585},{"name":"’Aïn Deheb","countryCode":"DZ","stateCode":"14","latitude":34.84218,"longitude":1.54697},{"name":"’Aïn el Bell","countryCode":"DZ","stateCode":"17","latitude":34.34381,"longitude":3.22475},{"name":"’Aïn el Hadjar","countryCode":"DZ","stateCode":"20","latitude":34.75846,"longitude":0.14528},{"name":"‘Aïn el Hadjel","countryCode":"DZ","stateCode":"28","latitude":35.67003,"longitude":3.88153},{"name":"’Aïn el Hammam","countryCode":"DZ","stateCode":"15","latitude":36.56471,"longitude":4.30619},{"name":"’Aïn el Melh","countryCode":"DZ","stateCode":"28","latitude":34.84146,"longitude":4.16383},{"name":"’Aïn el Turk","countryCode":"DZ","stateCode":"31","latitude":35.74381,"longitude":-0.7693},{"name":"’Aïn Merane","countryCode":"DZ","stateCode":"48","latitude":36.16277,"longitude":0.97037},{"name":"Abou el Hassan","countryCode":"DZ","stateCode":"02","latitude":36.41657,"longitude":1.19616},{"name":"Adrar","countryCode":"DZ","stateCode":"01","latitude":27.87429,"longitude":-0.29388},{"name":"Aflou","countryCode":"DZ","stateCode":"03","latitude":34.11279,"longitude":2.10228},{"name":"Aïn Arnat","countryCode":"DZ","stateCode":"19","latitude":36.18683,"longitude":5.31347},{"name":"Aïn Beïda","countryCode":"DZ","stateCode":"04","latitude":35.79639,"longitude":7.39278},{"name":"Aïn Bessem","countryCode":"DZ","stateCode":"10","latitude":36.29333,"longitude":3.67319},{"name":"Aïn Defla","countryCode":"DZ","stateCode":"44","latitude":36.26405,"longitude":1.9679},{"name":"Aïn El Berd District","countryCode":"DZ","stateCode":"22","latitude":35.35,"longitude":-0.51667},{"name":"Aïn el Bya","countryCode":"DZ","stateCode":"31","latitude":35.80389,"longitude":-0.30178},{"name":"Aïn Fakroun","countryCode":"DZ","stateCode":"04","latitude":35.97108,"longitude":6.87374},{"name":"Aïn Kercha","countryCode":"DZ","stateCode":"04","latitude":35.92472,"longitude":6.69528},{"name":"Aïn Oussera","countryCode":"DZ","stateCode":"17","latitude":35.45139,"longitude":2.90583},{"name":"Aïn Sefra","countryCode":"DZ","stateCode":"45","latitude":32.75,"longitude":-0.58333},{"name":"Aïn Smara","countryCode":"DZ","stateCode":"25","latitude":36.2674,"longitude":6.50135},{"name":"Aïn Taya","countryCode":"DZ","stateCode":"16","latitude":36.79333,"longitude":3.28694},{"name":"Aïn Temouchent","countryCode":"DZ","stateCode":"46","latitude":35.29749,"longitude":-1.14037},{"name":"Aïn Touta","countryCode":"DZ","stateCode":"05","latitude":35.37675,"longitude":5.90001},{"name":"Akbou","countryCode":"DZ","stateCode":"06","latitude":36.4575,"longitude":4.53494},{"name":"Algiers","countryCode":"DZ","stateCode":"16","latitude":36.73225,"longitude":3.08746},{"name":"Amizour","countryCode":"DZ","stateCode":"06","latitude":36.64022,"longitude":4.90131},{"name":"Ammi Moussa","countryCode":"DZ","stateCode":"48","latitude":35.86781,"longitude":1.11143},{"name":"Annaba","countryCode":"DZ","stateCode":"23","latitude":36.9,"longitude":7.76667},{"name":"Aoulef","countryCode":"DZ","stateCode":"01","latitude":26.96667,"longitude":1.08333},{"name":"Arbatache","countryCode":"DZ","stateCode":"35","latitude":36.63773,"longitude":3.37127},{"name":"Arhribs","countryCode":"DZ","stateCode":"15","latitude":36.79361,"longitude":4.31158},{"name":"Arris","countryCode":"DZ","stateCode":"05","latitude":35.25881,"longitude":6.34706},{"name":"Azazga","countryCode":"DZ","stateCode":"15","latitude":36.74472,"longitude":4.37222},{"name":"Azzaba","countryCode":"DZ","stateCode":"21","latitude":36.73944,"longitude":7.10528},{"name":"Bab Ezzouar","countryCode":"DZ","stateCode":"16","latitude":36.72615,"longitude":3.18291},{"name":"BABOR - VILLE","countryCode":"DZ","stateCode":"19","latitude":36.48994,"longitude":5.5393},{"name":"Balidat Ameur","countryCode":"DZ","stateCode":"22","latitude":32.951389,"longitude":5.980556},{"name":"Baraki","countryCode":"DZ","stateCode":"42","latitude":36.66655,"longitude":3.09606},{"name":"Barbacha","countryCode":"DZ","stateCode":"06","latitude":36.56667,"longitude":4.96667},{"name":"Barika","countryCode":"DZ","stateCode":"05","latitude":35.38901,"longitude":5.36584},{"name":"Batna","countryCode":"DZ","stateCode":"05","latitude":35.55597,"longitude":6.17414},{"name":"Béchar","countryCode":"DZ","stateCode":"08","latitude":31.61667,"longitude":-2.21667},{"name":"Bejaïa","countryCode":"DZ","stateCode":"06","latitude":36.75587,"longitude":5.08433},{"name":"Belarbi","countryCode":"DZ","stateCode":"22","latitude":35.1514948,"longitude":-0.4567909},{"name":"Ben Badis, Sid Bel Abbés","countryCode":"DZ","stateCode":"22","latitude":34.95277778,"longitude":-0.91444444},{"name":"Ben Mehidi","countryCode":"DZ","stateCode":"36","latitude":36.76967,"longitude":7.90641},{"name":"Beni Amrane","countryCode":"DZ","stateCode":"35","latitude":36.66774,"longitude":3.59115},{"name":"Beni Douala","countryCode":"DZ","stateCode":"15","latitude":36.61954,"longitude":4.08282},{"name":"Beni Mered","countryCode":"DZ","stateCode":"09","latitude":36.52389,"longitude":2.86131},{"name":"Beni Mester","countryCode":"DZ","stateCode":"13","latitude":34.87045,"longitude":-1.42319},{"name":"Beni Saf","countryCode":"DZ","stateCode":"46","latitude":35.30099,"longitude":-1.38226},{"name":"Bensekrane","countryCode":"DZ","stateCode":"13","latitude":35.07465,"longitude":-1.22431},{"name":"Berrahal","countryCode":"DZ","stateCode":"23","latitude":36.83528,"longitude":7.45333},{"name":"Berriane","countryCode":"DZ","stateCode":"47","latitude":32.82648,"longitude":3.76689},{"name":"Berrouaghia","countryCode":"DZ","stateCode":"26","latitude":36.13516,"longitude":2.91085},{"name":"Besbes","countryCode":"DZ","stateCode":"36","latitude":36.70222,"longitude":7.84722},{"name":"Bir el Ater","countryCode":"DZ","stateCode":"12","latitude":34.74488,"longitude":8.06024},{"name":"Bir el Djir","countryCode":"DZ","stateCode":"31","latitude":35.72,"longitude":-0.545},{"name":"Birine","countryCode":"DZ","stateCode":"17","latitude":35.635,"longitude":3.225},{"name":"Birkhadem","countryCode":"DZ","stateCode":"16","latitude":36.71499,"longitude":3.05002},{"name":"Biskra","countryCode":"DZ","stateCode":"07","latitude":34.85038,"longitude":5.72805},{"name":"Blida","countryCode":"DZ","stateCode":"09","latitude":36.47004,"longitude":2.8277},{"name":"Boghni","countryCode":"DZ","stateCode":"15","latitude":36.54222,"longitude":3.95306},{"name":"Bordj Bou Arreridj","countryCode":"DZ","stateCode":"34","latitude":36.07321,"longitude":4.76108},{"name":"Bordj el Kiffan","countryCode":"DZ","stateCode":"16","latitude":36.74871,"longitude":3.19249},{"name":"Bordj Ghdir","countryCode":"DZ","stateCode":"34","latitude":35.90111,"longitude":4.89806},{"name":"Bordj Zemoura","countryCode":"DZ","stateCode":"34","latitude":36.27462,"longitude":4.85668},{"name":"Boû Arfa","countryCode":"DZ","stateCode":"09","latitude":36.46298,"longitude":2.81464},{"name":"Bou Hanifia el Hamamat","countryCode":"DZ","stateCode":"29","latitude":35.31473,"longitude":-0.05037},{"name":"Bou Ismaïl","countryCode":"DZ","stateCode":"42","latitude":36.64262,"longitude":2.69007},{"name":"Bou Tlelis","countryCode":"DZ","stateCode":"31","latitude":35.57272,"longitude":-0.8996},{"name":"Boudjima","countryCode":"DZ","stateCode":"15","latitude":36.80218,"longitude":4.15187},{"name":"Boudouaou","countryCode":"DZ","stateCode":"35","latitude":36.72735,"longitude":3.40995},{"name":"Boufarik","countryCode":"DZ","stateCode":"09","latitude":36.57413,"longitude":2.91214},{"name":"Bougaa","countryCode":"DZ","stateCode":"19","latitude":36.33293,"longitude":5.08843},{"name":"Bougara","countryCode":"DZ","stateCode":"09","latitude":36.54178,"longitude":3.081},{"name":"Bouinan","countryCode":"DZ","stateCode":"09","latitude":36.53167,"longitude":2.99194},{"name":"Bouïra","countryCode":"DZ","stateCode":"10","latitude":36.37489,"longitude":3.902},{"name":"Boukadir","countryCode":"DZ","stateCode":"02","latitude":36.06629,"longitude":1.12602},{"name":"Boumagueur","countryCode":"DZ","stateCode":"05","latitude":35.5052,"longitude":5.5525},{"name":"Boumahra Ahmed","countryCode":"DZ","stateCode":"24","latitude":36.45833,"longitude":7.51389},{"name":"Boumerdas","countryCode":"DZ","stateCode":"35","latitude":36.76639,"longitude":3.47717},{"name":"Brezina","countryCode":"DZ","stateCode":"32","latitude":33.09892,"longitude":1.26082},{"name":"Chabet el Ameur","countryCode":"DZ","stateCode":"35","latitude":36.63709,"longitude":3.69474},{"name":"Charef","countryCode":"DZ","stateCode":"17","latitude":34.62098,"longitude":2.79503},{"name":"Chebli","countryCode":"DZ","stateCode":"09","latitude":36.57722,"longitude":3.00917},{"name":"Chelghoum el Aïd","countryCode":"DZ","stateCode":"43","latitude":36.16286,"longitude":6.16651},{"name":"Chemini","countryCode":"DZ","stateCode":"15","latitude":36.6,"longitude":4.61667},{"name":"Cheraga","countryCode":"DZ","stateCode":"42","latitude":36.76775,"longitude":2.95924},{"name":"Cheria","countryCode":"DZ","stateCode":"12","latitude":35.27306,"longitude":7.75194},{"name":"Chetouane","countryCode":"DZ","stateCode":"13","latitude":34.92129,"longitude":-1.29512},{"name":"Chiffa","countryCode":"DZ","stateCode":"09","latitude":36.46293,"longitude":2.73873},{"name":"Chlef","countryCode":"DZ","stateCode":"02","latitude":36.16525,"longitude":1.33452},{"name":"Chorfa","countryCode":"DZ","stateCode":"10","latitude":36.36505,"longitude":4.32636},{"name":"Constantine","countryCode":"DZ","stateCode":"25","latitude":36.365,"longitude":6.61472},{"name":"Dar Chioukh","countryCode":"DZ","stateCode":"17","latitude":34.89638,"longitude":3.48543},{"name":"Dar el Beïda","countryCode":"DZ","stateCode":"16","latitude":36.71333,"longitude":3.2125},{"name":"Debila","countryCode":"DZ","stateCode":"39","latitude":33.51667,"longitude":6.95},{"name":"Dellys","countryCode":"DZ","stateCode":"35","latitude":36.91716,"longitude":3.91311},{"name":"Didouche Mourad","countryCode":"DZ","stateCode":"25","latitude":36.4525,"longitude":6.63639},{"name":"Djamaa","countryCode":"DZ","stateCode":"22","latitude":33.5313787,"longitude":5.9909821},{"name":"Djamaa","countryCode":"DZ","stateCode":"30","latitude":33.53388,"longitude":5.99306},{"name":"Djebilet Rosfa","countryCode":"DZ","stateCode":"14","latitude":34.86375,"longitude":0.83496},{"name":"Djelfa","countryCode":"DZ","stateCode":"17","latitude":34.67279,"longitude":3.263},{"name":"Djidiouia","countryCode":"DZ","stateCode":"48","latitude":35.92989,"longitude":0.82871},{"name":"Douera","countryCode":"DZ","stateCode":"42","latitude":36.67,"longitude":2.94444},{"name":"Draa Ben Khedda","countryCode":"DZ","stateCode":"15","latitude":36.73436,"longitude":3.96223},{"name":"Draa el Mizan","countryCode":"DZ","stateCode":"10","latitude":36.53628,"longitude":3.8334},{"name":"Drean","countryCode":"DZ","stateCode":"23","latitude":36.68482,"longitude":7.75111},{"name":"Ech Chettia","countryCode":"DZ","stateCode":"02","latitude":36.19591,"longitude":1.25537},{"name":"El Abadia","countryCode":"DZ","stateCode":"44","latitude":36.26951,"longitude":1.68609},{"name":"El Abiodh Sidi Cheikh","countryCode":"DZ","stateCode":"32","latitude":32.893,"longitude":0.54839},{"name":"El Achir","countryCode":"DZ","stateCode":"34","latitude":36.06386,"longitude":4.62744},{"name":"El Affroun","countryCode":"DZ","stateCode":"42","latitude":36.4701,"longitude":2.62528},{"name":"El Amria","countryCode":"DZ","stateCode":"46","latitude":35.52439,"longitude":-1.01577},{"name":"El Aouinet","countryCode":"DZ","stateCode":"04","latitude":35.86691,"longitude":7.88673},{"name":"El Attaf","countryCode":"DZ","stateCode":"44","latitude":36.22393,"longitude":1.67187},{"name":"El Bayadh","countryCode":"DZ","stateCode":"32","latitude":33.68318,"longitude":1.01927},{"name":"El Bour","countryCode":"DZ","stateCode":"22","latitude":32.16305556,"longitude":5.34527778},{"name":"El Eulma","countryCode":"DZ","stateCode":"19","latitude":36.15281,"longitude":5.69016},{"name":"El Hadjar","countryCode":"DZ","stateCode":"23","latitude":36.80377,"longitude":7.73684},{"name":"El Hadjira","countryCode":"DZ","stateCode":"22","latitude":32.61666667,"longitude":5.51666667},{"name":"El Hadjira","countryCode":"DZ","stateCode":"30","latitude":32.61336,"longitude":5.51259},{"name":"el hed","countryCode":"DZ","stateCode":"06","latitude":36.65,"longitude":4.77361},{"name":"El Idrissia","countryCode":"DZ","stateCode":"17","latitude":34.44542,"longitude":2.52749},{"name":"El Kala","countryCode":"DZ","stateCode":"36","latitude":36.89556,"longitude":8.44333},{"name":"El Khroub","countryCode":"DZ","stateCode":"25","latitude":36.26333,"longitude":6.69361},{"name":"El Kseur","countryCode":"DZ","stateCode":"06","latitude":36.67942,"longitude":4.8555},{"name":"El Malah","countryCode":"DZ","stateCode":"46","latitude":35.39137,"longitude":-1.09238},{"name":"El Oued","countryCode":"DZ","stateCode":"39","latitude":33.35608,"longitude":6.86319},{"name":"El Tarf","countryCode":"DZ","stateCode":"36","latitude":36.7672,"longitude":8.31377},{"name":"Es Senia","countryCode":"DZ","stateCode":"31","latitude":35.64779,"longitude":-0.62397},{"name":"Feraoun","countryCode":"DZ","stateCode":"06","latitude":36.56041,"longitude":4.85454},{"name":"Freha","countryCode":"DZ","stateCode":"15","latitude":36.75234,"longitude":4.3155},{"name":"Frenda","countryCode":"DZ","stateCode":"14","latitude":35.06544,"longitude":1.04945},{"name":"Ghardaïa","countryCode":"DZ","stateCode":"47","latitude":32.49094,"longitude":3.67347},{"name":"Guelma","countryCode":"DZ","stateCode":"24","latitude":36.46214,"longitude":7.42608},{"name":"Hadjout","countryCode":"DZ","stateCode":"42","latitude":36.51257,"longitude":2.41382},{"name":"Hamma Bouziane","countryCode":"DZ","stateCode":"25","latitude":36.41205,"longitude":6.59603},{"name":"Hammam Bou Hadjar","countryCode":"DZ","stateCode":"46","latitude":35.37889,"longitude":-0.96778},{"name":"Hammamet","countryCode":"DZ","stateCode":"12","latitude":35.44862,"longitude":7.95184},{"name":"Haoud El Hamra","countryCode":"DZ","stateCode":"22","latitude":31.88944444,"longitude":5.97305556},{"name":"Hassi Messaoud","countryCode":"DZ","stateCode":"22","latitude":31.7,"longitude":6.06666667},{"name":"Hassi Messaoud","countryCode":"DZ","stateCode":"30","latitude":31.68041,"longitude":6.07286},{"name":"Héliopolis","countryCode":"DZ","stateCode":"24","latitude":36.50361,"longitude":7.44278},{"name":"Hennaya","countryCode":"DZ","stateCode":"13","latitude":34.95139,"longitude":-1.36806},{"name":"I-n-Salah","countryCode":"DZ","stateCode":"11","latitude":27.19351,"longitude":2.46069},{"name":"Ighram","countryCode":"DZ","stateCode":"15","latitude":36.46295,"longitude":4.50532},{"name":"Illizi","countryCode":"DZ","stateCode":"33","latitude":26.48333,"longitude":8.46667},{"name":"Jijel","countryCode":"DZ","stateCode":"18","latitude":36.82055,"longitude":5.76671},{"name":"Karkira","countryCode":"DZ","stateCode":"21","latitude":36.92917,"longitude":6.58556},{"name":"Khemis el Khechna","countryCode":"DZ","stateCode":"35","latitude":36.64997,"longitude":3.3308},{"name":"Khemis Miliana","countryCode":"DZ","stateCode":"44","latitude":36.26104,"longitude":2.22015},{"name":"Khenchela","countryCode":"DZ","stateCode":"40","latitude":35.43583,"longitude":7.14333},{"name":"Kolea","countryCode":"DZ","stateCode":"42","latitude":36.63888,"longitude":2.76845},{"name":"Ksar Chellala","countryCode":"DZ","stateCode":"14","latitude":35.21222,"longitude":2.31889},{"name":"Ksar el Boukhari","countryCode":"DZ","stateCode":"26","latitude":35.88889,"longitude":2.74905},{"name":"L’Arbaa Naït Irathen","countryCode":"DZ","stateCode":"15","latitude":36.63112,"longitude":4.19864},{"name":"Laghouat","countryCode":"DZ","stateCode":"03","latitude":33.8,"longitude":2.86514},{"name":"Lakhdaria","countryCode":"DZ","stateCode":"10","latitude":36.56463,"longitude":3.5933},{"name":"Lamtar","countryCode":"DZ","stateCode":"22","latitude":35.070627,"longitude":-0.79814},{"name":"Larbaâ","countryCode":"DZ","stateCode":"09","latitude":36.56471,"longitude":3.15434},{"name":"Lardjem","countryCode":"DZ","stateCode":"38","latitude":35.74922,"longitude":1.54778},{"name":"M’Sila","countryCode":"DZ","stateCode":"28","latitude":35.70583,"longitude":4.54194},{"name":"Makouda","countryCode":"DZ","stateCode":"35","latitude":36.78567,"longitude":4.06273},{"name":"Mansoûra","countryCode":"DZ","stateCode":"13","latitude":34.86158,"longitude":-1.33935},{"name":"Mansourah","countryCode":"DZ","stateCode":"34","latitude":36.08725,"longitude":4.45192},{"name":"Marhoum","countryCode":"DZ","stateCode":"22","latitude":34.4460042,"longitude":-0.1950244},{"name":"Mascara","countryCode":"DZ","stateCode":"29","latitude":35.39664,"longitude":0.14027},{"name":"Mazouna","countryCode":"DZ","stateCode":"48","latitude":36.12232,"longitude":0.89865},{"name":"Médéa","countryCode":"DZ","stateCode":"26","latitude":36.26417,"longitude":2.75393},{"name":"Meftah","countryCode":"DZ","stateCode":"09","latitude":36.6204,"longitude":3.22248},{"name":"Megarine","countryCode":"DZ","stateCode":"22","latitude":33.1926232,"longitude":6.0934639},{"name":"Megarine","countryCode":"DZ","stateCode":"30","latitude":33.19195,"longitude":6.08695},{"name":"Mehdia daira de meghila","countryCode":"DZ","stateCode":"14","latitude":35.43058,"longitude":1.75714},{"name":"Mekla","countryCode":"DZ","stateCode":"15","latitude":36.68178,"longitude":4.26378},{"name":"Melouza","countryCode":"DZ","stateCode":"34","latitude":35.97999,"longitude":4.18665},{"name":"Merine","countryCode":"DZ","stateCode":"22","latitude":34.7807472,"longitude":-0.4510403},{"name":"Merouana","countryCode":"DZ","stateCode":"05","latitude":35.63106,"longitude":5.91186},{"name":"Mers el Kebir","countryCode":"DZ","stateCode":"31","latitude":35.7279,"longitude":-0.7081},{"name":"Meskiana","countryCode":"DZ","stateCode":"04","latitude":35.63058,"longitude":7.66606},{"name":"Messaad","countryCode":"DZ","stateCode":"17","latitude":34.15429,"longitude":3.50309},{"name":"Metlili Chaamba","countryCode":"DZ","stateCode":"47","latitude":32.26667,"longitude":3.63333},{"name":"Mezaourou","countryCode":"DZ","stateCode":"22","latitude":34.8173267,"longitude":-0.6233189},{"name":"Mila","countryCode":"DZ","stateCode":"43","latitude":36.45028,"longitude":6.26444},{"name":"Moggar","countryCode":"DZ","stateCode":"22","latitude":33.26722222,"longitude":6.06777778},{"name":"Mostaganem","countryCode":"DZ","stateCode":"27","latitude":35.93115,"longitude":0.08918},{"name":"Moulay Slissen","countryCode":"DZ","stateCode":"22","latitude":34.81666667,"longitude":-0.76666667},{"name":"Mouzaïa","countryCode":"DZ","stateCode":"42","latitude":36.46695,"longitude":2.68991},{"name":"N'Goussa","countryCode":"DZ","stateCode":"22","latitude":32.1408797,"longitude":5.3082848},{"name":"Naama","countryCode":"DZ","stateCode":"45","latitude":33.26667,"longitude":-0.31667},{"name":"Naciria","countryCode":"DZ","stateCode":"35","latitude":36.74625,"longitude":3.83163},{"name":"Nedroma","countryCode":"DZ","stateCode":"13","latitude":35.01361,"longitude":-1.74799},{"name":"Oran","countryCode":"DZ","stateCode":"31","latitude":35.69906,"longitude":-0.63588},{"name":"Ouargla","countryCode":"DZ","stateCode":"22","latitude":31.95,"longitude":5.31666667},{"name":"Ouargla","countryCode":"DZ","stateCode":"30","latitude":31.94932,"longitude":5.32502},{"name":"Oued el Abtal","countryCode":"DZ","stateCode":"29","latitude":35.45595,"longitude":0.68778},{"name":"Oued el Alleug","countryCode":"DZ","stateCode":"42","latitude":36.55528,"longitude":2.79028},{"name":"Oued Fodda","countryCode":"DZ","stateCode":"02","latitude":36.18503,"longitude":1.53299},{"name":"Oued Rhiou","countryCode":"DZ","stateCode":"48","latitude":35.96124,"longitude":0.91896},{"name":"Oued Sly","countryCode":"DZ","stateCode":"02","latitude":36.10124,"longitude":1.19949},{"name":"Ouled Mimoun","countryCode":"DZ","stateCode":"13","latitude":34.90472,"longitude":-1.03394},{"name":"Ouled Moussa","countryCode":"DZ","stateCode":"35","latitude":36.68394,"longitude":3.36661},{"name":"Oum el Bouaghi","countryCode":"DZ","stateCode":"04","latitude":35.87541,"longitude":7.11353},{"name":"Oumache","countryCode":"DZ","stateCode":"07","latitude":34.69292,"longitude":5.68092},{"name":"Râs el Aïoun","countryCode":"DZ","stateCode":"05","latitude":35.67384,"longitude":5.6453},{"name":"Râs el Oued","countryCode":"DZ","stateCode":"34","latitude":35.9441,"longitude":5.03107},{"name":"Reggane","countryCode":"DZ","stateCode":"01","latitude":26.71576,"longitude":0.1714},{"name":"Reghaïa","countryCode":"DZ","stateCode":"35","latitude":36.73587,"longitude":3.34018},{"name":"Reguiba","countryCode":"DZ","stateCode":"39","latitude":33.56391,"longitude":6.70326},{"name":"Relizane","countryCode":"DZ","stateCode":"48","latitude":35.73734,"longitude":0.55599},{"name":"Remchi","countryCode":"DZ","stateCode":"13","latitude":35.06196,"longitude":-1.43362},{"name":"Robbah","countryCode":"DZ","stateCode":"39","latitude":33.27967,"longitude":6.90984},{"name":"Rouached","countryCode":"DZ","stateCode":"43","latitude":36.45774,"longitude":6.04267},{"name":"Rouiba","countryCode":"DZ","stateCode":"16","latitude":36.73829,"longitude":3.28079},{"name":"Rouissat","countryCode":"DZ","stateCode":"22","latitude":31.936576,"longitude":5.3354073},{"name":"Rouissat","countryCode":"DZ","stateCode":"30","latitude":31.92427,"longitude":5.35018},{"name":"Saïda","countryCode":"DZ","stateCode":"20","latitude":34.83033,"longitude":0.15171},{"name":"Salah Bey","countryCode":"DZ","stateCode":"19","latitude":35.85451,"longitude":5.29053},{"name":"Saoula","countryCode":"DZ","stateCode":"42","latitude":36.70456,"longitude":3.02462},{"name":"Sebdou","countryCode":"DZ","stateCode":"13","latitude":34.63703,"longitude":-1.33143},{"name":"Seddouk","countryCode":"DZ","stateCode":"06","latitude":36.54722,"longitude":4.68611},{"name":"Sedrata","countryCode":"DZ","stateCode":"41","latitude":36.12868,"longitude":7.53376},{"name":"Sétif","countryCode":"DZ","stateCode":"19","latitude":36.19112,"longitude":5.41373},{"name":"Sfissef","countryCode":"DZ","stateCode":"22","latitude":35.2344028,"longitude":-0.2434158},{"name":"Sidi Abdelli","countryCode":"DZ","stateCode":"13","latitude":35.06937,"longitude":-1.13706},{"name":"Sidi Aïssa","countryCode":"DZ","stateCode":"28","latitude":35.88548,"longitude":3.77236},{"name":"Sidi Akkacha","countryCode":"DZ","stateCode":"02","latitude":36.46472,"longitude":1.30258},{"name":"Sidi Ali Boussidi","countryCode":"DZ","stateCode":"22","latitude":35.1,"longitude":-0.83333333},{"name":"Sidi Amrane","countryCode":"DZ","stateCode":"22","latitude":33.5,"longitude":6.01666667},{"name":"Sidi Amrane","countryCode":"DZ","stateCode":"30","latitude":33.49885,"longitude":6.00803},{"name":"Sidi Bel Abbès","countryCode":"DZ","stateCode":"22","latitude":35.2,"longitude":-0.63333333},{"name":"Sidi Brahim","countryCode":"DZ","stateCode":"22","latitude":35.260556,"longitude":-0.5675},{"name":"Sidi ech Chahmi","countryCode":"DZ","stateCode":"31","latitude":35.65903,"longitude":-0.52168},{"name":"Sidi Hamadouche","countryCode":"DZ","stateCode":"22","latitude":35.29916667,"longitude":-0.54888889},{"name":"Sidi Khaled","countryCode":"DZ","stateCode":"07","latitude":34.387,"longitude":4.98785},{"name":"Sidi Mérouane","countryCode":"DZ","stateCode":"43","latitude":36.52056,"longitude":6.26111},{"name":"Sidi Moussa","countryCode":"DZ","stateCode":"09","latitude":36.60637,"longitude":3.08783},{"name":"Sidi Okba","countryCode":"DZ","stateCode":"07","latitude":34.74512,"longitude":5.89833},{"name":"Sidi Senoussi سيدي سنوسي","countryCode":"DZ","stateCode":"13","latitude":34.99691,"longitude":-1.09449},{"name":"Sidi Slimane","countryCode":"DZ","stateCode":"22","latitude":33.28861111,"longitude":6.09472222},{"name":"Sidi Yacoub","countryCode":"DZ","stateCode":"22","latitude":35.13333333,"longitude":-0.78333333},{"name":"Sidi Yahia","countryCode":"DZ","stateCode":"22","latitude":33.52166667,"longitude":5.94555556},{"name":"Sig","countryCode":"DZ","stateCode":"29","latitude":35.52832,"longitude":-0.19369},{"name":"Skikda","countryCode":"DZ","stateCode":"21","latitude":36.87617,"longitude":6.90921},{"name":"Smala","countryCode":"DZ","stateCode":"48","latitude":35.71652,"longitude":0.75437},{"name":"Sougueur","countryCode":"DZ","stateCode":"14","latitude":35.18568,"longitude":1.49612},{"name":"Souk Ahras","countryCode":"DZ","stateCode":"41","latitude":36.28639,"longitude":7.95111},{"name":"Souma","countryCode":"DZ","stateCode":"09","latitude":36.51833,"longitude":2.90528},{"name":"Sour el Ghozlane","countryCode":"DZ","stateCode":"10","latitude":36.14766,"longitude":3.69123},{"name":"Tabia, Sid Bel Abbés","countryCode":"DZ","stateCode":"22","latitude":35.0178366,"longitude":-0.7338524},{"name":"Tadmaït","countryCode":"DZ","stateCode":"35","latitude":36.74413,"longitude":3.90045},{"name":"Taibet","countryCode":"DZ","stateCode":"22","latitude":33.0839189,"longitude":6.3999653},{"name":"Tamalous","countryCode":"DZ","stateCode":"21","latitude":36.83763,"longitude":6.64018},{"name":"Tamanrasset","countryCode":"DZ","stateCode":"11","latitude":22.785,"longitude":5.52278},{"name":"Tamellaht","countryCode":"DZ","stateCode":"22","latitude":33.0119,"longitude":6.00972},{"name":"Tamerna Djedida","countryCode":"DZ","stateCode":"22","latitude":33.4464,"longitude":5.95639},{"name":"Tazoult-Lambese","countryCode":"DZ","stateCode":"05","latitude":35.48171,"longitude":6.26074},{"name":"Tebesbest","countryCode":"DZ","stateCode":"22","latitude":33.1200129,"longitude":6.0800743},{"name":"Tebesbest","countryCode":"DZ","stateCode":"30","latitude":33.11667,"longitude":6.08333},{"name":"Tébessa","countryCode":"DZ","stateCode":"12","latitude":35.40417,"longitude":8.12417},{"name":"Teghalimet","countryCode":"DZ","stateCode":"22","latitude":34.882833,"longitude":-0.5600023},{"name":"Telagh","countryCode":"DZ","stateCode":"22","latitude":34.7849064,"longitude":-0.5731773},{"name":"Telerghma","countryCode":"DZ","stateCode":"43","latitude":36.11653,"longitude":6.35434},{"name":"Tenezara","countryCode":"DZ","stateCode":"22","latitude":34.9634117,"longitude":-0.6144619},{"name":"Tenira","countryCode":"DZ","stateCode":"22","latitude":35.0196642,"longitude":-0.5320644},{"name":"Tessala","countryCode":"DZ","stateCode":"22","latitude":35.243,"longitude":-0.773163},{"name":"Thenia","countryCode":"DZ","stateCode":"35","latitude":36.72544,"longitude":3.55665},{"name":"Theniet el Had","countryCode":"DZ","stateCode":"44","latitude":35.87111,"longitude":2.02806},{"name":"Tiaret","countryCode":"DZ","stateCode":"14","latitude":35.37103,"longitude":1.31699},{"name":"Timimoun","countryCode":"DZ","stateCode":"01","latitude":29.26388,"longitude":0.23098},{"name":"Timizart","countryCode":"DZ","stateCode":"15","latitude":36.8,"longitude":4.26667},{"name":"Tindouf","countryCode":"DZ","stateCode":"37","latitude":27.67111,"longitude":-8.14743},{"name":"Tipasa","countryCode":"DZ","stateCode":"42","latitude":36.58972,"longitude":2.4475},{"name":"Tirmitine","countryCode":"DZ","stateCode":"15","latitude":36.65393,"longitude":3.98143},{"name":"Tissemsilt","countryCode":"DZ","stateCode":"38","latitude":35.60722,"longitude":1.81081},{"name":"Tizi Gheniff","countryCode":"DZ","stateCode":"35","latitude":36.58839,"longitude":3.77445},{"name":"Tizi Ouzou","countryCode":"DZ","stateCode":"15","latitude":36.71182,"longitude":4.04591},{"name":"Tizi Rached","countryCode":"DZ","stateCode":"15","latitude":36.67176,"longitude":4.19176},{"name":"Tizi-n-Tleta","countryCode":"DZ","stateCode":"15","latitude":36.54569,"longitude":4.05712},{"name":"Tlemcen","countryCode":"DZ","stateCode":"13","latitude":34.87833,"longitude":-1.315},{"name":"Tolga","countryCode":"DZ","stateCode":"07","latitude":34.72224,"longitude":5.37845},{"name":"Touggourt","countryCode":"DZ","stateCode":"22","latitude":33.1,"longitude":6.06666667},{"name":"Touggourt","countryCode":"DZ","stateCode":"30","latitude":33.10527,"longitude":6.05796},{"name":"Zemoura","countryCode":"DZ","stateCode":"48","latitude":35.72251,"longitude":0.75509},{"name":"Zeralda","countryCode":"DZ","stateCode":"42","latitude":36.71169,"longitude":2.84244},{"name":"Zeribet el Oued","countryCode":"DZ","stateCode":"07","latitude":34.68284,"longitude":6.51109},{"name":"Zerouala","countryCode":"DZ","stateCode":"22","latitude":35.2423245,"longitude":-0.5221939}]
