[{"name":"Adi Keyh","countryCode":"ER","stateCode":"DU","latitude":14.84444,"longitude":39.37722},{"name":"Ak’ordat","countryCode":"ER","stateCode":"GB","latitude":15.54798,"longitude":37.88291},{"name":"Asmara","countryCode":"ER","stateCode":"MA","latitude":15.33805,"longitude":38.93184},{"name":"Assab","countryCode":"ER","stateCode":"DK","latitude":13.00917,"longitude":42.73944},{"name":"Barentu","countryCode":"ER","stateCode":"GB","latitude":15.10582,"longitude":37.59067},{"name":"Dek’emhāre","countryCode":"ER","stateCode":"DU","latitude":15.07,"longitude":39.0475},{"name":"Edd","countryCode":"ER","stateCode":"DK","latitude":13.93088,"longitude":41.6938},{"name":"Keren","countryCode":"ER","stateCode":"AN","latitude":15.77792,"longitude":38.45107},{"name":"Massawa","countryCode":"ER","stateCode":"SK","latitude":15.60811,"longitude":39.47455},{"name":"Mendefera","countryCode":"ER","stateCode":"DU","latitude":14.88722,"longitude":38.81528},{"name":"Teseney","countryCode":"ER","stateCode":"GB","latitude":15.11,"longitude":36.6575}]
