[{"name":"Äänekoski","countryCode":"FI","stateCode":"08","latitude":62.6,"longitude":25.73333},{"name":"Ähtäri","countryCode":"FI","stateCode":"03","latitude":62.55403,"longitude":24.06186},{"name":"Alahärmä","countryCode":"FI","stateCode":"03","latitude":63.23333,"longitude":22.85},{"name":"Alajärvi","countryCode":"FI","stateCode":"03","latitude":63,"longitude":23.81667},{"name":"Alastaro","countryCode":"FI","stateCode":"19","latitude":60.95,"longitude":22.85},{"name":"Alavieska","countryCode":"FI","stateCode":"14","latitude":64.16667,"longitude":24.3},{"name":"Alavus","countryCode":"FI","stateCode":"03","latitude":62.58333,"longitude":23.61667},{"name":"Anjala","countryCode":"FI","stateCode":"09","latitude":60.68333,"longitude":26.83333},{"name":"Artjärvi","countryCode":"FI","stateCode":"16","latitude":60.74544,"longitude":26.07084},{"name":"Asikkala","countryCode":"FI","stateCode":"16","latitude":61.21667,"longitude":25.5},{"name":"Askainen","countryCode":"FI","stateCode":"19","latitude":60.56667,"longitude":21.86667},{"name":"Askola","countryCode":"FI","stateCode":"18","latitude":60.53333,"longitude":25.6},{"name":"Aura","countryCode":"FI","stateCode":"19","latitude":60.6471,"longitude":22.58755},{"name":"Auttoinen","countryCode":"FI","stateCode":"16","latitude":61.29901,"longitude":25.08887},{"name":"Dragsfjärd","countryCode":"FI","stateCode":"19","latitude":60.06667,"longitude":22.48333},{"name":"Ekenäs","countryCode":"FI","stateCode":"18","latitude":59.97359,"longitude":23.43389},{"name":"Elimäki","countryCode":"FI","stateCode":"09","latitude":60.71667,"longitude":26.46667},{"name":"Eno","countryCode":"FI","stateCode":"13","latitude":62.80511,"longitude":30.15422},{"name":"Enonkoski","countryCode":"FI","stateCode":"04","latitude":62.08333,"longitude":28.93333},{"name":"Enontekiö","countryCode":"FI","stateCode":"LL","latitude":68.38573,"longitude":23.63215},{"name":"Espoo","countryCode":"FI","stateCode":"18","latitude":60.2052,"longitude":24.6522},{"name":"Eura","countryCode":"FI","stateCode":"17","latitude":61.13333,"longitude":22.13333},{"name":"Eurajoki","countryCode":"FI","stateCode":"17","latitude":61.2,"longitude":21.73333},{"name":"Evijärvi","countryCode":"FI","stateCode":"03","latitude":63.36667,"longitude":23.48333},{"name":"Forssa","countryCode":"FI","stateCode":"06","latitude":60.81462,"longitude":23.62146},{"name":"Gumböle","countryCode":"FI","stateCode":"18","latitude":60.21948,"longitude":24.61684},{"name":"Haapajärvi","countryCode":"FI","stateCode":"14","latitude":63.75,"longitude":25.33333},{"name":"Haapavesi","countryCode":"FI","stateCode":"14","latitude":64.13333,"longitude":25.36667},{"name":"Hailuoto","countryCode":"FI","stateCode":"14","latitude":65.009,"longitude":24.71385},{"name":"Halikko","countryCode":"FI","stateCode":"19","latitude":60.4,"longitude":23.08333},{"name":"Halsua","countryCode":"FI","stateCode":"07","latitude":63.46667,"longitude":24.16667},{"name":"Hämeenkoski","countryCode":"FI","stateCode":"16","latitude":61.02222,"longitude":25.15417},{"name":"Hämeenlinna","countryCode":"FI","stateCode":"06","latitude":60.99596,"longitude":24.46434},{"name":"Hamina","countryCode":"FI","stateCode":"09","latitude":60.56974,"longitude":27.19794},{"name":"Hankasalmi","countryCode":"FI","stateCode":"08","latitude":62.38333,"longitude":26.43333},{"name":"Hanko","countryCode":"FI","stateCode":"18","latitude":59.83333,"longitude":22.95},{"name":"Harjavalta","countryCode":"FI","stateCode":"17","latitude":61.31667,"longitude":22.13333},{"name":"Hartola","countryCode":"FI","stateCode":"16","latitude":61.58333,"longitude":26.01667},{"name":"Hauho","countryCode":"FI","stateCode":"06","latitude":61.17255,"longitude":24.56303},{"name":"Haukipudas","countryCode":"FI","stateCode":"14","latitude":65.17654,"longitude":25.35233},{"name":"Haukivuori","countryCode":"FI","stateCode":"04","latitude":62.01753,"longitude":27.21906},{"name":"Hausjärvi","countryCode":"FI","stateCode":"06","latitude":60.78333,"longitude":24.93333},{"name":"Heinävesi","countryCode":"FI","stateCode":"04","latitude":62.43333,"longitude":28.6},{"name":"Heinola","countryCode":"FI","stateCode":"16","latitude":61.20564,"longitude":26.03811},{"name":"Helsinki","countryCode":"FI","stateCode":"18","latitude":60.16952,"longitude":24.93545},{"name":"Hietalahti","countryCode":"FI","stateCode":"12","latitude":63.0848,"longitude":21.61716},{"name":"Himanka","countryCode":"FI","stateCode":"14","latitude":64.06218,"longitude":23.65447},{"name":"Hirvensalmi","countryCode":"FI","stateCode":"04","latitude":61.63333,"longitude":26.8},{"name":"Hollola","countryCode":"FI","stateCode":"16","latitude":61.05,"longitude":25.43333},{"name":"Houtskär","countryCode":"FI","stateCode":"19","latitude":60.22284,"longitude":21.37218},{"name":"Huittinen","countryCode":"FI","stateCode":"17","latitude":61.18333,"longitude":22.7},{"name":"Humppila","countryCode":"FI","stateCode":"06","latitude":60.93333,"longitude":23.36667},{"name":"Hyrynsalmi","countryCode":"FI","stateCode":"05","latitude":64.66667,"longitude":28.53333},{"name":"Hyvinge","countryCode":"FI","stateCode":"18","latitude":60.63333,"longitude":24.86667},{"name":"Ii","countryCode":"FI","stateCode":"14","latitude":65.31735,"longitude":25.3731},{"name":"Iisalmi","countryCode":"FI","stateCode":"11","latitude":63.55915,"longitude":27.19067},{"name":"Iitti","countryCode":"FI","stateCode":"09","latitude":60.89488,"longitude":26.33869},{"name":"Ilmajoki","countryCode":"FI","stateCode":"03","latitude":62.73333,"longitude":22.56667},{"name":"Ilomantsi","countryCode":"FI","stateCode":"13","latitude":62.67162,"longitude":30.93276},{"name":"Imatra","countryCode":"FI","stateCode":"02","latitude":61.17185,"longitude":28.75242},{"name":"Inari","countryCode":"FI","stateCode":"LL","latitude":68.90596,"longitude":27.02881},{"name":"Ingå","countryCode":"FI","stateCode":"18","latitude":60.04587,"longitude":24.00459},{"name":"Iniö","countryCode":"FI","stateCode":"19","latitude":60.4,"longitude":21.4},{"name":"Isojoki","countryCode":"FI","stateCode":"03","latitude":62.11319,"longitude":21.95884},{"name":"Isokyrö","countryCode":"FI","stateCode":"12","latitude":63.01172,"longitude":22.33332},{"name":"Ivalo","countryCode":"FI","stateCode":"LL","latitude":68.65986,"longitude":27.53891},{"name":"Jaala","countryCode":"FI","stateCode":"09","latitude":61.05251,"longitude":26.48117},{"name":"Jakobstad","countryCode":"FI","stateCode":"12","latitude":63.67486,"longitude":22.70256},{"name":"Jalasjärvi","countryCode":"FI","stateCode":"03","latitude":62.5,"longitude":22.75},{"name":"Jämijärvi","countryCode":"FI","stateCode":"17","latitude":61.81667,"longitude":22.7},{"name":"Jämsä","countryCode":"FI","stateCode":"08","latitude":61.8642,"longitude":25.19002},{"name":"Jämsänkoski","countryCode":"FI","stateCode":"08","latitude":61.919,"longitude":25.17011},{"name":"Janakkala","countryCode":"FI","stateCode":"06","latitude":60.9,"longitude":24.6},{"name":"Jäppilä","countryCode":"FI","stateCode":"04","latitude":62.37899,"longitude":27.43372},{"name":"Järvenpää","countryCode":"FI","stateCode":"18","latitude":60.47369,"longitude":25.08992},{"name":"Joensuu","countryCode":"FI","stateCode":"13","latitude":62.60118,"longitude":29.76316},{"name":"Jokioinen","countryCode":"FI","stateCode":"06","latitude":60.80162,"longitude":23.48004},{"name":"Joroinen","countryCode":"FI","stateCode":"04","latitude":62.17823,"longitude":27.83165},{"name":"Joutsa","countryCode":"FI","stateCode":"08","latitude":61.73333,"longitude":26.11667},{"name":"Joutseno","countryCode":"FI","stateCode":"02","latitude":61.11796,"longitude":28.50763},{"name":"Juankoski","countryCode":"FI","stateCode":"11","latitude":63.06667,"longitude":28.35},{"name":"Jurva","countryCode":"FI","stateCode":"03","latitude":62.68333,"longitude":21.98333},{"name":"Juuka","countryCode":"FI","stateCode":"13","latitude":63.23333,"longitude":29.25},{"name":"Juva","countryCode":"FI","stateCode":"04","latitude":61.9,"longitude":27.85},{"name":"Jyväskylä","countryCode":"FI","stateCode":"08","latitude":62.24147,"longitude":25.72088},{"name":"Kaarela","countryCode":"FI","stateCode":"18","latitude":60.25174,"longitude":24.88111},{"name":"Kaarina","countryCode":"FI","stateCode":"19","latitude":60.40724,"longitude":22.36904},{"name":"Kaavi","countryCode":"FI","stateCode":"11","latitude":62.98333,"longitude":28.5},{"name":"Kajaani","countryCode":"FI","stateCode":"05","latitude":64.22728,"longitude":27.72846},{"name":"Kalajoki","countryCode":"FI","stateCode":"14","latitude":64.25,"longitude":23.95},{"name":"Kallio","countryCode":"FI","stateCode":"18","latitude":60.18427,"longitude":24.95034},{"name":"Kälviä","countryCode":"FI","stateCode":"07","latitude":63.86067,"longitude":23.45289},{"name":"Kalvola","countryCode":"FI","stateCode":"06","latitude":61.10081,"longitude":24.12177},{"name":"Kangaslampi","countryCode":"FI","stateCode":"11","latitude":62.29563,"longitude":28.25289},{"name":"Kangasniemi","countryCode":"FI","stateCode":"04","latitude":61.99357,"longitude":26.64785},{"name":"Kankaanpää","countryCode":"FI","stateCode":"17","latitude":61.8,"longitude":22.41667},{"name":"Kannonkoski","countryCode":"FI","stateCode":"08","latitude":62.96667,"longitude":25.25},{"name":"Kannus","countryCode":"FI","stateCode":"07","latitude":63.9,"longitude":23.9},{"name":"Karhula","countryCode":"FI","stateCode":"09","latitude":60.52156,"longitude":26.93125},{"name":"Karijoki","countryCode":"FI","stateCode":"03","latitude":62.30851,"longitude":21.70856},{"name":"Karinainen","countryCode":"FI","stateCode":"19","latitude":60.66667,"longitude":22.76667},{"name":"Karis","countryCode":"FI","stateCode":"18","latitude":60.07178,"longitude":23.66163},{"name":"Karjalohja","countryCode":"FI","stateCode":"18","latitude":60.24015,"longitude":23.71789},{"name":"Karkkila","countryCode":"FI","stateCode":"18","latitude":60.53418,"longitude":24.20977},{"name":"Kärkölä","countryCode":"FI","stateCode":"18","latitude":60.61292,"longitude":23.94196},{"name":"Kärsämäki","countryCode":"FI","stateCode":"14","latitude":63.96667,"longitude":25.76667},{"name":"Karstula","countryCode":"FI","stateCode":"08","latitude":62.86667,"longitude":24.78333},{"name":"Karttula","countryCode":"FI","stateCode":"11","latitude":62.8963,"longitude":26.97045},{"name":"Karvia","countryCode":"FI","stateCode":"17","latitude":62.13333,"longitude":22.56667},{"name":"Kaskinen","countryCode":"FI","stateCode":"12","latitude":62.38444,"longitude":21.22331},{"name":"Kauhajoki","countryCode":"FI","stateCode":"03","latitude":62.43333,"longitude":22.18333},{"name":"Kauhava","countryCode":"FI","stateCode":"03","latitude":63.10299,"longitude":23.07129},{"name":"Kauniainen","countryCode":"FI","stateCode":"18","latitude":60.21209,"longitude":24.72756},{"name":"Kaustinen","countryCode":"FI","stateCode":"07","latitude":63.54878,"longitude":23.68845},{"name":"Keitele","countryCode":"FI","stateCode":"11","latitude":63.18333,"longitude":26.36667},{"name":"Kellokoski","countryCode":"FI","stateCode":"18","latitude":60.53271,"longitude":25.10917},{"name":"Kemi","countryCode":"FI","stateCode":"LL","latitude":65.73641,"longitude":24.56371},{"name":"Kemijärvi","countryCode":"FI","stateCode":"LL","latitude":66.71309,"longitude":27.43056},{"name":"Keminmaa","countryCode":"FI","stateCode":"LL","latitude":65.80158,"longitude":24.54483},{"name":"Kempele","countryCode":"FI","stateCode":"14","latitude":64.91314,"longitude":25.50339},{"name":"Kerava","countryCode":"FI","stateCode":"18","latitude":60.40338,"longitude":25.105},{"name":"Kerimäki","countryCode":"FI","stateCode":"04","latitude":61.91069,"longitude":29.28228},{"name":"Kesälahti","countryCode":"FI","stateCode":"13","latitude":61.89752,"longitude":29.83494},{"name":"Kestilä","countryCode":"FI","stateCode":"14","latitude":64.35002,"longitude":26.27921},{"name":"Keuruu","countryCode":"FI","stateCode":"08","latitude":62.26667,"longitude":24.7},{"name":"Kiihtelysvaara","countryCode":"FI","stateCode":"13","latitude":62.49525,"longitude":30.25081},{"name":"Kiikala","countryCode":"FI","stateCode":"19","latitude":60.46667,"longitude":23.56667},{"name":"Kiiminki","countryCode":"FI","stateCode":"14","latitude":65.13139,"longitude":25.79744},{"name":"Kilo","countryCode":"FI","stateCode":"18","latitude":60.21746,"longitude":24.78151},{"name":"Kimito","countryCode":"FI","stateCode":"19","latitude":60.16047,"longitude":22.729},{"name":"Kinnula","countryCode":"FI","stateCode":"08","latitude":63.38333,"longitude":24.95},{"name":"Kirkkonummi","countryCode":"FI","stateCode":"18","latitude":60.12381,"longitude":24.43853},{"name":"Kisko","countryCode":"FI","stateCode":"19","latitude":60.23333,"longitude":23.48333},{"name":"Kitee","countryCode":"FI","stateCode":"13","latitude":62.1,"longitude":30.15},{"name":"Kittilä","countryCode":"FI","stateCode":"LL","latitude":67.66474,"longitude":24.89356},{"name":"Kiukainen","countryCode":"FI","stateCode":"17","latitude":61.21667,"longitude":22.08333},{"name":"Kiuruvesi","countryCode":"FI","stateCode":"11","latitude":63.65,"longitude":26.61667},{"name":"Kivijärvi","countryCode":"FI","stateCode":"08","latitude":63.11984,"longitude":25.07835},{"name":"Kokemäki","countryCode":"FI","stateCode":"17","latitude":61.25647,"longitude":22.35643},{"name":"Kokkola","countryCode":"FI","stateCode":"07","latitude":63.85414,"longitude":23.58562},{"name":"Kolari","countryCode":"FI","stateCode":"LL","latitude":67.33047,"longitude":23.77785},{"name":"Konnevesi","countryCode":"FI","stateCode":"08","latitude":62.61667,"longitude":26.31667},{"name":"Kontiolahti","countryCode":"FI","stateCode":"13","latitude":62.76023,"longitude":29.84711},{"name":"Korpilahti","countryCode":"FI","stateCode":"08","latitude":62.01667,"longitude":25.55},{"name":"Korsholm","countryCode":"FI","stateCode":"12","latitude":63.11418,"longitude":21.68216},{"name":"Korsnäs","countryCode":"FI","stateCode":"12","latitude":62.78333,"longitude":21.2},{"name":"Kortesjärvi","countryCode":"FI","stateCode":"03","latitude":63.3,"longitude":23.16667},{"name":"Kotka","countryCode":"FI","stateCode":"09","latitude":60.4664,"longitude":26.94582},{"name":"Koukkuniemi","countryCode":"FI","stateCode":"18","latitude":60.15261,"longitude":24.76467},{"name":"Kouvola","countryCode":"FI","stateCode":"09","latitude":60.86667,"longitude":26.7},{"name":"Köyliö","countryCode":"FI","stateCode":"17","latitude":61.1191,"longitude":22.30976},{"name":"Kristinestad","countryCode":"FI","stateCode":"12","latitude":62.27429,"longitude":21.37596},{"name":"Kronoby","countryCode":"FI","stateCode":"12","latitude":63.72859,"longitude":23.03387},{"name":"Kuhmo","countryCode":"FI","stateCode":"05","latitude":64.13333,"longitude":29.51667},{"name":"Kuhmoinen","countryCode":"FI","stateCode":"08","latitude":61.56667,"longitude":25.18333},{"name":"Kuivaniemi","countryCode":"FI","stateCode":"14","latitude":65.57847,"longitude":25.18814},{"name":"Kullaa","countryCode":"FI","stateCode":"17","latitude":61.46998,"longitude":22.16145},{"name":"Kuopio","countryCode":"FI","stateCode":"11","latitude":62.89238,"longitude":27.67703},{"name":"Kuortane","countryCode":"FI","stateCode":"03","latitude":62.8,"longitude":23.5},{"name":"Kurikka","countryCode":"FI","stateCode":"03","latitude":62.61667,"longitude":22.41667},{"name":"Kustavi","countryCode":"FI","stateCode":"19","latitude":60.54529,"longitude":21.3588},{"name":"Kuusamo","countryCode":"FI","stateCode":"14","latitude":65.96667,"longitude":29.18333},{"name":"Kuusjoki","countryCode":"FI","stateCode":"19","latitude":60.51667,"longitude":23.2},{"name":"Kyyjärvi","countryCode":"FI","stateCode":"08","latitude":63.03333,"longitude":24.56667},{"name":"Lahti","countryCode":"FI","stateCode":"16","latitude":60.98267,"longitude":25.66151},{"name":"Laihia","countryCode":"FI","stateCode":"12","latitude":62.97609,"longitude":22.01143},{"name":"Laitila","countryCode":"FI","stateCode":"19","latitude":60.87575,"longitude":21.69765},{"name":"Lammi","countryCode":"FI","stateCode":"06","latitude":61.08333,"longitude":25.01667},{"name":"Längelmäki","countryCode":"FI","stateCode":"17","latitude":61.65,"longitude":22.1},{"name":"Lapinjärvi","countryCode":"FI","stateCode":"18","latitude":60.62443,"longitude":26.1972},{"name":"Lapinlahti","countryCode":"FI","stateCode":"11","latitude":63.36667,"longitude":27.4},{"name":"Lappajärvi","countryCode":"FI","stateCode":"03","latitude":63.2,"longitude":23.63333},{"name":"Lappeenranta","countryCode":"FI","stateCode":"02","latitude":61.05871,"longitude":28.18871},{"name":"Lappi","countryCode":"FI","stateCode":"17","latitude":61.1,"longitude":21.83333},{"name":"Lapua","countryCode":"FI","stateCode":"03","latitude":62.96927,"longitude":23.0088},{"name":"Larsmo","countryCode":"FI","stateCode":"12","latitude":63.75388,"longitude":22.74728},{"name":"Laukaa","countryCode":"FI","stateCode":"08","latitude":62.41407,"longitude":25.95194},{"name":"Lauttasaari","countryCode":"FI","stateCode":"18","latitude":60.15896,"longitude":24.86797},{"name":"Lavia","countryCode":"FI","stateCode":"17","latitude":61.6,"longitude":22.6},{"name":"Lehtimäki","countryCode":"FI","stateCode":"03","latitude":62.78333,"longitude":23.91667},{"name":"Leivonmäki","countryCode":"FI","stateCode":"08","latitude":61.91198,"longitude":26.12796},{"name":"Lemi","countryCode":"FI","stateCode":"02","latitude":61.06244,"longitude":27.80571},{"name":"Lemu","countryCode":"FI","stateCode":"19","latitude":60.56667,"longitude":21.96667},{"name":"Leppävirta","countryCode":"FI","stateCode":"11","latitude":62.49009,"longitude":27.78262},{"name":"Lestijärvi","countryCode":"FI","stateCode":"07","latitude":63.53333,"longitude":24.65},{"name":"Lieksa","countryCode":"FI","stateCode":"13","latitude":63.31667,"longitude":30.01667},{"name":"Lieto","countryCode":"FI","stateCode":"19","latitude":60.51032,"longitude":22.46176},{"name":"Liljendal","countryCode":"FI","stateCode":"18","latitude":60.57346,"longitude":26.05257},{"name":"Liminka","countryCode":"FI","stateCode":"14","latitude":64.80985,"longitude":25.41545},{"name":"Liperi","countryCode":"FI","stateCode":"13","latitude":62.53333,"longitude":29.36667},{"name":"Lohja","countryCode":"FI","stateCode":"18","latitude":60.24859,"longitude":24.06534},{"name":"Lohtaja","countryCode":"FI","stateCode":"07","latitude":64.02472,"longitude":23.50482},{"name":"Loppi","countryCode":"FI","stateCode":"06","latitude":60.71667,"longitude":24.45},{"name":"Lovisa","countryCode":"FI","stateCode":"18","latitude":60.45659,"longitude":26.22505},{"name":"Luhanka","countryCode":"FI","stateCode":"08","latitude":61.79682,"longitude":25.70457},{"name":"Lumijoki","countryCode":"FI","stateCode":"14","latitude":64.83744,"longitude":25.18607},{"name":"Luumäki","countryCode":"FI","stateCode":"02","latitude":60.92618,"longitude":27.58135},{"name":"Luvia","countryCode":"FI","stateCode":"17","latitude":61.36375,"longitude":21.62556},{"name":"Maaninka","countryCode":"FI","stateCode":"11","latitude":63.15523,"longitude":27.29939},{"name":"Malax","countryCode":"FI","stateCode":"12","latitude":62.94225,"longitude":21.57311},{"name":"Mäntsälä","countryCode":"FI","stateCode":"18","latitude":60.63333,"longitude":25.31667},{"name":"Mäntyharju","countryCode":"FI","stateCode":"04","latitude":61.41667,"longitude":26.88333},{"name":"Marttila","countryCode":"FI","stateCode":"19","latitude":60.58333,"longitude":22.9},{"name":"Masku","countryCode":"FI","stateCode":"19","latitude":60.57082,"longitude":22.09883},{"name":"Mellilä","countryCode":"FI","stateCode":"19","latitude":60.76667,"longitude":22.95},{"name":"Mellunkylä","countryCode":"FI","stateCode":"18","latitude":60.23355,"longitude":25.09947},{"name":"Merijärvi","countryCode":"FI","stateCode":"14","latitude":64.3,"longitude":24.45},{"name":"Merikarvia","countryCode":"FI","stateCode":"17","latitude":61.85839,"longitude":21.50035},{"name":"Merimasku","countryCode":"FI","stateCode":"19","latitude":60.48333,"longitude":21.86667},{"name":"Miehikkälä","countryCode":"FI","stateCode":"09","latitude":60.66667,"longitude":27.7},{"name":"Mietoinen","countryCode":"FI","stateCode":"19","latitude":60.63333,"longitude":21.93333},{"name":"Mikkeli","countryCode":"FI","stateCode":"04","latitude":61.68857,"longitude":27.27227},{"name":"Muhos","countryCode":"FI","stateCode":"14","latitude":64.80798,"longitude":25.99314},{"name":"Multia","countryCode":"FI","stateCode":"08","latitude":62.41667,"longitude":24.78333},{"name":"Munkkiniemi","countryCode":"FI","stateCode":"18","latitude":60.19861,"longitude":24.87772},{"name":"Muonio","countryCode":"FI","stateCode":"LL","latitude":67.95,"longitude":23.7},{"name":"Muurame","countryCode":"FI","stateCode":"08","latitude":62.13333,"longitude":25.66667},{"name":"Muurla","countryCode":"FI","stateCode":"19","latitude":60.35,"longitude":23.28333},{"name":"Mynämäki","countryCode":"FI","stateCode":"19","latitude":60.67915,"longitude":21.99274},{"name":"Myrskylä","countryCode":"FI","stateCode":"18","latitude":60.66965,"longitude":25.8475},{"name":"Naantali","countryCode":"FI","stateCode":"19","latitude":60.46744,"longitude":22.02428},{"name":"Nagu","countryCode":"FI","stateCode":"19","latitude":60.19375,"longitude":21.90972},{"name":"Nakkila","countryCode":"FI","stateCode":"17","latitude":61.36667,"longitude":22},{"name":"Nastola","countryCode":"FI","stateCode":"16","latitude":60.95,"longitude":25.93333},{"name":"Nilsiä","countryCode":"FI","stateCode":"11","latitude":63.20746,"longitude":28.08222},{"name":"Nivala","countryCode":"FI","stateCode":"14","latitude":63.91667,"longitude":24.96667},{"name":"Noormarkku","countryCode":"FI","stateCode":"17","latitude":61.59274,"longitude":21.86846},{"name":"Nousiainen","countryCode":"FI","stateCode":"19","latitude":60.60416,"longitude":22.07926},{"name":"Nuijamaa","countryCode":"FI","stateCode":"02","latitude":60.96011,"longitude":28.55104},{"name":"Nurmes","countryCode":"FI","stateCode":"13","latitude":63.54205,"longitude":29.13965},{"name":"Nurmijärvi","countryCode":"FI","stateCode":"18","latitude":60.46407,"longitude":24.8073},{"name":"Nurmo","countryCode":"FI","stateCode":"03","latitude":62.8287,"longitude":22.9099},{"name":"Nykarleby","countryCode":"FI","stateCode":"12","latitude":63.52277,"longitude":22.53073},{"name":"Oravais","countryCode":"FI","stateCode":"12","latitude":63.30135,"longitude":22.37821},{"name":"Orimattila","countryCode":"FI","stateCode":"16","latitude":60.80487,"longitude":25.72964},{"name":"Oripää","countryCode":"FI","stateCode":"19","latitude":60.85,"longitude":22.68333},{"name":"Otaniemi","countryCode":"FI","stateCode":"18","latitude":60.18395,"longitude":24.82786},{"name":"Oulainen","countryCode":"FI","stateCode":"14","latitude":64.26667,"longitude":24.8},{"name":"Oulu","countryCode":"FI","stateCode":"14","latitude":65.01236,"longitude":25.46816},{"name":"Oulunsalo","countryCode":"FI","stateCode":"14","latitude":64.93456,"longitude":25.41121},{"name":"Outokumpu","countryCode":"FI","stateCode":"13","latitude":62.72685,"longitude":29.01592},{"name":"Padasjoki","countryCode":"FI","stateCode":"16","latitude":61.35,"longitude":25.28333},{"name":"Paimio","countryCode":"FI","stateCode":"19","latitude":60.45671,"longitude":22.68694},{"name":"Paltamo","countryCode":"FI","stateCode":"05","latitude":64.41667,"longitude":27.83333},{"name":"Pargas","countryCode":"FI","stateCode":"19","latitude":60.30672,"longitude":22.30097},{"name":"Parikkala","countryCode":"FI","stateCode":"02","latitude":61.55,"longitude":29.5},{"name":"Pedersöre","countryCode":"FI","stateCode":"12","latitude":63.65,"longitude":22.68333},{"name":"Pelkosenniemi","countryCode":"FI","stateCode":"LL","latitude":67.11083,"longitude":27.51056},{"name":"Pello","countryCode":"FI","stateCode":"LL","latitude":66.77364,"longitude":23.96255},{"name":"Perho","countryCode":"FI","stateCode":"07","latitude":63.21667,"longitude":24.41667},{"name":"Pernå","countryCode":"FI","stateCode":"18","latitude":60.44869,"longitude":26.03187},{"name":"Perniö","countryCode":"FI","stateCode":"19","latitude":60.2,"longitude":23.13333},{"name":"Pertteli","countryCode":"FI","stateCode":"19","latitude":60.43333,"longitude":23.26667},{"name":"Pertunmaa","countryCode":"FI","stateCode":"04","latitude":61.5,"longitude":26.48333},{"name":"Petäjävesi","countryCode":"FI","stateCode":"08","latitude":62.25,"longitude":25.2},{"name":"Pieksämäki","countryCode":"FI","stateCode":"04","latitude":62.3,"longitude":27.13333},{"name":"Pielavesi","countryCode":"FI","stateCode":"11","latitude":63.23333,"longitude":26.75},{"name":"Pihtipudas","countryCode":"FI","stateCode":"08","latitude":63.38333,"longitude":25.56667},{"name":"Piikkiö","countryCode":"FI","stateCode":"19","latitude":60.42481,"longitude":22.51601},{"name":"Piippola","countryCode":"FI","stateCode":"14","latitude":64.16667,"longitude":25.96667},{"name":"Pohja","countryCode":"FI","stateCode":"18","latitude":60.09626,"longitude":23.52757},{"name":"Polvijärvi","countryCode":"FI","stateCode":"13","latitude":62.85,"longitude":29.36667},{"name":"Pomarkku","countryCode":"FI","stateCode":"17","latitude":61.69348,"longitude":22.00862},{"name":"Pori","countryCode":"FI","stateCode":"17","latitude":61.48333,"longitude":21.78333},{"name":"Pornainen","countryCode":"FI","stateCode":"18","latitude":60.47581,"longitude":25.3749},{"name":"Porvoo","countryCode":"FI","stateCode":"18","latitude":60.39233,"longitude":25.66507},{"name":"Posio","countryCode":"FI","stateCode":"LL","latitude":66.10856,"longitude":28.17186},{"name":"Pöytyä","countryCode":"FI","stateCode":"19","latitude":60.76667,"longitude":22.66667},{"name":"Pudasjärvi","countryCode":"FI","stateCode":"14","latitude":65.38333,"longitude":26.91667},{"name":"Pukkila","countryCode":"FI","stateCode":"18","latitude":60.65,"longitude":25.56667},{"name":"Pulkkila","countryCode":"FI","stateCode":"14","latitude":64.26667,"longitude":25.86667},{"name":"Punkaharju","countryCode":"FI","stateCode":"04","latitude":61.75883,"longitude":29.38843},{"name":"Puolanka","countryCode":"FI","stateCode":"05","latitude":64.86667,"longitude":27.66667},{"name":"Puumala","countryCode":"FI","stateCode":"04","latitude":61.52728,"longitude":28.17495},{"name":"Pyhäjärvi","countryCode":"FI","stateCode":"14","latitude":63.66667,"longitude":25.9},{"name":"Pyhäjärvi","countryCode":"FI","stateCode":"LL","latitude":67.0701,"longitude":27.21763},{"name":"Pyhäjoki","countryCode":"FI","stateCode":"14","latitude":64.46667,"longitude":24.23333},{"name":"Pyhäntä","countryCode":"FI","stateCode":"14","latitude":64.1,"longitude":26.31667},{"name":"Pyhäranta","countryCode":"FI","stateCode":"19","latitude":60.95,"longitude":21.45},{"name":"Pyhäselkä","countryCode":"FI","stateCode":"13","latitude":62.43333,"longitude":29.96667},{"name":"Pyhtää","countryCode":"FI","stateCode":"09","latitude":60.49349,"longitude":26.54346},{"name":"Pylkönmäki","countryCode":"FI","stateCode":"08","latitude":62.66667,"longitude":24.8},{"name":"Raahe","countryCode":"FI","stateCode":"14","latitude":64.68333,"longitude":24.48333},{"name":"Rääkkylä","countryCode":"FI","stateCode":"13","latitude":62.31667,"longitude":29.61667},{"name":"Raaseporin","countryCode":"FI","stateCode":"18","latitude":60.00273,"longitude":23.55499},{"name":"Raisio","countryCode":"FI","stateCode":"19","latitude":60.48592,"longitude":22.16895},{"name":"Rantasalmi","countryCode":"FI","stateCode":"04","latitude":62.06667,"longitude":28.3},{"name":"Rantsila","countryCode":"FI","stateCode":"14","latitude":64.50613,"longitude":25.66449},{"name":"Ranua","countryCode":"FI","stateCode":"LL","latitude":65.91667,"longitude":26.53333},{"name":"Rauma","countryCode":"FI","stateCode":"17","latitude":61.12724,"longitude":21.51127},{"name":"Rautalampi","countryCode":"FI","stateCode":"11","latitude":62.63333,"longitude":26.83333},{"name":"Rautavaara","countryCode":"FI","stateCode":"11","latitude":63.48333,"longitude":28.3},{"name":"Rautjärvi","countryCode":"FI","stateCode":"02","latitude":61.43333,"longitude":29.35},{"name":"Reisjärvi","countryCode":"FI","stateCode":"14","latitude":63.61667,"longitude":24.9},{"name":"Renko","countryCode":"FI","stateCode":"06","latitude":60.89563,"longitude":24.28785},{"name":"Replot","countryCode":"FI","stateCode":"12","latitude":63.22882,"longitude":21.41691},{"name":"Riihimäki","countryCode":"FI","stateCode":"06","latitude":60.73769,"longitude":24.77726},{"name":"Ristiina","countryCode":"FI","stateCode":"04","latitude":61.50579,"longitude":27.24643},{"name":"Ristijärvi","countryCode":"FI","stateCode":"05","latitude":64.5,"longitude":28.21667},{"name":"Ristinummi","countryCode":"FI","stateCode":"12","latitude":63.09192,"longitude":21.72297},{"name":"Rovaniemi","countryCode":"FI","stateCode":"LL","latitude":66.5,"longitude":25.71667},{"name":"Ruokolahti","countryCode":"FI","stateCode":"02","latitude":61.28333,"longitude":28.83333},{"name":"Ruotsinpyhtää","countryCode":"FI","stateCode":"18","latitude":60.5268,"longitude":26.46203},{"name":"Rusko","countryCode":"FI","stateCode":"19","latitude":60.53333,"longitude":22.21667},{"name":"Ruukki","countryCode":"FI","stateCode":"14","latitude":64.66667,"longitude":25.1},{"name":"Rymättylä","countryCode":"FI","stateCode":"19","latitude":60.37658,"longitude":21.94184},{"name":"Saari","countryCode":"FI","stateCode":"02","latitude":61.65,"longitude":29.75},{"name":"Saarijärvi","countryCode":"FI","stateCode":"08","latitude":62.70486,"longitude":25.25396},{"name":"Säkylä","countryCode":"FI","stateCode":"17","latitude":61.03333,"longitude":22.33333},{"name":"Salla","countryCode":"FI","stateCode":"LL","latitude":66.83333,"longitude":28.66667},{"name":"Salo","countryCode":"FI","stateCode":"19","latitude":60.38333,"longitude":23.13333},{"name":"Sammatti","countryCode":"FI","stateCode":"18","latitude":60.31991,"longitude":23.82085},{"name":"Särkisalo","countryCode":"FI","stateCode":"19","latitude":60.11389,"longitude":22.95},{"name":"Sauvo","countryCode":"FI","stateCode":"19","latitude":60.34306,"longitude":22.69642},{"name":"Savitaipale","countryCode":"FI","stateCode":"02","latitude":61.2,"longitude":27.7},{"name":"Savonlinna","countryCode":"FI","stateCode":"04","latitude":61.8699,"longitude":28.87999},{"name":"Savonranta","countryCode":"FI","stateCode":"04","latitude":62.18333,"longitude":29.2},{"name":"Savukoski","countryCode":"FI","stateCode":"LL","latitude":67.2925,"longitude":28.15806},{"name":"Säynätsalo","countryCode":"FI","stateCode":"08","latitude":62.14025,"longitude":25.76948},{"name":"Seinäjoki","countryCode":"FI","stateCode":"03","latitude":62.79446,"longitude":22.82822},{"name":"Sibbo","countryCode":"FI","stateCode":"18","latitude":60.37752,"longitude":25.26906},{"name":"Sievi","countryCode":"FI","stateCode":"14","latitude":63.9,"longitude":24.5},{"name":"Siikainen","countryCode":"FI","stateCode":"17","latitude":61.87703,"longitude":21.81945},{"name":"Siikajoki","countryCode":"FI","stateCode":"14","latitude":64.81455,"longitude":24.75924},{"name":"Siilinjärvi","countryCode":"FI","stateCode":"11","latitude":63.08333,"longitude":27.66667},{"name":"Simo","countryCode":"FI","stateCode":"LL","latitude":65.66667,"longitude":25.05},{"name":"Siuntio","countryCode":"FI","stateCode":"18","latitude":60.13862,"longitude":24.22715},{"name":"Sodankylä","countryCode":"FI","stateCode":"LL","latitude":67.41667,"longitude":26.6},{"name":"Soini","countryCode":"FI","stateCode":"03","latitude":62.86667,"longitude":24.21667},{"name":"Somero","countryCode":"FI","stateCode":"19","latitude":60.61667,"longitude":23.53333},{"name":"Sonkajärvi","countryCode":"FI","stateCode":"11","latitude":63.66667,"longitude":27.51667},{"name":"Sotkamo","countryCode":"FI","stateCode":"05","latitude":64.13333,"longitude":28.41667},{"name":"Sulkava","countryCode":"FI","stateCode":"04","latitude":61.78691,"longitude":28.37299},{"name":"Sumiainen","countryCode":"FI","stateCode":"08","latitude":62.65736,"longitude":26.04642},{"name":"Suolahti","countryCode":"FI","stateCode":"08","latitude":62.56421,"longitude":25.85363},{"name":"Suomusjärvi","countryCode":"FI","stateCode":"19","latitude":60.35,"longitude":23.65},{"name":"Suomussalmi","countryCode":"FI","stateCode":"05","latitude":64.88685,"longitude":28.90778},{"name":"Suonenjoki","countryCode":"FI","stateCode":"11","latitude":62.61667,"longitude":27.13333},{"name":"Sysmä","countryCode":"FI","stateCode":"16","latitude":61.5,"longitude":25.68333},{"name":"Taipalsaari","countryCode":"FI","stateCode":"02","latitude":61.15,"longitude":28.05},{"name":"Taivalkoski","countryCode":"FI","stateCode":"14","latitude":65.56667,"longitude":28.25},{"name":"Taivassalo","countryCode":"FI","stateCode":"19","latitude":60.56085,"longitude":21.61639},{"name":"Tammela","countryCode":"FI","stateCode":"06","latitude":60.81035,"longitude":23.76823},{"name":"Tarvasjoki","countryCode":"FI","stateCode":"19","latitude":60.58333,"longitude":22.73333},{"name":"Teeriniemi","countryCode":"FI","stateCode":"12","latitude":63.09705,"longitude":21.6959},{"name":"Tervakoski","countryCode":"FI","stateCode":"06","latitude":60.81412,"longitude":24.62594},{"name":"Tervo","countryCode":"FI","stateCode":"11","latitude":62.95,"longitude":26.75},{"name":"Tervola","countryCode":"FI","stateCode":"LL","latitude":66.08333,"longitude":24.8},{"name":"Teuva","countryCode":"FI","stateCode":"03","latitude":62.4819,"longitude":21.74156},{"name":"Tohmajärvi","countryCode":"FI","stateCode":"13","latitude":62.18333,"longitude":30.38333},{"name":"Toholampi","countryCode":"FI","stateCode":"07","latitude":63.76667,"longitude":24.25},{"name":"Toivakka","countryCode":"FI","stateCode":"08","latitude":62.1,"longitude":26.08333},{"name":"Tornio","countryCode":"FI","stateCode":"LL","latitude":65.84811,"longitude":24.14662},{"name":"Töysä","countryCode":"FI","stateCode":"03","latitude":62.62803,"longitude":23.81828},{"name":"Turku","countryCode":"FI","stateCode":"19","latitude":60.45148,"longitude":22.26869},{"name":"Tuulos","countryCode":"FI","stateCode":"06","latitude":61.15,"longitude":24.8},{"name":"Tuupovaara","countryCode":"FI","stateCode":"13","latitude":62.48372,"longitude":30.62731},{"name":"Tuusniemi","countryCode":"FI","stateCode":"11","latitude":62.81667,"longitude":28.5},{"name":"Tuusula","countryCode":"FI","stateCode":"18","latitude":60.40368,"longitude":25.02638},{"name":"Tyrnävä","countryCode":"FI","stateCode":"14","latitude":64.76469,"longitude":25.6523},{"name":"Ullava","countryCode":"FI","stateCode":"07","latitude":63.6,"longitude":24.08333},{"name":"Ulvila","countryCode":"FI","stateCode":"17","latitude":61.42844,"longitude":21.87103},{"name":"Utajärvi","countryCode":"FI","stateCode":"14","latitude":64.75,"longitude":26.38333},{"name":"Utsjoki","countryCode":"FI","stateCode":"LL","latitude":69.90864,"longitude":27.02843},{"name":"Uurainen","countryCode":"FI","stateCode":"08","latitude":62.5,"longitude":25.45},{"name":"Uusikaupunki","countryCode":"FI","stateCode":"19","latitude":60.80043,"longitude":21.40841},{"name":"Vaala","countryCode":"FI","stateCode":"05","latitude":64.56667,"longitude":26.83333},{"name":"Vaasa","countryCode":"FI","stateCode":"12","latitude":63.096,"longitude":21.61577},{"name":"Vähäkyrö","countryCode":"FI","stateCode":"12","latitude":63.05635,"longitude":22.10584},{"name":"Vahto","countryCode":"FI","stateCode":"19","latitude":60.6,"longitude":22.3},{"name":"Valtimo","countryCode":"FI","stateCode":"13","latitude":63.66667,"longitude":28.8},{"name":"Vampula","countryCode":"FI","stateCode":"17","latitude":61.01667,"longitude":22.7},{"name":"Vantaa","countryCode":"FI","stateCode":"18","latitude":60.29414,"longitude":25.04099},{"name":"Varkaus","countryCode":"FI","stateCode":"11","latitude":62.31533,"longitude":27.873},{"name":"Varpaisjärvi","countryCode":"FI","stateCode":"11","latitude":63.35932,"longitude":27.75506},{"name":"Väståboland","countryCode":"FI","stateCode":"19","latitude":60.29972,"longitude":22.3004},{"name":"Västanfjärd","countryCode":"FI","stateCode":"19","latitude":60.05,"longitude":22.68333},{"name":"Vehmaa","countryCode":"FI","stateCode":"19","latitude":60.68333,"longitude":21.66667},{"name":"Vehmersalmi","countryCode":"FI","stateCode":"11","latitude":62.76101,"longitude":28.02853},{"name":"Velkua","countryCode":"FI","stateCode":"19","latitude":60.46667,"longitude":21.66667},{"name":"Vesanto","countryCode":"FI","stateCode":"11","latitude":62.93333,"longitude":26.41667},{"name":"Veteli","countryCode":"FI","stateCode":"07","latitude":63.47839,"longitude":23.78285},{"name":"Vieremä","countryCode":"FI","stateCode":"11","latitude":63.75,"longitude":27.01667},{"name":"Vihanti","countryCode":"FI","stateCode":"14","latitude":64.48472,"longitude":24.99157},{"name":"Vihti","countryCode":"FI","stateCode":"18","latitude":60.41699,"longitude":24.31965},{"name":"Viitasaari","countryCode":"FI","stateCode":"08","latitude":63.06667,"longitude":25.86667},{"name":"Vimpeli","countryCode":"FI","stateCode":"03","latitude":63.16187,"longitude":23.81922},{"name":"Virojoki","countryCode":"FI","stateCode":"09","latitude":60.5794,"longitude":27.70354},{"name":"Virtasalmi","countryCode":"FI","stateCode":"04","latitude":62.12695,"longitude":27.46276},{"name":"Vörå","countryCode":"FI","stateCode":"12","latitude":63.13607,"longitude":22.25223},{"name":"Vuokatti","countryCode":"FI","stateCode":"05","latitude":64.14466,"longitude":28.28196},{"name":"Vuolijoki","countryCode":"FI","stateCode":"05","latitude":64.18538,"longitude":26.99547},{"name":"Vuosaari","countryCode":"FI","stateCode":"18","latitude":60.20963,"longitude":25.14195},{"name":"Ylämaa","countryCode":"FI","stateCode":"02","latitude":60.8,"longitude":28},{"name":"Yläne","countryCode":"FI","stateCode":"19","latitude":60.88333,"longitude":22.41667},{"name":"Yli-Ii","countryCode":"FI","stateCode":"14","latitude":65.37181,"longitude":25.8458},{"name":"Ylihärmä","countryCode":"FI","stateCode":"03","latitude":63.15,"longitude":22.78333},{"name":"Ylikiiminki","countryCode":"FI","stateCode":"14","latitude":65.08333,"longitude":26.25},{"name":"Ylistaro","countryCode":"FI","stateCode":"03","latitude":62.93958,"longitude":22.51306},{"name":"Ylitornio","countryCode":"FI","stateCode":"LL","latitude":66.30893,"longitude":23.67734},{"name":"Ylivieska","countryCode":"FI","stateCode":"14","latitude":64.08333,"longitude":24.55},{"name":"Ypäjä","countryCode":"FI","stateCode":"06","latitude":60.8,"longitude":23.28333}]
