[{"name":"Colonia","countryCode":"FM","stateCode":"YAP","latitude":9.51638,"longitude":138.12167},{"name":"Dalipebinaw Municipality","countryCode":"FM","stateCode":"YAP","latitude":9.52229,"longitude":138.0854},{"name":"Eot Municipality","countryCode":"FM","stateCode":"TRK","latitude":7.3854,"longitude":151.7392},{"name":"Ettal Municipality","countryCode":"FM","stateCode":"TRK","latitude":5.592,"longitude":153.56},{"name":"Fais","countryCode":"FM","stateCode":"YAP","latitude":9.766,"longitude":140.52},{"name":"Fais Municipality","countryCode":"FM","stateCode":"YAP","latitude":9.766,"longitude":140.519},{"name":"Fananu Municipality","countryCode":"FM","stateCode":"TRK","latitude":8.55811,"longitude":151.90822},{"name":"Fanapanges Municipality","countryCode":"FM","stateCode":"TRK","latitude":7.353,"longitude":151.6676},{"name":"Fanif Municipality","countryCode":"FM","stateCode":"YAP","latitude":9.56056,"longitude":138.11333},{"name":"Faraulep Municipality","countryCode":"FM","stateCode":"YAP","latitude":8.588,"longitude":144.5065},{"name":"Fefen Municipality","countryCode":"FM","stateCode":"TRK","latitude":7.353,"longitude":151.831},{"name":"Fonoton Municipality","countryCode":"FM","stateCode":"TRK","latitude":7.486,"longitude":151.8794},{"name":"Gagil Municipality","countryCode":"FM","stateCode":"YAP","latitude":9.54722,"longitude":138.19028},{"name":"Gilman Municipality","countryCode":"FM","stateCode":"YAP","latitude":9.44611,"longitude":138.06389},{"name":"Houk Municipality","countryCode":"FM","stateCode":"TRK","latitude":6.683,"longitude":149.3},{"name":"Kanifay Municipality","countryCode":"FM","stateCode":"YAP","latitude":9.46735,"longitude":138.05935},{"name":"Kitti Municipality","countryCode":"FM","stateCode":"PNI","latitude":6.8249,"longitude":158.16081},{"name":"Kolonia","countryCode":"FM","stateCode":"PNI","latitude":6.964,"longitude":158.2062},{"name":"Kolonia Municipality","countryCode":"FM","stateCode":"PNI","latitude":6.964,"longitude":158.2058},{"name":"Kolonia Town","countryCode":"FM","stateCode":"PNI","latitude":6.964,"longitude":158.206},{"name":"Kuttu Municipality","countryCode":"FM","stateCode":"TRK","latitude":5.453,"longitude":153.456},{"name":"Lamotrek Municipality","countryCode":"FM","stateCode":"YAP","latitude":7.491,"longitude":146.303},{"name":"Lekinioch Municipality","countryCode":"FM","stateCode":"TRK","latitude":5.507,"longitude":153.819},{"name":"Lelu Municipality","countryCode":"FM","stateCode":"KSA","latitude":5.34865,"longitude":163.01917},{"name":"Losap Municipality","countryCode":"FM","stateCode":"TRK","latitude":6.894,"longitude":152.739},{"name":"Maap Municipality","countryCode":"FM","stateCode":"YAP","latitude":9.58975,"longitude":138.17119},{"name":"Madolenihm Municipality","countryCode":"FM","stateCode":"PNI","latitude":6.86759,"longitude":158.31277},{"name":"Makur Municipality","countryCode":"FM","stateCode":"TRK","latitude":8.985,"longitude":150.126},{"name":"Malem Municipality","countryCode":"FM","stateCode":"KSA","latitude":5.27507,"longitude":163.01685},{"name":"Moch Municipality","countryCode":"FM","stateCode":"TRK","latitude":5.4918,"longitude":153.5385},{"name":"Mokil Municipality","countryCode":"FM","stateCode":"PNI","latitude":6.68916,"longitude":159.7661},{"name":"Murilo","countryCode":"FM","stateCode":"TRK","latitude":8.69242,"longitude":152.33934},{"name":"Murilo Municipality","countryCode":"FM","stateCode":"TRK","latitude":8.692,"longitude":152.342},{"name":"Namoluk Municipality","countryCode":"FM","stateCode":"TRK","latitude":5.915,"longitude":153.136},{"name":"Nema","countryCode":"FM","stateCode":"TRK","latitude":6.98922,"longitude":152.57377},{"name":"Nema Municipality","countryCode":"FM","stateCode":"TRK","latitude":6.993,"longitude":152.574},{"name":"Nett Municipality","countryCode":"FM","stateCode":"PNI","latitude":6.95152,"longitude":158.22437},{"name":"Ngatik","countryCode":"FM","stateCode":"PNI","latitude":5.78849,"longitude":157.15954},{"name":"Ngulu Municipality","countryCode":"FM","stateCode":"YAP","latitude":8.45,"longitude":137.481},{"name":"Nomwin Municipality","countryCode":"FM","stateCode":"TRK","latitude":8.43,"longitude":151.745},{"name":"Nukuoro Municipality","countryCode":"FM","stateCode":"PNI","latitude":3.841,"longitude":154.93},{"name":"Oneop Municipality","countryCode":"FM","stateCode":"TRK","latitude":5.5066,"longitude":153.709},{"name":"Onou Municipality","countryCode":"FM","stateCode":"TRK","latitude":8.799,"longitude":150.29},{"name":"Onoun Municipality","countryCode":"FM","stateCode":"TRK","latitude":8.575,"longitude":149.6855},{"name":"Paata-Tupunion Municipality","countryCode":"FM","stateCode":"TRK","latitude":7.376,"longitude":151.583},{"name":"Palikir - National Government Center","countryCode":"FM","stateCode":"PNI","latitude":6.92477,"longitude":158.16109},{"name":"Parem Municipality","countryCode":"FM","stateCode":"TRK","latitude":7.362,"longitude":151.789},{"name":"Piherarh Municipality","countryCode":"FM","stateCode":"TRK","latitude":8.569,"longitude":150.418},{"name":"Piis-Emwar Municipality","countryCode":"FM","stateCode":"TRK","latitude":6.834,"longitude":152.7},{"name":"Piis-Panewu Municipality","countryCode":"FM","stateCode":"TRK","latitude":7.678,"longitude":151.7634},{"name":"Pingelap Municipality","countryCode":"FM","stateCode":"PNI","latitude":6.20908,"longitude":160.71033},{"name":"Pollap Municipality","countryCode":"FM","stateCode":"TRK","latitude":7.63971,"longitude":149.43011},{"name":"Polowat Municipality","countryCode":"FM","stateCode":"TRK","latitude":7.355,"longitude":149.182},{"name":"Pwene Municipality","countryCode":"FM","stateCode":"TRK","latitude":7.337,"longitude":151.584},{"name":"Ramanum Municipality","countryCode":"FM","stateCode":"TRK","latitude":7.4135,"longitude":151.6646},{"name":"Rull Municipality","countryCode":"FM","stateCode":"YAP","latitude":9.50773,"longitude":138.1154},{"name":"Rumung Municipality","countryCode":"FM","stateCode":"YAP","latitude":9.62428,"longitude":138.15745},{"name":"Ruo Municipality","countryCode":"FM","stateCode":"TRK","latitude":8.609,"longitude":152.244},{"name":"Sapwuahfik Municipality","countryCode":"FM","stateCode":"PNI","latitude":5.815,"longitude":157.28},{"name":"Satawal Municipality","countryCode":"FM","stateCode":"YAP","latitude":7.382,"longitude":147.0318},{"name":"Satowan Municipality","countryCode":"FM","stateCode":"TRK","latitude":5.334,"longitude":153.7365},{"name":"Siis Municipality","countryCode":"FM","stateCode":"TRK","latitude":7.295,"longitude":151.8246},{"name":"Sokehs Municipality","countryCode":"FM","stateCode":"PNI","latitude":6.93273,"longitude":158.1427},{"name":"Ta Municipality","countryCode":"FM","stateCode":"TRK","latitude":5.2842,"longitude":153.6465},{"name":"Tafunsak Municipality","countryCode":"FM","stateCode":"KSA","latitude":5.34993,"longitude":162.96965},{"name":"Tamatam Municipality","countryCode":"FM","stateCode":"TRK","latitude":7.53898,"longitude":149.41175},{"name":"Tofol","countryCode":"FM","stateCode":"KSA","latitude":5.32479,"longitude":163.00781},{"name":"Tolensom Municipality","countryCode":"FM","stateCode":"TRK","latitude":7.333,"longitude":151.623},{"name":"Tomil Municipality","countryCode":"FM","stateCode":"YAP","latitude":9.52517,"longitude":138.15488},{"name":"Tonoas Municipality","countryCode":"FM","stateCode":"TRK","latitude":7.381,"longitude":151.89},{"name":"U Municipality","countryCode":"FM","stateCode":"PNI","latitude":6.94972,"longitude":158.27361},{"name":"Udot-Fonuweisom Municipality","countryCode":"FM","stateCode":"TRK","latitude":7.389,"longitude":151.708},{"name":"Ulithi Municipality","countryCode":"FM","stateCode":"YAP","latitude":9.9,"longitude":139.6},{"name":"Uman-Fonuweisom Municipality","countryCode":"FM","stateCode":"TRK","latitude":7.299,"longitude":151.877},{"name":"Unanu Municipality","countryCode":"FM","stateCode":"TRK","latitude":8.75,"longitude":150.3395},{"name":"Utwe Municipality","countryCode":"FM","stateCode":"KSA","latitude":5.27511,"longitude":162.95617},{"name":"Weloy Municipality","countryCode":"FM","stateCode":"YAP","latitude":9.52712,"longitude":138.11909},{"name":"Weno","countryCode":"FM","stateCode":"TRK","latitude":7.44648,"longitude":151.84135},{"name":"Weno Municipality","countryCode":"FM","stateCode":"TRK","latitude":7.44,"longitude":151.881},{"name":"Woleai Municipality","countryCode":"FM","stateCode":"YAP","latitude":7.345,"longitude":143.857},{"name":"Wonei Municipality","countryCode":"FM","stateCode":"TRK","latitude":7.387,"longitude":151.601}]
