[{"name":"Beyla","countryCode":"GN","stateCode":"N","latitude":8.69011,"longitude":-8.64869},{"name":"Beyla Prefecture","countryCode":"GN","stateCode":"N","latitude":8.91667,"longitude":-8.41667},{"name":"Boffa","countryCode":"GN","stateCode":"B","latitude":10.33333,"longitude":-14.16667},{"name":"Boké","countryCode":"GN","stateCode":"B","latitude":10.93217,"longitude":-14.29055},{"name":"Boke Prefecture","countryCode":"GN","stateCode":"B","latitude":11.08333,"longitude":-14.41667},{"name":"Camayenne","countryCode":"GN","stateCode":"C","latitude":9.535,"longitude":-13.68778},{"name":"Conakry","countryCode":"GN","stateCode":"C","latitude":9.53795,"longitude":-13.67729},{"name":"Coyah","countryCode":"GN","stateCode":"D","latitude":9.75,"longitude":-13.41667},{"name":"Dalaba","countryCode":"GN","stateCode":"M","latitude":10.75,"longitude":-12.3},{"name":"Dubréka","countryCode":"GN","stateCode":"D","latitude":9.79111,"longitude":-13.52333},{"name":"Forécariah","countryCode":"GN","stateCode":"D","latitude":9.43056,"longitude":-13.08806},{"name":"Fria","countryCode":"GN","stateCode":"B","latitude":10.41667,"longitude":-13.58333},{"name":"Gaoual","countryCode":"GN","stateCode":"B","latitude":11.75,"longitude":-13.2},{"name":"Gaoual Prefecture","countryCode":"GN","stateCode":"B","latitude":11.75,"longitude":-13.2},{"name":"Gueckedou","countryCode":"GN","stateCode":"N","latitude":8.56744,"longitude":-10.1336},{"name":"Kankan","countryCode":"GN","stateCode":"K","latitude":10.38542,"longitude":-9.30568},{"name":"Kankan Prefecture","countryCode":"GN","stateCode":"K","latitude":10.271,"longitude":-9.178},{"name":"Kérouané","countryCode":"GN","stateCode":"K","latitude":9.26667,"longitude":-9.01667},{"name":"Kerouane Prefecture","countryCode":"GN","stateCode":"K","latitude":9.16667,"longitude":-9.08333},{"name":"Kimbo","countryCode":"GN","stateCode":"B","latitude":10.4,"longitude":-13.55},{"name":"Kindia","countryCode":"GN","stateCode":"D","latitude":10.08333,"longitude":-12.8},{"name":"Koubia","countryCode":"GN","stateCode":"L","latitude":11.58333,"longitude":-11.83333},{"name":"Koundara","countryCode":"GN","stateCode":"B","latitude":12.48333,"longitude":-13.3},{"name":"Koundara Prefecture","countryCode":"GN","stateCode":"B","latitude":12.41667,"longitude":-13.16667},{"name":"Kouroussa","countryCode":"GN","stateCode":"K","latitude":10.66667,"longitude":-9.91667},{"name":"Labé","countryCode":"GN","stateCode":"L","latitude":11.31823,"longitude":-12.28332},{"name":"Labe Prefecture","countryCode":"GN","stateCode":"L","latitude":11.366,"longitude":-12.3},{"name":"Lélouma","countryCode":"GN","stateCode":"L","latitude":11.42383,"longitude":-12.68183},{"name":"Lelouma Prefecture","countryCode":"GN","stateCode":"L","latitude":11.41667,"longitude":-12.66667},{"name":"Lola","countryCode":"GN","stateCode":"N","latitude":7.83333,"longitude":-8.33333},{"name":"Macenta","countryCode":"GN","stateCode":"N","latitude":8.5,"longitude":-9.41667},{"name":"Mali","countryCode":"GN","stateCode":"L","latitude":12.079,"longitude":-12.2982},{"name":"Mali Prefecture","countryCode":"GN","stateCode":"L","latitude":12.08333,"longitude":-12.08333},{"name":"Mamou","countryCode":"GN","stateCode":"M","latitude":10.37546,"longitude":-12.09148},{"name":"Mamou Prefecture","countryCode":"GN","stateCode":"M","latitude":10.459,"longitude":-11.815},{"name":"Mandiana","countryCode":"GN","stateCode":"K","latitude":10.62577,"longitude":-8.69413},{"name":"Mandiana Prefecture","countryCode":"GN","stateCode":"K","latitude":10.658,"longitude":-8.615},{"name":"Nzérékoré","countryCode":"GN","stateCode":"N","latitude":7.75624,"longitude":-8.8179},{"name":"Nzerekore Prefecture","countryCode":"GN","stateCode":"N","latitude":7.945,"longitude":-8.783},{"name":"Pita","countryCode":"GN","stateCode":"M","latitude":10.83333,"longitude":-12.58333},{"name":"Préfecture de Dubréka","countryCode":"GN","stateCode":"D","latitude":10.25,"longitude":-13.41667},{"name":"Préfecture de Forécariah","countryCode":"GN","stateCode":"D","latitude":9.43333,"longitude":-13.1},{"name":"Préfecture de Guékédou","countryCode":"GN","stateCode":"N","latitude":8.66667,"longitude":-10.25},{"name":"Sanguéya","countryCode":"GN","stateCode":"B","latitude":10.7,"longitude":-14.36667},{"name":"Siguiri","countryCode":"GN","stateCode":"K","latitude":11.42282,"longitude":-9.16852},{"name":"Siguiri Prefecture","countryCode":"GN","stateCode":"K","latitude":11.66667,"longitude":-9.5},{"name":"Télimélé","countryCode":"GN","stateCode":"D","latitude":10.9,"longitude":-13.03333},{"name":"Telimele Prefecture","countryCode":"GN","stateCode":"D","latitude":10.91667,"longitude":-13.33333},{"name":"Tokonou","countryCode":"GN","stateCode":"K","latitude":9.65,"longitude":-9.78333},{"name":"Tondon","countryCode":"GN","stateCode":"D","latitude":10.36667,"longitude":-13.35},{"name":"Tougué","countryCode":"GN","stateCode":"L","latitude":11.44503,"longitude":-11.66422},{"name":"Tougue Prefecture","countryCode":"GN","stateCode":"L","latitude":11.46667,"longitude":-11.6},{"name":"Yomou","countryCode":"GN","stateCode":"N","latitude":7.5,"longitude":-9.16667},{"name":"Youkounkoun","countryCode":"GN","stateCode":"B","latitude":12.5311,"longitude":-13.1224}]
