[{"name":"Abepura","countryCode":"ID","stateCode":"PA","latitude":-2.5964,"longitude":140.6324},{"name":"Adiwerna","countryCode":"ID","stateCode":"JT","latitude":-6.9375,"longitude":109.1325},{"name":"Amahai","countryCode":"ID","stateCode":"MA","latitude":-3.33984,"longitude":128.91975},{"name":"Ambarawa","countryCode":"ID","stateCode":"JT","latitude":-7.26333,"longitude":110.3975},{"name":"Ambarita","countryCode":"ID","stateCode":"SU","latitude":2.6814,"longitude":98.8311},{"name":"Ambon","countryCode":"ID","stateCode":"MA","latitude":-3.69583,"longitude":128.18333},{"name":"Amlapura","countryCode":"ID","stateCode":"BA","latitude":-8.45,"longitude":115.61667},{"name":"Amlapura city","countryCode":"ID","stateCode":"BA","latitude":-8.44869,"longitude":115.60621},{"name":"Amuntai","countryCode":"ID","stateCode":"KS","latitude":-2.41773,"longitude":115.24941},{"name":"Arjawinangun","countryCode":"ID","stateCode":"JB","latitude":-6.64528,"longitude":108.41028},{"name":"Astanajapura","countryCode":"ID","stateCode":"JB","latitude":-6.8017,"longitude":108.6311},{"name":"Atambua","countryCode":"ID","stateCode":"NT","latitude":-9.10611,"longitude":124.8925},{"name":"Babat","countryCode":"ID","stateCode":"JI","latitude":-7.11282,"longitude":112.16354},{"name":"Baekrajan","countryCode":"ID","stateCode":"JT","latitude":-6.7674,"longitude":110.8541},{"name":"Baki","countryCode":"ID","stateCode":"JT","latitude":-7.61278,"longitude":110.78389},{"name":"Balaipungut","countryCode":"ID","stateCode":"RI","latitude":1.05949,"longitude":101.29054},{"name":"Balapulang","countryCode":"ID","stateCode":"JT","latitude":-7.04858,"longitude":109.10056},{"name":"Balikpapan","countryCode":"ID","stateCode":"KI","latitude":-1.26753,"longitude":116.82887},{"name":"Balung","countryCode":"ID","stateCode":"JI","latitude":-7.73333,"longitude":113.91667},{"name":"Bambanglipuro","countryCode":"ID","stateCode":"YO","latitude":-7.95,"longitude":110.28333},{"name":"Banda Aceh","countryCode":"ID","stateCode":"AC","latitude":5.54167,"longitude":95.33333},{"name":"Bandar","countryCode":"ID","stateCode":"SU","latitude":2.05,"longitude":99.75},{"name":"Bandar Lampung","countryCode":"ID","stateCode":"LA","latitude":-5.42917,"longitude":105.26111},{"name":"Bandung","countryCode":"ID","stateCode":"JB","latitude":-6.92222,"longitude":107.60694},{"name":"Bangil","countryCode":"ID","stateCode":"JI","latitude":-7.59939,"longitude":112.8186},{"name":"Bangkalan","countryCode":"ID","stateCode":"JI","latitude":-7.0455,"longitude":112.7351},{"name":"Banjar","countryCode":"ID","stateCode":"BA","latitude":-8.19,"longitude":114.9675},{"name":"Banjar","countryCode":"ID","stateCode":"JB","latitude":-7.1955,"longitude":107.4313},{"name":"Banjar Wangsian","countryCode":"ID","stateCode":"BA","latitude":-8.49497,"longitude":115.42342},{"name":"Banjaran","countryCode":"ID","stateCode":"JB","latitude":-7.04528,"longitude":107.58778},{"name":"Banjarmasin","countryCode":"ID","stateCode":"KS","latitude":-3.31987,"longitude":114.59075},{"name":"Bantul","countryCode":"ID","stateCode":"YO","latitude":-7.88806,"longitude":110.32889},{"name":"Banyumas","countryCode":"ID","stateCode":"JT","latitude":-7.51417,"longitude":109.29417},{"name":"Banyuwangi","countryCode":"ID","stateCode":"JI","latitude":-8.2325,"longitude":114.35755},{"name":"Barabai","countryCode":"ID","stateCode":"KS","latitude":-2.58333,"longitude":115.38333},{"name":"Batam","countryCode":"ID","stateCode":"RI","latitude":1.14937,"longitude":104.02491},{"name":"Batang","countryCode":"ID","stateCode":"JT","latitude":-6.4846,"longitude":110.7083},{"name":"Batu","countryCode":"ID","stateCode":"JI","latitude":-7.87,"longitude":112.52833},{"name":"Baturaden","countryCode":"ID","stateCode":"JT","latitude":-7.3,"longitude":109.21667},{"name":"Baturaja","countryCode":"ID","stateCode":"SS","latitude":-4.12891,"longitude":104.16695},{"name":"Bedugul","countryCode":"ID","stateCode":"BA","latitude":-8.4504,"longitude":115.5925},{"name":"Bejubang Dua","countryCode":"ID","stateCode":"JA","latitude":-1.7923,"longitude":103.3167},{"name":"Bekasi","countryCode":"ID","stateCode":"JB","latitude":-6.2349,"longitude":106.9896},{"name":"Belawan","countryCode":"ID","stateCode":"SU","latitude":3.7755,"longitude":98.6832},{"name":"Bengkulu","countryCode":"ID","stateCode":"BE","latitude":-3.80044,"longitude":102.26554},{"name":"Berastagi","countryCode":"ID","stateCode":"SU","latitude":3.19468,"longitude":98.50889},{"name":"Besuki","countryCode":"ID","stateCode":"JI","latitude":-7.73379,"longitude":113.69785},{"name":"Biak","countryCode":"ID","stateCode":"PA","latitude":-1.1767,"longitude":136.082},{"name":"Bima","countryCode":"ID","stateCode":"NB","latitude":-8.46006,"longitude":118.72667},{"name":"Binjai","countryCode":"ID","stateCode":"SU","latitude":3.6001,"longitude":98.4854},{"name":"Bireun","countryCode":"ID","stateCode":"AC","latitude":5.203,"longitude":96.7009},{"name":"Blitar","countryCode":"ID","stateCode":"JI","latitude":-8.0983,"longitude":112.1681},{"name":"Blora","countryCode":"ID","stateCode":"JT","latitude":-6.9698,"longitude":111.4186},{"name":"Bogor","countryCode":"ID","stateCode":"JB","latitude":-6.59444,"longitude":106.78917},{"name":"Bojonegoro","countryCode":"ID","stateCode":"JI","latitude":-7.1502,"longitude":111.8817},{"name":"Bondowoso","countryCode":"ID","stateCode":"JI","latitude":-7.91346,"longitude":113.82145},{"name":"Bontang","countryCode":"ID","stateCode":"KI","latitude":0.1324,"longitude":117.4854},{"name":"Boyolali","countryCode":"ID","stateCode":"JT","latitude":-7.53306,"longitude":110.59583},{"name":"Boyolangu","countryCode":"ID","stateCode":"JI","latitude":-8.1181,"longitude":111.8935},{"name":"Buaran","countryCode":"ID","stateCode":"JT","latitude":-7.05,"longitude":109.55},{"name":"Buduran","countryCode":"ID","stateCode":"JI","latitude":-7.4281,"longitude":112.7234},{"name":"Bukittinggi","countryCode":"ID","stateCode":"SB","latitude":-0.30907,"longitude":100.37055},{"name":"Bulakamba","countryCode":"ID","stateCode":"JT","latitude":-6.8748,"longitude":108.9559},{"name":"Candi Prambanan","countryCode":"ID","stateCode":"JT","latitude":-7.75,"longitude":110.49417},{"name":"Caringin","countryCode":"ID","stateCode":"JB","latitude":-6.70611,"longitude":106.82139},{"name":"Ceper","countryCode":"ID","stateCode":"JT","latitude":-7.67417,"longitude":110.67889},{"name":"Cepu","countryCode":"ID","stateCode":"JT","latitude":-7.1475,"longitude":111.5906},{"name":"Ciamis","countryCode":"ID","stateCode":"JB","latitude":-7.3257,"longitude":108.3534},{"name":"Ciampea","countryCode":"ID","stateCode":"JB","latitude":-6.55472,"longitude":106.70083},{"name":"Cibinong","countryCode":"ID","stateCode":"JB","latitude":-6.48167,"longitude":106.85417},{"name":"Cicurug","countryCode":"ID","stateCode":"JB","latitude":-6.78139,"longitude":106.7825},{"name":"Cikampek","countryCode":"ID","stateCode":"JB","latitude":-6.41972,"longitude":107.45583},{"name":"Cikarang","countryCode":"ID","stateCode":"JB","latitude":-6.26111,"longitude":107.15278},{"name":"Cikupa","countryCode":"ID","stateCode":"JB","latitude":-6.23639,"longitude":106.50833},{"name":"Cileungsir","countryCode":"ID","stateCode":"JB","latitude":-6.39472,"longitude":106.95917},{"name":"Cileunyi","countryCode":"ID","stateCode":"JB","latitude":-6.93889,"longitude":107.75278},{"name":"Cimahi","countryCode":"ID","stateCode":"JB","latitude":-6.87222,"longitude":107.5425},{"name":"Ciputat","countryCode":"ID","stateCode":"JB","latitude":-6.2375,"longitude":106.69556},{"name":"Ciranjang-hilir","countryCode":"ID","stateCode":"JB","latitude":-6.82,"longitude":107.25722},{"name":"Cirebon","countryCode":"ID","stateCode":"JB","latitude":-6.7063,"longitude":108.557},{"name":"Citeureup","countryCode":"ID","stateCode":"JB","latitude":-6.48556,"longitude":106.88194},{"name":"City of Balikpapan","countryCode":"ID","stateCode":"KI","latitude":-1.24204,"longitude":116.89419},{"name":"Colomadu","countryCode":"ID","stateCode":"JT","latitude":-7.53333,"longitude":110.75},{"name":"Comal","countryCode":"ID","stateCode":"JT","latitude":-6.9053,"longitude":109.5347},{"name":"Curug","countryCode":"ID","stateCode":"BT","latitude":-6.26583,"longitude":106.55639},{"name":"Curup","countryCode":"ID","stateCode":"BE","latitude":-3.4703,"longitude":102.5207},{"name":"Dampit","countryCode":"ID","stateCode":"JI","latitude":-8.21162,"longitude":112.74934},{"name":"Delanggu","countryCode":"ID","stateCode":"JT","latitude":-7.61667,"longitude":110.68333},{"name":"Deli Tua","countryCode":"ID","stateCode":"SU","latitude":3.5078,"longitude":98.6839},{"name":"Demak","countryCode":"ID","stateCode":"JT","latitude":-6.8909,"longitude":110.6396},{"name":"Denpasar","countryCode":"ID","stateCode":"BA","latitude":-8.65,"longitude":115.21667},{"name":"Depok","countryCode":"ID","stateCode":"JB","latitude":-6.4,"longitude":106.81861},{"name":"Depok","countryCode":"ID","stateCode":"YO","latitude":-7.7625,"longitude":110.43167},{"name":"Diwek","countryCode":"ID","stateCode":"JI","latitude":-7.57897,"longitude":112.23109},{"name":"Dompu","countryCode":"ID","stateCode":"NB","latitude":-8.5365,"longitude":118.4634},{"name":"Driyorejo","countryCode":"ID","stateCode":"JI","latitude":-7.3659,"longitude":112.6219},{"name":"Dukuhturi","countryCode":"ID","stateCode":"JT","latitude":-6.9,"longitude":109.08333},{"name":"Dumai","countryCode":"ID","stateCode":"RI","latitude":1.66711,"longitude":101.44316},{"name":"East Halmahera Regency","countryCode":"ID","stateCode":"MU","latitude":1.33517,"longitude":128.48627},{"name":"Ende","countryCode":"ID","stateCode":"NT","latitude":-8.8432,"longitude":121.6623},{"name":"Galesong","countryCode":"ID","stateCode":"SN","latitude":-5.3166,"longitude":119.3661},{"name":"Gambiran Satu","countryCode":"ID","stateCode":"JI","latitude":-8.3939,"longitude":114.1464},{"name":"Gampengrejo","countryCode":"ID","stateCode":"JI","latitude":-7.76667,"longitude":112.01667},{"name":"Gamping Lor","countryCode":"ID","stateCode":"YO","latitude":-7.79556,"longitude":110.32639},{"name":"Gatak","countryCode":"ID","stateCode":"JT","latitude":-7.59083,"longitude":110.70444},{"name":"Gebog","countryCode":"ID","stateCode":"JT","latitude":-6.735,"longitude":110.8444},{"name":"Gedangan","countryCode":"ID","stateCode":"JI","latitude":-7.39083,"longitude":112.72667},{"name":"Genteng","countryCode":"ID","stateCode":"JI","latitude":-8.36667,"longitude":114.15},{"name":"Gili Air","countryCode":"ID","stateCode":"NB","latitude":-8.35783,"longitude":116.0824},{"name":"Godean","countryCode":"ID","stateCode":"YO","latitude":-7.76972,"longitude":110.29389},{"name":"Gombong","countryCode":"ID","stateCode":"JT","latitude":-7.60722,"longitude":109.51417},{"name":"Gongdanglegi Kulon","countryCode":"ID","stateCode":"JI","latitude":-8.17529,"longitude":112.63594},{"name":"Gorontalo","countryCode":"ID","stateCode":"GO","latitude":0.5375,"longitude":123.0625},{"name":"Gresik","countryCode":"ID","stateCode":"JI","latitude":-7.15389,"longitude":112.65611},{"name":"Gresik Regency","countryCode":"ID","stateCode":"JI","latitude":-7.1933,"longitude":112.553},{"name":"Grogol","countryCode":"ID","stateCode":"JT","latitude":-7.60111,"longitude":110.81861},{"name":"Gunung Kendil","countryCode":"ID","stateCode":"JT","latitude":-7.33167,"longitude":110.40417},{"name":"Gunungsitoli","countryCode":"ID","stateCode":"SU","latitude":1.2888,"longitude":97.6143},{"name":"Indramayu","countryCode":"ID","stateCode":"JB","latitude":-6.32639,"longitude":108.32},{"name":"Insrom","countryCode":"ID","stateCode":"PA","latitude":-1.14473,"longitude":136.03134},{"name":"Jakarta","countryCode":"ID","stateCode":"JK","latitude":-6.21462,"longitude":106.84513},{"name":"Jambi City","countryCode":"ID","stateCode":"JA","latitude":-1.6,"longitude":103.61667},{"name":"Jaten","countryCode":"ID","stateCode":"JT","latitude":-7.57722,"longitude":110.8975},{"name":"Jatibarang","countryCode":"ID","stateCode":"JB","latitude":-6.47472,"longitude":108.31528},{"name":"Jatiroto","countryCode":"ID","stateCode":"JT","latitude":-7.88333,"longitude":111.11667},{"name":"Jatiwangi","countryCode":"ID","stateCode":"JB","latitude":-6.73361,"longitude":108.26278},{"name":"Jayapura","countryCode":"ID","stateCode":"PA","latitude":-2.53371,"longitude":140.71813},{"name":"Jekulo","countryCode":"ID","stateCode":"JT","latitude":-6.8057,"longitude":110.9262},{"name":"Jember","countryCode":"ID","stateCode":"JI","latitude":-8.17211,"longitude":113.69953},{"name":"Jimbaran","countryCode":"ID","stateCode":"BA","latitude":-8.79093,"longitude":115.16006},{"name":"Jogonalan","countryCode":"ID","stateCode":"JT","latitude":-7.70361,"longitude":110.53611},{"name":"Jombang","countryCode":"ID","stateCode":"JI","latitude":-7.54595,"longitude":112.23307},{"name":"Juwana","countryCode":"ID","stateCode":"JT","latitude":-6.715,"longitude":111.1514},{"name":"Kabanjahe","countryCode":"ID","stateCode":"SU","latitude":3.1001,"longitude":98.4908},{"name":"Kabupaten Aceh Barat","countryCode":"ID","stateCode":"AC","latitude":4.45,"longitude":96.16667},{"name":"Kabupaten Aceh Barat Daya","countryCode":"ID","stateCode":"AC","latitude":3.83333,"longitude":96.88333},{"name":"Kabupaten Aceh Besar","countryCode":"ID","stateCode":"AC","latitude":5.38333,"longitude":95.51667},{"name":"Kabupaten Aceh Jaya","countryCode":"ID","stateCode":"AC","latitude":4.86,"longitude":95.64},{"name":"Kabupaten Aceh Selatan","countryCode":"ID","stateCode":"AC","latitude":3.16667,"longitude":97.41667},{"name":"Kabupaten Aceh Singkil","countryCode":"ID","stateCode":"AC","latitude":2.41667,"longitude":97.91667},{"name":"Kabupaten Aceh Tamiang","countryCode":"ID","stateCode":"AC","latitude":4.25,"longitude":97.96667},{"name":"Kabupaten Aceh Tengah","countryCode":"ID","stateCode":"AC","latitude":4.51,"longitude":96.855},{"name":"Kabupaten Aceh Tenggara","countryCode":"ID","stateCode":"AC","latitude":3.36667,"longitude":97.7},{"name":"Kabupaten Aceh Timur","countryCode":"ID","stateCode":"AC","latitude":4.63333,"longitude":97.63333},{"name":"Kabupaten Aceh Utara","countryCode":"ID","stateCode":"AC","latitude":4.97,"longitude":97.14},{"name":"Kabupaten Agam","countryCode":"ID","stateCode":"SB","latitude":-0.25,"longitude":100.16667},{"name":"Kabupaten Alor","countryCode":"ID","stateCode":"NT","latitude":-8.3,"longitude":124.56667},{"name":"Kabupaten Asahan","countryCode":"ID","stateCode":"SU","latitude":2.78333,"longitude":99.55},{"name":"Kabupaten Asmat","countryCode":"ID","stateCode":"PA","latitude":-5.3795,"longitude":138.46344},{"name":"Kabupaten Badung","countryCode":"ID","stateCode":"BA","latitude":-8.51667,"longitude":115.2},{"name":"Kabupaten Balangan","countryCode":"ID","stateCode":"KS","latitude":-2.32314,"longitude":115.62922},{"name":"Kabupaten Bandung","countryCode":"ID","stateCode":"JB","latitude":-7.1,"longitude":107.6},{"name":"Kabupaten Bandung Barat","countryCode":"ID","stateCode":"JB","latitude":-6.83333,"longitude":107.48333},{"name":"Kabupaten Banggai","countryCode":"ID","stateCode":"ST","latitude":-0.91141,"longitude":122.71836},{"name":"Kabupaten Banggai Kepulauan","countryCode":"ID","stateCode":"ST","latitude":-1.30236,"longitude":123.03726},{"name":"Kabupaten Banggai Laut","countryCode":"ID","stateCode":"ST","latitude":-1.61841,"longitude":123.49388},{"name":"Kabupaten Bangka","countryCode":"ID","stateCode":"BB","latitude":-1.91667,"longitude":105.93333},{"name":"Kabupaten Bangka Barat","countryCode":"ID","stateCode":"BB","latitude":-1.95839,"longitude":105.53741},{"name":"Kabupaten Bangka Selatan","countryCode":"ID","stateCode":"BB","latitude":-2.66803,"longitude":106.01257},{"name":"Kabupaten Bangka Tengah","countryCode":"ID","stateCode":"BB","latitude":-2.33989,"longitude":106.1142},{"name":"Kabupaten Bangkalan","countryCode":"ID","stateCode":"JI","latitude":-7.05,"longitude":112.93333},{"name":"Kabupaten Bangli","countryCode":"ID","stateCode":"BA","latitude":-8.28333,"longitude":115.35},{"name":"Kabupaten Banjar","countryCode":"ID","stateCode":"KS","latitude":-3.31667,"longitude":115.08333},{"name":"Kabupaten Banjarnegara","countryCode":"ID","stateCode":"JT","latitude":-7.35111,"longitude":109.5875},{"name":"Kabupaten Bantaeng","countryCode":"ID","stateCode":"SN","latitude":-5.48333,"longitude":119.98333},{"name":"Kabupaten Bantul","countryCode":"ID","stateCode":"YO","latitude":-7.9,"longitude":110.36667},{"name":"Kabupaten Banyumas","countryCode":"ID","stateCode":"JT","latitude":-7.45,"longitude":109.16667},{"name":"Kabupaten Banyuwangi","countryCode":"ID","stateCode":"JI","latitude":-8.33333,"longitude":114.2},{"name":"Kabupaten Barito Kuala","countryCode":"ID","stateCode":"KS","latitude":-3.08333,"longitude":114.61667},{"name":"Kabupaten Barito Selatan","countryCode":"ID","stateCode":"KT","latitude":-1.86667,"longitude":114.73333},{"name":"Kabupaten Barito Timur","countryCode":"ID","stateCode":"KT","latitude":-1.93333,"longitude":115.1},{"name":"Kabupaten Barito Utara","countryCode":"ID","stateCode":"KT","latitude":-0.98333,"longitude":115.1},{"name":"Kabupaten Barru","countryCode":"ID","stateCode":"SN","latitude":-4.43333,"longitude":119.68333},{"name":"Kabupaten Batang","countryCode":"ID","stateCode":"JT","latitude":-7.03333,"longitude":109.88333},{"name":"Kabupaten Batang Hari","countryCode":"ID","stateCode":"JA","latitude":-1.75,"longitude":103.11667},{"name":"Kabupaten Batu Bara","countryCode":"ID","stateCode":"SU","latitude":3.16166,"longitude":99.52652},{"name":"Kabupaten Bekasi","countryCode":"ID","stateCode":"JB","latitude":-6.24667,"longitude":107.10833},{"name":"Kabupaten Belitung","countryCode":"ID","stateCode":"BB","latitude":-2.86667,"longitude":107.7},{"name":"Kabupaten Belitung Timur","countryCode":"ID","stateCode":"BB","latitude":-2.9627,"longitude":108.15216},{"name":"Kabupaten Belu","countryCode":"ID","stateCode":"NT","latitude":-9.41258,"longitude":124.95066},{"name":"Kabupaten Bener Meriah","countryCode":"ID","stateCode":"AC","latitude":4.73015,"longitude":96.86156},{"name":"Kabupaten Bengkalis","countryCode":"ID","stateCode":"RI","latitude":0.9838,"longitude":102.5096},{"name":"Kabupaten Bengkulu Selatan","countryCode":"ID","stateCode":"BE","latitude":-4.35,"longitude":103.03333},{"name":"Kabupaten Bengkulu Tengah","countryCode":"ID","stateCode":"BE","latitude":-3.20679,"longitude":102.12616},{"name":"Kabupaten Bengkulu Utara","countryCode":"ID","stateCode":"BE","latitude":-3.33333,"longitude":102.05},{"name":"Kabupaten Berau","countryCode":"ID","stateCode":"KI","latitude":2,"longitude":117.3},{"name":"Kabupaten Biak Numfor","countryCode":"ID","stateCode":"PA","latitude":-1.03333,"longitude":136},{"name":"Kabupaten Bima","countryCode":"ID","stateCode":"NB","latitude":-8.6,"longitude":118.61667},{"name":"Kabupaten Bintan","countryCode":"ID","stateCode":"KR","latitude":0.95,"longitude":104.61944},{"name":"Kabupaten Bireuen","countryCode":"ID","stateCode":"AC","latitude":5.08333,"longitude":96.58333},{"name":"Kabupaten Blitar","countryCode":"ID","stateCode":"JI","latitude":-8.13333,"longitude":112.25},{"name":"Kabupaten Blora","countryCode":"ID","stateCode":"JT","latitude":-7.06667,"longitude":111.38333},{"name":"Kabupaten Boalemo","countryCode":"ID","stateCode":"GO","latitude":0.62689,"longitude":122.3568},{"name":"Kabupaten Bogor","countryCode":"ID","stateCode":"JB","latitude":-6.58333,"longitude":106.71667},{"name":"Kabupaten Bojonegoro","countryCode":"ID","stateCode":"JI","latitude":-7.25,"longitude":111.8},{"name":"Kabupaten Bolaang Mongondow","countryCode":"ID","stateCode":"SA","latitude":0.75,"longitude":124.08333},{"name":"Kabupaten Bolaang Mongondow Selatan","countryCode":"ID","stateCode":"SA","latitude":0.40912,"longitude":123.75961},{"name":"Kabupaten Bolaang Mongondow Timur","countryCode":"ID","stateCode":"SA","latitude":0.72073,"longitude":124.50256},{"name":"Kabupaten Bolaang Mongondow Utara","countryCode":"ID","stateCode":"SA","latitude":0.78527,"longitude":123.41766},{"name":"Kabupaten Bombana","countryCode":"ID","stateCode":"SG","latitude":-4.6257,"longitude":121.81641},{"name":"Kabupaten Bondowoso","countryCode":"ID","stateCode":"JI","latitude":-7.9404,"longitude":113.9834},{"name":"Kabupaten Bone","countryCode":"ID","stateCode":"SN","latitude":-4.7,"longitude":120.13333},{"name":"Kabupaten Bone Bolango","countryCode":"ID","stateCode":"GO","latitude":0.50296,"longitude":123.27501},{"name":"Kabupaten Boven Digoel","countryCode":"ID","stateCode":"PA","latitude":-5.70519,"longitude":140.36349},{"name":"Kabupaten Boyolali","countryCode":"ID","stateCode":"JT","latitude":-7.5,"longitude":110.7},{"name":"Kabupaten Brebes","countryCode":"ID","stateCode":"JT","latitude":-7.05,"longitude":108.9},{"name":"Kabupaten Buleleng","countryCode":"ID","stateCode":"BA","latitude":-8.25,"longitude":114.96667},{"name":"Kabupaten Bulukumba","countryCode":"ID","stateCode":"SN","latitude":-5.41667,"longitude":120.23333},{"name":"Kabupaten Bulungan","countryCode":"ID","stateCode":"KU","latitude":3,"longitude":117.16667},{"name":"Kabupaten Bungo","countryCode":"ID","stateCode":"JA","latitude":-1.50222,"longitude":101.96},{"name":"Kabupaten Buol","countryCode":"ID","stateCode":"ST","latitude":1.04656,"longitude":121.36867},{"name":"Kabupaten Buru","countryCode":"ID","stateCode":"MA","latitude":-3.32767,"longitude":126.68413},{"name":"Kabupaten Buru Selatan","countryCode":"ID","stateCode":"MA","latitude":-3.52187,"longitude":126.59271},{"name":"Kabupaten Buton","countryCode":"ID","stateCode":"SG","latitude":-5.31667,"longitude":122.91667},{"name":"Kabupaten Buton Selatan","countryCode":"ID","stateCode":"SG","latitude":-5.56667,"longitude":122.7},{"name":"Kabupaten Buton Tengah","countryCode":"ID","stateCode":"SG","latitude":-5.31667,"longitude":122.33333},{"name":"Kabupaten Buton Utara","countryCode":"ID","stateCode":"SG","latitude":-5.01457,"longitude":122.93015},{"name":"Kabupaten Ciamis","countryCode":"ID","stateCode":"JB","latitude":-7.28333,"longitude":108.41667},{"name":"Kabupaten Cianjur","countryCode":"ID","stateCode":"JB","latitude":-6.7725,"longitude":107.08306},{"name":"Kabupaten Cilacap","countryCode":"ID","stateCode":"JT","latitude":-7.57417,"longitude":108.98861},{"name":"Kabupaten Cirebon","countryCode":"ID","stateCode":"JB","latitude":-6.8,"longitude":108.56667},{"name":"Kabupaten Dairi","countryCode":"ID","stateCode":"SU","latitude":2.86667,"longitude":98.23333},{"name":"Kabupaten Deiyai","countryCode":"ID","stateCode":"PA","latitude":-3.94737,"longitude":135.95032},{"name":"Kabupaten Deli Serdang","countryCode":"ID","stateCode":"SU","latitude":3.41667,"longitude":98.66667},{"name":"Kabupaten Demak","countryCode":"ID","stateCode":"JT","latitude":-6.8993,"longitude":110.6122},{"name":"Kabupaten Dharmasraya","countryCode":"ID","stateCode":"SB","latitude":-1.05,"longitude":101.367},{"name":"Kabupaten Dogiyai","countryCode":"ID","stateCode":"PA","latitude":-4.03186,"longitude":135.43945},{"name":"Kabupaten Dompu","countryCode":"ID","stateCode":"NB","latitude":-8.5094,"longitude":118.4816},{"name":"Kabupaten Donggala","countryCode":"ID","stateCode":"ST","latitude":-0.58333,"longitude":119.85},{"name":"Kabupaten Empat Lawang","countryCode":"ID","stateCode":"SS","latitude":3.22667,"longitude":99.09256},{"name":"Kabupaten Ende","countryCode":"ID","stateCode":"NT","latitude":-8.84056,"longitude":121.66389},{"name":"Kabupaten Enrekang","countryCode":"ID","stateCode":"SN","latitude":-3.5,"longitude":119.86667},{"name":"Kabupaten Fakfak","countryCode":"ID","stateCode":"PB","latitude":-2.92641,"longitude":132.29608},{"name":"Kabupaten Flores Timur","countryCode":"ID","stateCode":"NT","latitude":-8.24224,"longitude":122.96817},{"name":"Kabupaten Garut","countryCode":"ID","stateCode":"JB","latitude":-7.38333,"longitude":107.76667},{"name":"Kabupaten Gayo Lues","countryCode":"ID","stateCode":"AC","latitude":3.95,"longitude":97.39},{"name":"Kabupaten Gianyar","countryCode":"ID","stateCode":"BA","latitude":-8.46667,"longitude":115.28333},{"name":"Kabupaten Gorontalo","countryCode":"ID","stateCode":"GO","latitude":0.5728,"longitude":122.2337},{"name":"Kabupaten Gorontalo Utara","countryCode":"ID","stateCode":"GO","latitude":0.77,"longitude":122.31667},{"name":"Kabupaten Gowa","countryCode":"ID","stateCode":"SN","latitude":-5.31667,"longitude":119.75},{"name":"Kabupaten Grobogan","countryCode":"ID","stateCode":"JT","latitude":-7.11667,"longitude":110.91667},{"name":"Kabupaten Gunung Kidul","countryCode":"ID","stateCode":"YO","latitude":-7.98333,"longitude":110.61667},{"name":"Kabupaten Gunung Mas","countryCode":"ID","stateCode":"KT","latitude":-0.95,"longitude":113.5},{"name":"Kabupaten Halmahera Barat","countryCode":"ID","stateCode":"MU","latitude":1.41709,"longitude":127.55264},{"name":"Kabupaten Halmahera Selatan","countryCode":"ID","stateCode":"MU","latitude":-0.3955,"longitude":127.90833},{"name":"Kabupaten Halmahera Tengah","countryCode":"ID","stateCode":"MU","latitude":0.48056,"longitude":128.25},{"name":"Kabupaten Halmahera Utara","countryCode":"ID","stateCode":"MU","latitude":1.73194,"longitude":128.00778},{"name":"Kabupaten Hulu Sungai Selatan","countryCode":"ID","stateCode":"KS","latitude":-2.75,"longitude":115.2},{"name":"Kabupaten Hulu Sungai Tengah","countryCode":"ID","stateCode":"KS","latitude":-2.61667,"longitude":115.41667},{"name":"Kabupaten Hulu Sungai Utara","countryCode":"ID","stateCode":"KS","latitude":-2.45,"longitude":115.13333},{"name":"Kabupaten Humbang Hasundutan","countryCode":"ID","stateCode":"SU","latitude":2.26551,"longitude":98.50376},{"name":"Kabupaten Indragiri Hilir","countryCode":"ID","stateCode":"RI","latitude":-0.33333,"longitude":103.16667},{"name":"Kabupaten Indragiri Hulu","countryCode":"ID","stateCode":"RI","latitude":-0.55,"longitude":102.31667},{"name":"Kabupaten Indramayu","countryCode":"ID","stateCode":"JB","latitude":-6.45,"longitude":108.16667},{"name":"Kabupaten Intan Jaya","countryCode":"ID","stateCode":"PA","latitude":-3.41016,"longitude":136.70837},{"name":"Kabupaten Jayapura","countryCode":"ID","stateCode":"PA","latitude":-3,"longitude":139.95},{"name":"Kabupaten Jayawijaya","countryCode":"ID","stateCode":"PA","latitude":-4.08333,"longitude":139.08333},{"name":"Kabupaten Jember","countryCode":"ID","stateCode":"JI","latitude":-8.25,"longitude":113.65},{"name":"Kabupaten Jembrana","countryCode":"ID","stateCode":"BA","latitude":-8.3,"longitude":114.66667},{"name":"Kabupaten Jeneponto","countryCode":"ID","stateCode":"SN","latitude":-5.63333,"longitude":119.73333},{"name":"Kabupaten Jepara","countryCode":"ID","stateCode":"JT","latitude":-6.58333,"longitude":110.76667},{"name":"Kabupaten Jombang","countryCode":"ID","stateCode":"JI","latitude":-7.55,"longitude":112.25},{"name":"Kabupaten Kaimana","countryCode":"ID","stateCode":"PB","latitude":-3.66093,"longitude":133.77451},{"name":"Kabupaten Kampar","countryCode":"ID","stateCode":"RI","latitude":0.2344,"longitude":101.2131},{"name":"Kabupaten Kapuas","countryCode":"ID","stateCode":"KT","latitude":-2.01667,"longitude":114.38333},{"name":"Kabupaten Karang Asem","countryCode":"ID","stateCode":"BA","latitude":-8.3891,"longitude":115.5393},{"name":"Kabupaten Karanganyar","countryCode":"ID","stateCode":"JT","latitude":-7.62806,"longitude":111.0625},{"name":"Kabupaten Karawang","countryCode":"ID","stateCode":"JB","latitude":-6.26667,"longitude":107.41667},{"name":"Kabupaten Karimun","countryCode":"ID","stateCode":"KR","latitude":0.80764,"longitude":103.41911},{"name":"Kabupaten Karo","countryCode":"ID","stateCode":"SU","latitude":3.11667,"longitude":98.3},{"name":"Kabupaten Katingan","countryCode":"ID","stateCode":"KT","latitude":-2.06667,"longitude":113.4},{"name":"Kabupaten Kaur","countryCode":"ID","stateCode":"BE","latitude":-4.78179,"longitude":103.36109},{"name":"Kabupaten Kebumen","countryCode":"ID","stateCode":"JT","latitude":-7.63917,"longitude":109.66056},{"name":"Kabupaten Kediri","countryCode":"ID","stateCode":"JI","latitude":-7.83333,"longitude":112.16667},{"name":"Kabupaten Keerom","countryCode":"ID","stateCode":"PA","latitude":-3.3,"longitude":140.61667},{"name":"Kabupaten Kendal","countryCode":"ID","stateCode":"JT","latitude":-7.0256,"longitude":110.1685},{"name":"Kabupaten Kepahiang","countryCode":"ID","stateCode":"BE","latitude":-3.60194,"longitude":102.56424},{"name":"Kabupaten Kepulauan Anambas","countryCode":"ID","stateCode":"KR","latitude":3,"longitude":106},{"name":"Kabupaten Kepulauan Aru","countryCode":"ID","stateCode":"MA","latitude":-6.17059,"longitude":134.46991},{"name":"Kabupaten Kepulauan Mentawai","countryCode":"ID","stateCode":"SB","latitude":1.98917,"longitude":99.51889},{"name":"Kabupaten Kepulauan Meranti","countryCode":"ID","stateCode":"RI","latitude":0.97488,"longitude":102.69539},{"name":"Kabupaten Kepulauan Sangihe","countryCode":"ID","stateCode":"SA","latitude":3.5,"longitude":125.55},{"name":"Kabupaten Kepulauan Sula","countryCode":"ID","stateCode":"MU","latitude":-1.8646,"longitude":125.69046},{"name":"Kabupaten Kepulauan Talaud","countryCode":"ID","stateCode":"SA","latitude":4.31178,"longitude":126.78085},{"name":"Kabupaten Kepulauan Yapen","countryCode":"ID","stateCode":"PA","latitude":-1.78773,"longitude":136.27716},{"name":"Kabupaten Kerinci","countryCode":"ID","stateCode":"JA","latitude":-2.03333,"longitude":101.53333},{"name":"Kabupaten Klaten","countryCode":"ID","stateCode":"JT","latitude":-7.68333,"longitude":110.61667},{"name":"Kabupaten Klungkung","countryCode":"ID","stateCode":"BA","latitude":-8.55,"longitude":115.4},{"name":"Kabupaten Kolaka","countryCode":"ID","stateCode":"SG","latitude":-4.08333,"longitude":121.66667},{"name":"Kabupaten Kolaka Timur","countryCode":"ID","stateCode":"SG","latitude":-4.01807,"longitude":121.86172},{"name":"Kabupaten Kolaka Utara","countryCode":"ID","stateCode":"SG","latitude":-3.10452,"longitude":121.12427},{"name":"Kabupaten Konawe","countryCode":"ID","stateCode":"SG","latitude":-3.91717,"longitude":122.08823},{"name":"Kabupaten Konawe Kepulauan","countryCode":"ID","stateCode":"SG","latitude":-4.11656,"longitude":123.10181},{"name":"Kabupaten Konawe Selatan","countryCode":"ID","stateCode":"SG","latitude":-4.19191,"longitude":122.44854},{"name":"Kabupaten Konawe Utara","countryCode":"ID","stateCode":"SG","latitude":-3.41552,"longitude":121.99081},{"name":"Kabupaten Kota Baru","countryCode":"ID","stateCode":"KS","latitude":-3,"longitude":116},{"name":"Kabupaten Kotawaringin Barat","countryCode":"ID","stateCode":"KT","latitude":-2.4,"longitude":111.73333},{"name":"Kabupaten Kotawaringin Timur","countryCode":"ID","stateCode":"KT","latitude":-2.08333,"longitude":112.75},{"name":"Kabupaten Kuantan Singingi","countryCode":"ID","stateCode":"RI","latitude":-0.47532,"longitude":101.45857},{"name":"Kabupaten Kudus","countryCode":"ID","stateCode":"JT","latitude":-6.8,"longitude":110.86667},{"name":"Kabupaten Kulon Progo","countryCode":"ID","stateCode":"YO","latitude":-7.645,"longitude":110.02694},{"name":"Kabupaten Kuningan","countryCode":"ID","stateCode":"JB","latitude":-7,"longitude":108.55},{"name":"Kabupaten Kupang","countryCode":"ID","stateCode":"NT","latitude":-9.91667,"longitude":123.83333},{"name":"Kabupaten Kutai Barat","countryCode":"ID","stateCode":"KI","latitude":-0.59417,"longitude":115.51575},{"name":"Kabupaten Kutai Kartanegara","countryCode":"ID","stateCode":"KI","latitude":-0.44019,"longitude":116.98139},{"name":"Kabupaten Kutai Timur","countryCode":"ID","stateCode":"KI","latitude":1.03769,"longitude":117.83112},{"name":"Kabupaten Labuhan Batu","countryCode":"ID","stateCode":"SU","latitude":2.26667,"longitude":100.1},{"name":"Kabupaten Labuhan Batu Selatan","countryCode":"ID","stateCode":"SU","latitude":1.983,"longitude":100.0976},{"name":"Kabupaten Labuhan Batu Utara","countryCode":"ID","stateCode":"SU","latitude":2.33349,"longitude":99.63776},{"name":"Kabupaten Lamandau","countryCode":"ID","stateCode":"KT","latitude":-1.83828,"longitude":111.2869},{"name":"Kabupaten Lamongan","countryCode":"ID","stateCode":"JI","latitude":-7.13333,"longitude":112.31667},{"name":"Kabupaten Lampung Barat","countryCode":"ID","stateCode":"LA","latitude":-5.14904,"longitude":104.19309},{"name":"Kabupaten Lampung Selatan","countryCode":"ID","stateCode":"LA","latitude":-5.4531,"longitude":104.9877},{"name":"Kabupaten Lampung Tengah","countryCode":"ID","stateCode":"LA","latitude":-4.86667,"longitude":105.26667},{"name":"Kabupaten Lampung Timur","countryCode":"ID","stateCode":"LA","latitude":-5.10273,"longitude":105.68003},{"name":"Kabupaten Lampung Utara","countryCode":"ID","stateCode":"LA","latitude":-4.81667,"longitude":104.8},{"name":"Kabupaten Langkat","countryCode":"ID","stateCode":"SU","latitude":3.71667,"longitude":98.21667},{"name":"Kabupaten Lanny Jaya","countryCode":"ID","stateCode":"PA","latitude":-3.91244,"longitude":138.28766},{"name":"Kabupaten Lebak","countryCode":"ID","stateCode":"BT","latitude":-6.65,"longitude":106.21667},{"name":"Kabupaten Lebong","countryCode":"ID","stateCode":"BE","latitude":-3.24278,"longitude":102.3349},{"name":"Kabupaten Lembata","countryCode":"ID","stateCode":"NT","latitude":-8.41396,"longitude":123.55225},{"name":"Kabupaten Lima Puluh Kota","countryCode":"ID","stateCode":"SB","latitude":-0.0168,"longitude":100.5872},{"name":"Kabupaten Lingga","countryCode":"ID","stateCode":"KR","latitude":0.2,"longitude":104.61667},{"name":"Kabupaten Lombok Barat","countryCode":"ID","stateCode":"NB","latitude":-8.69583,"longitude":116.11667},{"name":"Kabupaten Lombok Tengah","countryCode":"ID","stateCode":"NB","latitude":-8.7,"longitude":116.3},{"name":"Kabupaten Lombok Timur","countryCode":"ID","stateCode":"NB","latitude":-8.53333,"longitude":116.53333},{"name":"Kabupaten Lombok Utara","countryCode":"ID","stateCode":"NB","latitude":-8.35214,"longitude":116.40152},{"name":"Kabupaten Lumajang","countryCode":"ID","stateCode":"JI","latitude":-8.11667,"longitude":113.15},{"name":"Kabupaten Luwu","countryCode":"ID","stateCode":"SN","latitude":-2.5577,"longitude":121.3242},{"name":"Kabupaten Luwu Timur","countryCode":"ID","stateCode":"SN","latitude":-2.50957,"longitude":120.3978},{"name":"Kabupaten Luwu Utara","countryCode":"ID","stateCode":"SN","latitude":-2.6,"longitude":120.25},{"name":"Kabupaten Madiun","countryCode":"ID","stateCode":"JI","latitude":-7.61667,"longitude":111.65},{"name":"Kabupaten Magelang","countryCode":"ID","stateCode":"JT","latitude":-7.4275,"longitude":110.16194},{"name":"Kabupaten Magetan","countryCode":"ID","stateCode":"JI","latitude":-7.64472,"longitude":111.35917},{"name":"Kabupaten Mahakam Hulu","countryCode":"ID","stateCode":"KI","latitude":0.37822,"longitude":115.38048},{"name":"Kabupaten Majalengka","countryCode":"ID","stateCode":"JB","latitude":-6.81667,"longitude":108.28333},{"name":"Kabupaten Majene","countryCode":"ID","stateCode":"SR","latitude":-3.15,"longitude":118.86667},{"name":"Kabupaten Malaka","countryCode":"ID","stateCode":"NT","latitude":-9.5632,"longitude":124.89481},{"name":"Kabupaten Malang","countryCode":"ID","stateCode":"JI","latitude":-8.16667,"longitude":112.66667},{"name":"Kabupaten Malinau","countryCode":"ID","stateCode":"KU","latitude":2.45,"longitude":115.68333},{"name":"Kabupaten Maluku Barat Daya","countryCode":"ID","stateCode":"MA","latitude":-7.8296,"longitude":126.17386},{"name":"Kabupaten Maluku Tengah","countryCode":"ID","stateCode":"MA","latitude":-3.29167,"longitude":128.9675},{"name":"Kabupaten Maluku Tenggara","countryCode":"ID","stateCode":"MA","latitude":-5.75,"longitude":132.73333},{"name":"Kabupaten Maluku Tenggara Barat","countryCode":"ID","stateCode":"MA","latitude":-7.61186,"longitude":131.38},{"name":"Kabupaten Mamasa","countryCode":"ID","stateCode":"SR","latitude":-2.96492,"longitude":119.30631},{"name":"Kabupaten Mamberamo Raya","countryCode":"ID","stateCode":"PA","latitude":-2.23561,"longitude":137.78229},{"name":"Kabupaten Mamberamo Tengah","countryCode":"ID","stateCode":"PA","latitude":-2.46064,"longitude":138.45245},{"name":"Kabupaten Mamuju","countryCode":"ID","stateCode":"SR","latitude":-2.5,"longitude":119.41667},{"name":"Kabupaten Mamuju Tengah","countryCode":"ID","stateCode":"SR","latitude":-2.8212,"longitude":119.2662},{"name":"Kabupaten Mamuju Utara","countryCode":"ID","stateCode":"SR","latitude":-1.51639,"longitude":119.42139},{"name":"Kabupaten Mandailing Natal","countryCode":"ID","stateCode":"SU","latitude":0.78378,"longitude":99.25495},{"name":"Kabupaten Manggarai","countryCode":"ID","stateCode":"NT","latitude":-8.56667,"longitude":120.41667},{"name":"Kabupaten Manggarai Barat","countryCode":"ID","stateCode":"NT","latitude":-8.64484,"longitude":119.88281},{"name":"Kabupaten Manggarai Timur","countryCode":"ID","stateCode":"NT","latitude":-8.55533,"longitude":120.59761},{"name":"Kabupaten Manokwari","countryCode":"ID","stateCode":"PB","latitude":-0.9,"longitude":133.75},{"name":"Kabupaten Manokwari Selatan","countryCode":"ID","stateCode":"PB","latitude":-1.0798,"longitude":133.96729},{"name":"Kabupaten Mappi","countryCode":"ID","stateCode":"PA","latitude":-6.49971,"longitude":139.34441},{"name":"Kabupaten Maros","countryCode":"ID","stateCode":"SN","latitude":-5.05,"longitude":119.71667},{"name":"Kabupaten Maybrat","countryCode":"ID","stateCode":"PB","latitude":-1.2155,"longitude":132.35092},{"name":"Kabupaten Merangin","countryCode":"ID","stateCode":"JA","latitude":-2.06933,"longitude":102.13303},{"name":"Kabupaten Merauke","countryCode":"ID","stateCode":"PA","latitude":-7.66667,"longitude":139.66667},{"name":"Kabupaten Mesuji","countryCode":"ID","stateCode":"LA","latitude":-4.0439,"longitude":105.4013},{"name":"Kabupaten Mimika","countryCode":"ID","stateCode":"PA","latitude":-4.54357,"longitude":136.56555},{"name":"Kabupaten Minahasa","countryCode":"ID","stateCode":"SA","latitude":1.2537,"longitude":124.83},{"name":"Kabupaten Minahasa Selatan","countryCode":"ID","stateCode":"SA","latitude":1.21291,"longitude":124.59708},{"name":"Kabupaten Minahasa Tenggara","countryCode":"ID","stateCode":"SA","latitude":1.05633,"longitude":124.7925},{"name":"Kabupaten Minahasa Utara","countryCode":"ID","stateCode":"SA","latitude":1.4025,"longitude":124.96},{"name":"Kabupaten Mojokerto","countryCode":"ID","stateCode":"JI","latitude":-7.55,"longitude":112.5},{"name":"Kabupaten Morowali Utara","countryCode":"ID","stateCode":"ST","latitude":-1.7207,"longitude":121.24649},{"name":"Kabupaten Muara Enim","countryCode":"ID","stateCode":"SS","latitude":-4.2327,"longitude":103.6141},{"name":"Kabupaten Muaro Jambi","countryCode":"ID","stateCode":"JA","latitude":-1.55214,"longitude":103.82163},{"name":"Kabupaten Mukomuko","countryCode":"ID","stateCode":"BE","latitude":-3.07438,"longitude":101.54766},{"name":"Kabupaten Muna","countryCode":"ID","stateCode":"SG","latitude":-4.96667,"longitude":122.66667},{"name":"Kabupaten Muna Barat","countryCode":"ID","stateCode":"SG","latitude":-4.83333,"longitude":122.48333},{"name":"Kabupaten Murung Raya","countryCode":"ID","stateCode":"KT","latitude":-0.01667,"longitude":114.26667},{"name":"Kabupaten Musi Banyuasin","countryCode":"ID","stateCode":"SS","latitude":-2.41667,"longitude":103.75},{"name":"Kabupaten Musi Rawas","countryCode":"ID","stateCode":"SS","latitude":-3.08333,"longitude":103.2},{"name":"Kabupaten Musi Rawas Utara","countryCode":"ID","stateCode":"SS","latitude":-2.48533,"longitude":103.29346},{"name":"Kabupaten Nabire","countryCode":"ID","stateCode":"PA","latitude":-3.54016,"longitude":135.55511},{"name":"Kabupaten Nagan Raya","countryCode":"ID","stateCode":"AC","latitude":4.16667,"longitude":96.51667},{"name":"Kabupaten Nagekeo","countryCode":"ID","stateCode":"NT","latitude":-8.8721,"longitude":121.20963},{"name":"Kabupaten Natuna","countryCode":"ID","stateCode":"KR","latitude":4.71417,"longitude":107.97639},{"name":"Kabupaten Nduga","countryCode":"ID","stateCode":"PA","latitude":-4.45093,"longitude":138.10089},{"name":"Kabupaten Ngada","countryCode":"ID","stateCode":"NT","latitude":-8.66667,"longitude":121},{"name":"Kabupaten Nganjuk","countryCode":"ID","stateCode":"JI","latitude":-7.6,"longitude":111.93333},{"name":"Kabupaten Ngawi","countryCode":"ID","stateCode":"JI","latitude":-7.47444,"longitude":111.33444},{"name":"Kabupaten Nias","countryCode":"ID","stateCode":"SU","latitude":1.03333,"longitude":97.76667},{"name":"Kabupaten Nias Barat","countryCode":"ID","stateCode":"SU","latitude":1.05966,"longitude":97.58606},{"name":"Kabupaten Nias Utara","countryCode":"ID","stateCode":"SU","latitude":1.33037,"longitude":97.31964},{"name":"Kabupaten Nunukan","countryCode":"ID","stateCode":"KU","latitude":4.13333,"longitude":116.7},{"name":"Kabupaten Ogan Ilir","countryCode":"ID","stateCode":"SS","latitude":-3.43186,"longitude":104.62727},{"name":"Kabupaten Ogan Komering Ilir","countryCode":"ID","stateCode":"SS","latitude":-3.36667,"longitude":105.36667},{"name":"Kabupaten Ogan Komering Ulu","countryCode":"ID","stateCode":"SS","latitude":-4.13333,"longitude":104.03333},{"name":"Kabupaten Ogan Komering Ulu Selatan","countryCode":"ID","stateCode":"SS","latitude":-4.65728,"longitude":104.00659},{"name":"Kabupaten Ogan Komering Ulu Timur","countryCode":"ID","stateCode":"SS","latitude":-3.85679,"longitude":104.75209},{"name":"Kabupaten Pacitan","countryCode":"ID","stateCode":"JI","latitude":-8.13333,"longitude":111.16667},{"name":"Kabupaten Padang Lawas","countryCode":"ID","stateCode":"SU","latitude":1.44684,"longitude":99.99207},{"name":"Kabupaten Padang Lawas Utara","countryCode":"ID","stateCode":"SU","latitude":1.46011,"longitude":99.67346},{"name":"Kabupaten Padang Pariaman","countryCode":"ID","stateCode":"SB","latitude":-0.6,"longitude":100.28333},{"name":"Kabupaten Pakpak Bharat","countryCode":"ID","stateCode":"SU","latitude":2.56667,"longitude":98.28333},{"name":"Kabupaten Pamekasan","countryCode":"ID","stateCode":"JI","latitude":-7.06667,"longitude":113.5},{"name":"Kabupaten Pandeglang","countryCode":"ID","stateCode":"BT","latitude":-6.63333,"longitude":105.75},{"name":"Kabupaten Pangandaran","countryCode":"ID","stateCode":"JB","latitude":-7.6673,"longitude":108.64037},{"name":"Kabupaten Pangkajene Dan Kepulauan","countryCode":"ID","stateCode":"SN","latitude":-4.7827,"longitude":119.5506},{"name":"Kabupaten Paniai","countryCode":"ID","stateCode":"PA","latitude":-3.9,"longitude":136.6},{"name":"Kabupaten Parigi Moutong","countryCode":"ID","stateCode":"ST","latitude":0.3368,"longitude":120.17841},{"name":"Kabupaten Pasaman","countryCode":"ID","stateCode":"SB","latitude":0.42503,"longitude":99.94606},{"name":"Kabupaten Pasaman Barat","countryCode":"ID","stateCode":"SB","latitude":0.28152,"longitude":99.51965},{"name":"Kabupaten Paser","countryCode":"ID","stateCode":"KI","latitude":-1.43517,"longitude":116.23535},{"name":"Kabupaten Pasuruan","countryCode":"ID","stateCode":"JI","latitude":-7.73333,"longitude":112.83333},{"name":"Kabupaten Pati","countryCode":"ID","stateCode":"JT","latitude":-6.76667,"longitude":111.1},{"name":"Kabupaten Pegunungan Bintang","countryCode":"ID","stateCode":"PA","latitude":-4.52167,"longitude":140.29541},{"name":"Kabupaten Pekalongan","countryCode":"ID","stateCode":"JT","latitude":-7.0319,"longitude":109.624},{"name":"Kabupaten Pelalawan","countryCode":"ID","stateCode":"RI","latitude":0.20822,"longitude":102.18607},{"name":"Kabupaten Pemalang","countryCode":"ID","stateCode":"JT","latitude":-7.03333,"longitude":109.4},{"name":"Kabupaten Penajam Paser Utara","countryCode":"ID","stateCode":"KI","latitude":-1.25,"longitude":116.83333},{"name":"Kabupaten Penukal Abab Lematang Ilir","countryCode":"ID","stateCode":"SS","latitude":-3.21342,"longitude":104.08722},{"name":"Kabupaten Pesawaran","countryCode":"ID","stateCode":"LA","latitude":-5.4298,"longitude":105.17899},{"name":"Kabupaten Pesisir Barat","countryCode":"ID","stateCode":"LA","latitude":-5.19323,"longitude":103.93976},{"name":"Kabupaten Pesisir Selatan","countryCode":"ID","stateCode":"SB","latitude":-1.58333,"longitude":100.85},{"name":"Kabupaten Pidie","countryCode":"ID","stateCode":"AC","latitude":5.08,"longitude":96.11},{"name":"Kabupaten Pinrang","countryCode":"ID","stateCode":"SN","latitude":-3.61667,"longitude":119.6},{"name":"Kabupaten Pohuwato","countryCode":"ID","stateCode":"GO","latitude":0.7098,"longitude":121.59582},{"name":"Kabupaten Polewali Mandar","countryCode":"ID","stateCode":"SR","latitude":-3.3,"longitude":119.16667},{"name":"Kabupaten Ponorogo","countryCode":"ID","stateCode":"JI","latitude":-7.93333,"longitude":111.5},{"name":"Kabupaten Poso","countryCode":"ID","stateCode":"ST","latitude":-1.65,"longitude":120.5},{"name":"Kabupaten Pringsewu","countryCode":"ID","stateCode":"LA","latitude":-5.42211,"longitude":104.93454},{"name":"Kabupaten Probolinggo","countryCode":"ID","stateCode":"JI","latitude":-7.86667,"longitude":113.31667},{"name":"Kabupaten Pulang Pisau","countryCode":"ID","stateCode":"KT","latitude":-3.11858,"longitude":113.8623},{"name":"Kabupaten Pulau Morotai","countryCode":"ID","stateCode":"MU","latitude":2.19924,"longitude":128.40546},{"name":"Kabupaten Pulau Taliabu","countryCode":"ID","stateCode":"MU","latitude":-1.84578,"longitude":124.78992},{"name":"Kabupaten Puncak Jaya","countryCode":"ID","stateCode":"PA","latitude":-3.67241,"longitude":137.43896},{"name":"Kabupaten Purbalingga","countryCode":"ID","stateCode":"JT","latitude":-7.28417,"longitude":109.35028},{"name":"Kabupaten Purwakarta","countryCode":"ID","stateCode":"JB","latitude":-6.58333,"longitude":107.45},{"name":"Kabupaten Purworejo","countryCode":"ID","stateCode":"JT","latitude":-7.7,"longitude":109.96667},{"name":"Kabupaten Raja Ampat","countryCode":"ID","stateCode":"PB","latitude":-0.5,"longitude":130},{"name":"Kabupaten Rejang Lebong","countryCode":"ID","stateCode":"BE","latitude":-3.43333,"longitude":102.71667},{"name":"Kabupaten Rembang","countryCode":"ID","stateCode":"JT","latitude":-6.78333,"longitude":111.46667},{"name":"Kabupaten Rokan Hilir","countryCode":"ID","stateCode":"RI","latitude":2.16599,"longitude":100.82514},{"name":"Kabupaten Rokan Hulu","countryCode":"ID","stateCode":"RI","latitude":0.88333,"longitude":100.48333},{"name":"Kabupaten Rote Ndao","countryCode":"ID","stateCode":"NT","latitude":-10.73617,"longitude":123.12054},{"name":"Kabupaten Sabu Raijua","countryCode":"ID","stateCode":"NT","latitude":-10.56286,"longitude":121.78894},{"name":"Kabupaten Samosir","countryCode":"ID","stateCode":"SU","latitude":2.64025,"longitude":98.71525},{"name":"Kabupaten Sampang","countryCode":"ID","stateCode":"JI","latitude":-7.05,"longitude":113.25},{"name":"Kabupaten Sarmi","countryCode":"ID","stateCode":"PA","latitude":-2.41667,"longitude":139.08333},{"name":"Kabupaten Sarolangun","countryCode":"ID","stateCode":"JA","latitude":-2.3,"longitude":102.65},{"name":"Kabupaten Seluma","countryCode":"ID","stateCode":"BE","latitude":-3.96644,"longitude":102.47429},{"name":"Kabupaten Semarang","countryCode":"ID","stateCode":"JT","latitude":-7.20667,"longitude":110.44139},{"name":"Kabupaten Seram Bagian Barat","countryCode":"ID","stateCode":"MA","latitude":-3.1027,"longitude":128.42996},{"name":"Kabupaten Seram Bagian Timur","countryCode":"ID","stateCode":"MA","latitude":-3.39851,"longitude":130.39167},{"name":"Kabupaten Serang","countryCode":"ID","stateCode":"BT","latitude":-6.15,"longitude":106},{"name":"Kabupaten Serdang Bedagai","countryCode":"ID","stateCode":"SU","latitude":3.36667,"longitude":99.03333},{"name":"Kabupaten Seruyan","countryCode":"ID","stateCode":"KT","latitude":-2.33333,"longitude":112.25},{"name":"Kabupaten Siak","countryCode":"ID","stateCode":"RI","latitude":0.97453,"longitude":102.01355},{"name":"Kabupaten Siau Tagulandang Biaro","countryCode":"ID","stateCode":"SA","latitude":2.11728,"longitude":125.37512},{"name":"Kabupaten Sidenreng Rappang","countryCode":"ID","stateCode":"SN","latitude":-3.85,"longitude":119.96667},{"name":"Kabupaten Sidoarjo","countryCode":"ID","stateCode":"JI","latitude":-7.45,"longitude":112.7},{"name":"Kabupaten Sigi","countryCode":"ID","stateCode":"ST","latitude":-1.385,"longitude":119.96694},{"name":"Kabupaten Sijunjung","countryCode":"ID","stateCode":"SB","latitude":-1.1827,"longitude":101.6056},{"name":"Kabupaten Sikka","countryCode":"ID","stateCode":"NT","latitude":-8.66667,"longitude":122.36667},{"name":"Kabupaten Simalungun","countryCode":"ID","stateCode":"SU","latitude":2.9,"longitude":99},{"name":"Kabupaten Simeulue","countryCode":"ID","stateCode":"AC","latitude":2.61667,"longitude":96.08333},{"name":"Kabupaten Sinjai","countryCode":"ID","stateCode":"SN","latitude":-5.21667,"longitude":120.15},{"name":"Kabupaten Situbondo","countryCode":"ID","stateCode":"JI","latitude":-7.71667,"longitude":114.05},{"name":"Kabupaten Sleman","countryCode":"ID","stateCode":"YO","latitude":-7.68167,"longitude":110.32333},{"name":"Kabupaten Solok","countryCode":"ID","stateCode":"SB","latitude":-0.96667,"longitude":100.81667},{"name":"Kabupaten Solok Selatan","countryCode":"ID","stateCode":"SB","latitude":-1.23333,"longitude":101.417},{"name":"Kabupaten Soppeng","countryCode":"ID","stateCode":"SN","latitude":-4.3842,"longitude":119.89},{"name":"Kabupaten Sorong","countryCode":"ID","stateCode":"PB","latitude":-1.16667,"longitude":131.5},{"name":"Kabupaten Sorong Selatan","countryCode":"ID","stateCode":"PB","latitude":-1.50495,"longitude":132.28638},{"name":"Kabupaten Sragen","countryCode":"ID","stateCode":"JT","latitude":-7.41278,"longitude":110.935},{"name":"Kabupaten Subang","countryCode":"ID","stateCode":"JB","latitude":-6.50833,"longitude":107.7025},{"name":"Kabupaten Sukabumi","countryCode":"ID","stateCode":"JB","latitude":-7.06667,"longitude":106.7},{"name":"Kabupaten Sukamara","countryCode":"ID","stateCode":"KT","latitude":-2.62675,"longitude":111.23681},{"name":"Kabupaten Sukoharjo","countryCode":"ID","stateCode":"JT","latitude":-7.68333,"longitude":110.83333},{"name":"Kabupaten Sumba Barat","countryCode":"ID","stateCode":"NT","latitude":-9.56667,"longitude":119.45},{"name":"Kabupaten Sumba Barat Daya","countryCode":"ID","stateCode":"NT","latitude":-9.56216,"longitude":119.08905},{"name":"Kabupaten Sumba Tengah","countryCode":"ID","stateCode":"NT","latitude":-9.62941,"longitude":119.61914},{"name":"Kabupaten Sumba Timur","countryCode":"ID","stateCode":"NT","latitude":-9.88333,"longitude":120.25},{"name":"Kabupaten Sumbawa","countryCode":"ID","stateCode":"NB","latitude":-8.7439,"longitude":117.3324},{"name":"Kabupaten Sumbawa Barat","countryCode":"ID","stateCode":"NB","latitude":-8.75159,"longitude":116.92132},{"name":"Kabupaten Sumedang","countryCode":"ID","stateCode":"JB","latitude":-6.81667,"longitude":107.98333},{"name":"Kabupaten Sumenep","countryCode":"ID","stateCode":"JI","latitude":-7.11667,"longitude":114.33333},{"name":"Kabupaten Supiori","countryCode":"ID","stateCode":"PA","latitude":-0.73881,"longitude":135.61111},{"name":"Kabupaten Tabalong","countryCode":"ID","stateCode":"KS","latitude":-1.88333,"longitude":115.5},{"name":"Kabupaten Tabanan","countryCode":"ID","stateCode":"BA","latitude":-8.43333,"longitude":115.06667},{"name":"Kabupaten Takalar","countryCode":"ID","stateCode":"SN","latitude":-5.41667,"longitude":119.51667},{"name":"Kabupaten Tambrauw","countryCode":"ID","stateCode":"PB","latitude":-0.60515,"longitude":132.48962},{"name":"Kabupaten Tana Tidung","countryCode":"ID","stateCode":"KU","latitude":3.55,"longitude":117.25},{"name":"Kabupaten Tana Toraja","countryCode":"ID","stateCode":"SN","latitude":-3.0024,"longitude":119.79655},{"name":"Kabupaten Tanah Bumbu","countryCode":"ID","stateCode":"KS","latitude":-3.45413,"longitude":115.70372},{"name":"Kabupaten Tanah Datar","countryCode":"ID","stateCode":"SB","latitude":-0.4555,"longitude":100.5771},{"name":"Kabupaten Tanah Laut","countryCode":"ID","stateCode":"KS","latitude":-3.88333,"longitude":114.86667},{"name":"Kabupaten Tangerang","countryCode":"ID","stateCode":"BT","latitude":-6.2,"longitude":106.46667},{"name":"Kabupaten Tanggamus","countryCode":"ID","stateCode":"LA","latitude":-5.38508,"longitude":104.62349},{"name":"Kabupaten Tanjung Jabung Barat","countryCode":"ID","stateCode":"JA","latitude":-1.1544,"longitude":103.24402},{"name":"Kabupaten Tanjung Jabung Timur","countryCode":"ID","stateCode":"JA","latitude":-1.13198,"longitude":103.61755},{"name":"Kabupaten Tapanuli Selatan","countryCode":"ID","stateCode":"SU","latitude":1.51667,"longitude":99.25},{"name":"Kabupaten Tapanuli Tengah","countryCode":"ID","stateCode":"SU","latitude":1.9,"longitude":98.66667},{"name":"Kabupaten Tapanuli Utara","countryCode":"ID","stateCode":"SU","latitude":2.0028,"longitude":99.0707},{"name":"Kabupaten Tapin","countryCode":"ID","stateCode":"KS","latitude":-2.91667,"longitude":115.03333},{"name":"Kabupaten Tasikmalaya","countryCode":"ID","stateCode":"JB","latitude":-7.5,"longitude":108.13333},{"name":"Kabupaten Tebo","countryCode":"ID","stateCode":"JA","latitude":-1.45576,"longitude":102.37473},{"name":"Kabupaten Tegal","countryCode":"ID","stateCode":"JT","latitude":-7.03333,"longitude":109.16667},{"name":"Kabupaten Teluk Bintuni","countryCode":"ID","stateCode":"PB","latitude":-1.88037,"longitude":133.33105},{"name":"Kabupaten Teluk Wondama","countryCode":"ID","stateCode":"PB","latitude":-2.7,"longitude":134.5},{"name":"Kabupaten Temanggung","countryCode":"ID","stateCode":"JT","latitude":-7.25,"longitude":110.11667},{"name":"Kabupaten Timor Tengah Selatan","countryCode":"ID","stateCode":"NT","latitude":-9.83333,"longitude":124.4},{"name":"Kabupaten Timor Tengah Utara","countryCode":"ID","stateCode":"NT","latitude":-9.33136,"longitude":124.51904},{"name":"Kabupaten Toli-Toli","countryCode":"ID","stateCode":"ST","latitude":1.30862,"longitude":120.88643},{"name":"Kabupaten Tolikara","countryCode":"ID","stateCode":"PA","latitude":-3.42661,"longitude":137.41699},{"name":"Kabupaten Toraja Utara","countryCode":"ID","stateCode":"SN","latitude":-2.92738,"longitude":119.79218},{"name":"Kabupaten Trenggalek","countryCode":"ID","stateCode":"JI","latitude":-8.16667,"longitude":111.61667},{"name":"Kabupaten Tuban","countryCode":"ID","stateCode":"JI","latitude":-6.96667,"longitude":111.9},{"name":"Kabupaten Tulangbawang","countryCode":"ID","stateCode":"LA","latitude":-4.20604,"longitude":105.57999},{"name":"Kabupaten Tulungagung","countryCode":"ID","stateCode":"JI","latitude":-8.11667,"longitude":111.91667},{"name":"Kabupaten Wajo","countryCode":"ID","stateCode":"SN","latitude":-4,"longitude":120.16667},{"name":"Kabupaten Waropen","countryCode":"ID","stateCode":"PA","latitude":-2.286,"longitude":137.01837},{"name":"Kabupaten Way Kanan","countryCode":"ID","stateCode":"LA","latitude":-4.44705,"longitude":104.52753},{"name":"Kabupaten Wonogiri","countryCode":"ID","stateCode":"JT","latitude":-7.91667,"longitude":111},{"name":"Kabupaten Wonosobo","countryCode":"ID","stateCode":"JT","latitude":-7.36139,"longitude":109.92667},{"name":"Kabupaten Yahukimo","countryCode":"ID","stateCode":"PA","latitude":-4.60403,"longitude":139.58405},{"name":"Kabupaten Yalimo","countryCode":"ID","stateCode":"PA","latitude":-3.86037,"longitude":138.47305},{"name":"Kalianget","countryCode":"ID","stateCode":"JI","latitude":-7.0537,"longitude":113.94244},{"name":"Kamal","countryCode":"ID","stateCode":"JI","latitude":-7.16778,"longitude":112.71917},{"name":"Karangampel","countryCode":"ID","stateCode":"JB","latitude":-6.46222,"longitude":108.45194},{"name":"Karanganom","countryCode":"ID","stateCode":"JT","latitude":-7.64889,"longitude":110.625},{"name":"Karangsembung","countryCode":"ID","stateCode":"JB","latitude":-6.8487,"longitude":108.6422},{"name":"Kartasura","countryCode":"ID","stateCode":"JT","latitude":-7.55194,"longitude":110.73778},{"name":"Kasihan","countryCode":"ID","stateCode":"YO","latitude":-7.82694,"longitude":110.32917},{"name":"Katabu","countryCode":"ID","stateCode":"SG","latitude":-4.9333,"longitude":122.5167},{"name":"Kawalu","countryCode":"ID","stateCode":"JB","latitude":-7.3817,"longitude":108.2082},{"name":"Kebomas","countryCode":"ID","stateCode":"JI","latitude":-7.16667,"longitude":112.6333},{"name":"Kebonarun","countryCode":"ID","stateCode":"JT","latitude":-7.70028,"longitude":110.56306},{"name":"Kediri","countryCode":"ID","stateCode":"JI","latitude":-7.81667,"longitude":112.01667},{"name":"Kedungwaru","countryCode":"ID","stateCode":"JI","latitude":-8.06667,"longitude":111.91667},{"name":"Kedungwuni","countryCode":"ID","stateCode":"JT","latitude":-6.97038,"longitude":109.64794},{"name":"Kefamenanu","countryCode":"ID","stateCode":"NT","latitude":-9.44667,"longitude":124.47806},{"name":"Kencong","countryCode":"ID","stateCode":"JI","latitude":-8.28333,"longitude":113.36667},{"name":"Kendari","countryCode":"ID","stateCode":"SG","latitude":-3.9778,"longitude":122.51507},{"name":"Kepanjen","countryCode":"ID","stateCode":"JI","latitude":-8.1303,"longitude":112.5727},{"name":"Kertosono","countryCode":"ID","stateCode":"JI","latitude":-7.58333,"longitude":112.1},{"name":"Ketanggungan","countryCode":"ID","stateCode":"JT","latitude":-6.9383,"longitude":108.891},{"name":"Kijang","countryCode":"ID","stateCode":"KR","latitude":0.9,"longitude":104.63333},{"name":"Kisaran","countryCode":"ID","stateCode":"SU","latitude":2.9845,"longitude":99.6158},{"name":"Klangenan","countryCode":"ID","stateCode":"JB","latitude":-6.70944,"longitude":108.44},{"name":"Klaten","countryCode":"ID","stateCode":"JT","latitude":-7.70583,"longitude":110.60639},{"name":"Klungkung","countryCode":"ID","stateCode":"BA","latitude":-8.53333,"longitude":115.4},{"name":"Komodo","countryCode":"ID","stateCode":"NT","latitude":-8.5895,"longitude":119.4913},{"name":"Kota Administrasi Jakarta Barat","countryCode":"ID","stateCode":"JK","latitude":-6.1676,"longitude":106.7673},{"name":"Kota Administrasi Jakarta Pusat","countryCode":"ID","stateCode":"JK","latitude":-6.1777,"longitude":106.8403},{"name":"Kota Administrasi Jakarta Selatan","countryCode":"ID","stateCode":"JK","latitude":-6.266,"longitude":106.8135},{"name":"Kota Administrasi Jakarta Timur","countryCode":"ID","stateCode":"JK","latitude":-6.2521,"longitude":106.884},{"name":"Kota Administrasi Jakarta Utara","countryCode":"ID","stateCode":"JK","latitude":-6.1339,"longitude":106.8823},{"name":"Kota Ambon","countryCode":"ID","stateCode":"MA","latitude":-3.7,"longitude":128.18333},{"name":"Kota Balikpapan","countryCode":"ID","stateCode":"KI","latitude":-1.16667,"longitude":116.88333},{"name":"Kota Banda Aceh","countryCode":"ID","stateCode":"AC","latitude":5.54167,"longitude":95.33333},{"name":"Kota Bandar Lampung","countryCode":"ID","stateCode":"LA","latitude":-5.41667,"longitude":105.25},{"name":"Kota Bandung","countryCode":"ID","stateCode":"JB","latitude":-6.9175,"longitude":107.62444},{"name":"Kota Banjar","countryCode":"ID","stateCode":"JB","latitude":-7.36996,"longitude":108.53209},{"name":"Kota Banjar Baru","countryCode":"ID","stateCode":"KS","latitude":-3.41667,"longitude":114.83333},{"name":"Kota Banjarmasin","countryCode":"ID","stateCode":"KS","latitude":-3.32444,"longitude":114.59102},{"name":"Kota Batam","countryCode":"ID","stateCode":"KR","latitude":1.05211,"longitude":104.02851},{"name":"Kota Batu","countryCode":"ID","stateCode":"JI","latitude":-7.83272,"longitude":112.53751},{"name":"Kota Baubau","countryCode":"ID","stateCode":"SG","latitude":-5.477,"longitude":122.6166},{"name":"Kota Bekasi","countryCode":"ID","stateCode":"JB","latitude":-6.28333,"longitude":106.98333},{"name":"Kota Bengkulu","countryCode":"ID","stateCode":"BE","latitude":-3.81667,"longitude":102.31667},{"name":"Kota Bima","countryCode":"ID","stateCode":"NB","latitude":-8.46728,"longitude":118.75259},{"name":"Kota Binjai","countryCode":"ID","stateCode":"SU","latitude":3.8,"longitude":108.23333},{"name":"Kota Bitung","countryCode":"ID","stateCode":"SA","latitude":1.48333,"longitude":125.15},{"name":"Kota Blitar","countryCode":"ID","stateCode":"JI","latitude":-8.1,"longitude":112.16667},{"name":"Kota Bogor","countryCode":"ID","stateCode":"JB","latitude":-6.59167,"longitude":106.8},{"name":"Kota Bontang","countryCode":"ID","stateCode":"KI","latitude":0.12526,"longitude":117.49603},{"name":"Kota Bukittinggi","countryCode":"ID","stateCode":"SB","latitude":-0.275,"longitude":100.375},{"name":"Kota Cilegon","countryCode":"ID","stateCode":"BT","latitude":-6.01667,"longitude":106.01667},{"name":"Kota Cimahi","countryCode":"ID","stateCode":"JB","latitude":-6.89167,"longitude":107.55},{"name":"Kota Cirebon","countryCode":"ID","stateCode":"JB","latitude":-6.75,"longitude":108.55},{"name":"Kota Denpasar","countryCode":"ID","stateCode":"BA","latitude":-8.66667,"longitude":115.21663},{"name":"Kota Depok","countryCode":"ID","stateCode":"JB","latitude":-6.4,"longitude":106.81667},{"name":"Kota Dumai","countryCode":"ID","stateCode":"RI","latitude":1.61592,"longitude":101.4917},{"name":"Kota Gorontalo","countryCode":"ID","stateCode":"GO","latitude":0.53333,"longitude":123.1},{"name":"Kota Gunungsitoli","countryCode":"ID","stateCode":"SU","latitude":1.32731,"longitude":97.55018},{"name":"Kota Jambi","countryCode":"ID","stateCode":"JA","latitude":-1.61667,"longitude":103.65},{"name":"Kota Jayapura","countryCode":"ID","stateCode":"PA","latitude":-2.64647,"longitude":140.77779},{"name":"Kota Kediri","countryCode":"ID","stateCode":"JI","latitude":-7.83333,"longitude":112.01667},{"name":"Kota Kendari","countryCode":"ID","stateCode":"SG","latitude":-3.98333,"longitude":122.5},{"name":"Kota Kotamobagu","countryCode":"ID","stateCode":"SA","latitude":0.68915,"longitude":124.32678},{"name":"Kota Kupang","countryCode":"ID","stateCode":"NT","latitude":-10.21667,"longitude":123.6},{"name":"Kota Langsa","countryCode":"ID","stateCode":"AC","latitude":4.47,"longitude":97.93},{"name":"Kota Lhokseumawe","countryCode":"ID","stateCode":"AC","latitude":5.13333,"longitude":97.06667},{"name":"Kota Lubuklinggau","countryCode":"ID","stateCode":"SS","latitude":-3.29308,"longitude":102.85503},{"name":"Kota Madiun","countryCode":"ID","stateCode":"JI","latitude":-7.63333,"longitude":111.53333},{"name":"Kota Magelang","countryCode":"ID","stateCode":"JT","latitude":-7.5,"longitude":110.225},{"name":"Kota Makassar","countryCode":"ID","stateCode":"SN","latitude":-5.15,"longitude":119.45},{"name":"Kota Malang","countryCode":"ID","stateCode":"JI","latitude":-7.975,"longitude":112.63333},{"name":"Kota Manado","countryCode":"ID","stateCode":"SA","latitude":1.51667,"longitude":124.88333},{"name":"Kota Mataram","countryCode":"ID","stateCode":"NB","latitude":-8.5833,"longitude":116.1167},{"name":"Kota Medan","countryCode":"ID","stateCode":"SU","latitude":3.65,"longitude":98.66667},{"name":"Kota Metro","countryCode":"ID","stateCode":"LA","latitude":-5.11856,"longitude":105.29949},{"name":"Kota Mojokerto","countryCode":"ID","stateCode":"JI","latitude":-7.46667,"longitude":112.43333},{"name":"Kota Padang","countryCode":"ID","stateCode":"SB","latitude":-0.98333,"longitude":100.45},{"name":"Kota Padang Panjang","countryCode":"ID","stateCode":"SB","latitude":-0.45,"longitude":100.43333},{"name":"Kota Padangsidimpuan","countryCode":"ID","stateCode":"SU","latitude":1.37375,"longitude":99.26843},{"name":"Kota Pagar Alam","countryCode":"ID","stateCode":"SS","latitude":-4.13055,"longitude":103.26822},{"name":"Kota Palangka Raya","countryCode":"ID","stateCode":"KT","latitude":-1.76979,"longitude":113.73126},{"name":"Kota Palembang","countryCode":"ID","stateCode":"SS","latitude":-3,"longitude":104.71667},{"name":"Kota Palopo","countryCode":"ID","stateCode":"SN","latitude":-2.97841,"longitude":120.11078},{"name":"Kota Palu","countryCode":"ID","stateCode":"ST","latitude":-0.86972,"longitude":119.9},{"name":"Kota Pangkal Pinang","countryCode":"ID","stateCode":"BB","latitude":-2.13333,"longitude":106.13333},{"name":"Kota Parepare","countryCode":"ID","stateCode":"SN","latitude":-4.03333,"longitude":119.65},{"name":"Kota Pariaman","countryCode":"ID","stateCode":"SB","latitude":-0.62682,"longitude":100.12047},{"name":"Kota Pasuruan","countryCode":"ID","stateCode":"JI","latitude":-7.65,"longitude":112.9},{"name":"Kota Payakumbuh","countryCode":"ID","stateCode":"SB","latitude":-0.23333,"longitude":100.63333},{"name":"Kota Pekalongan","countryCode":"ID","stateCode":"JT","latitude":-6.9,"longitude":109.68333},{"name":"Kota Pekanbaru","countryCode":"ID","stateCode":"RI","latitude":0.53333,"longitude":101.46667},{"name":"Kota Pematang Siantar","countryCode":"ID","stateCode":"SU","latitude":2.96667,"longitude":99.05},{"name":"Kota Prabumulih","countryCode":"ID","stateCode":"SS","latitude":-3.46202,"longitude":104.2229},{"name":"Kota Probolinggo","countryCode":"ID","stateCode":"JI","latitude":-7.78333,"longitude":113.21667},{"name":"Kota Sabang","countryCode":"ID","stateCode":"AC","latitude":5.87944,"longitude":95.33223},{"name":"Kota Salatiga","countryCode":"ID","stateCode":"JT","latitude":-7.33278,"longitude":110.48333},{"name":"Kota Samarinda","countryCode":"ID","stateCode":"KI","latitude":-0.43333,"longitude":117.18333},{"name":"Kota Sawah Lunto","countryCode":"ID","stateCode":"SB","latitude":-0.6,"longitude":100.75},{"name":"Kota Semarang","countryCode":"ID","stateCode":"JT","latitude":-7.03333,"longitude":110.38333},{"name":"Kota Serang","countryCode":"ID","stateCode":"BT","latitude":-6.12563,"longitude":106.14999},{"name":"Kota Sibolga","countryCode":"ID","stateCode":"SU","latitude":1.73333,"longitude":98.8},{"name":"Kota Solok","countryCode":"ID","stateCode":"SB","latitude":-0.76667,"longitude":100.61667},{"name":"Kota Sorong","countryCode":"ID","stateCode":"PB","latitude":-0.86507,"longitude":131.25152},{"name":"Kota Subulussalam","countryCode":"ID","stateCode":"AC","latitude":2.75,"longitude":97.93333},{"name":"Kota Sukabumi","countryCode":"ID","stateCode":"JB","latitude":-6.95,"longitude":106.93333},{"name":"Kota Sungai Penuh","countryCode":"ID","stateCode":"JA","latitude":-2.10896,"longitude":101.32175},{"name":"Kota Surabaya","countryCode":"ID","stateCode":"JI","latitude":-7.26667,"longitude":112.71667},{"name":"Kota Surakarta","countryCode":"ID","stateCode":"JT","latitude":-7.55,"longitude":110.81667},{"name":"Kota Tangerang","countryCode":"ID","stateCode":"BT","latitude":-6.17944,"longitude":106.62991},{"name":"Kota Tangerang Selatan","countryCode":"ID","stateCode":"BT","latitude":-6.29373,"longitude":106.71244},{"name":"Kota Tanjung Balai","countryCode":"ID","stateCode":"SU","latitude":2.95833,"longitude":99.79167},{"name":"Kota Tanjung Pinang","countryCode":"ID","stateCode":"KR","latitude":0.91683,"longitude":104.44329},{"name":"Kota Tasikmalaya","countryCode":"ID","stateCode":"JB","latitude":-7.35,"longitude":108.21667},{"name":"Kota Tebing Tinggi","countryCode":"ID","stateCode":"SU","latitude":3.325,"longitude":99.14167},{"name":"Kota Tegal","countryCode":"ID","stateCode":"JT","latitude":-6.8686,"longitude":109.1129},{"name":"Kota Ternate","countryCode":"ID","stateCode":"MU","latitude":0.89618,"longitude":127.31016},{"name":"Kota Tidore Kepulauan","countryCode":"ID","stateCode":"MU","latitude":0.60962,"longitude":127.56981},{"name":"Kota Tomohon","countryCode":"ID","stateCode":"SA","latitude":1.31307,"longitude":124.83404},{"name":"Kota Tual","countryCode":"ID","stateCode":"MA","latitude":-5.64301,"longitude":132.74935},{"name":"Kota Yogyakarta","countryCode":"ID","stateCode":"YO","latitude":-7.8,"longitude":110.375},{"name":"Kotabumi","countryCode":"ID","stateCode":"LA","latitude":-4.82505,"longitude":104.8817},{"name":"Kraksaan","countryCode":"ID","stateCode":"JI","latitude":-7.75845,"longitude":113.39624},{"name":"Kresek","countryCode":"ID","stateCode":"JB","latitude":-6.13139,"longitude":106.37972},{"name":"Krian","countryCode":"ID","stateCode":"JI","latitude":-7.4104,"longitude":112.5792},{"name":"Kroya","countryCode":"ID","stateCode":"JT","latitude":-7.63306,"longitude":109.24611},{"name":"Kuala Tungkal","countryCode":"ID","stateCode":"JA","latitude":-0.81623,"longitude":103.46111},{"name":"Kualakapuas","countryCode":"ID","stateCode":"KT","latitude":-3.00913,"longitude":114.38759},{"name":"Kudus","countryCode":"ID","stateCode":"JT","latitude":-6.8048,"longitude":110.8405},{"name":"Kuningan","countryCode":"ID","stateCode":"JB","latitude":-6.97583,"longitude":108.48306},{"name":"Kupang","countryCode":"ID","stateCode":"NT","latitude":-10.17083,"longitude":123.60694},{"name":"Kuta","countryCode":"ID","stateCode":"BA","latitude":-8.72332,"longitude":115.17234},{"name":"Kutoarjo","countryCode":"ID","stateCode":"JT","latitude":-7.71694,"longitude":109.91278},{"name":"Labuan","countryCode":"ID","stateCode":"BT","latitude":-6.3784,"longitude":105.83},{"name":"Labuan Bajo","countryCode":"ID","stateCode":"NT","latitude":-8.4964,"longitude":119.8877},{"name":"Labuan Lombok","countryCode":"ID","stateCode":"NB","latitude":-8.5,"longitude":116.66667},{"name":"Labuhan Deli","countryCode":"ID","stateCode":"SU","latitude":3.7278,"longitude":98.6738},{"name":"Lahat","countryCode":"ID","stateCode":"SS","latitude":-3.78514,"longitude":103.54279},{"name":"Lahat Regency","countryCode":"ID","stateCode":"SS","latitude":-3.7864,"longitude":103.5428},{"name":"Laikit, Laikit II (Dimembe)","countryCode":"ID","stateCode":"SA","latitude":1.48833,"longitude":124.97444},{"name":"Lamongan","countryCode":"ID","stateCode":"JI","latitude":-7.11667,"longitude":112.41667},{"name":"Langsa","countryCode":"ID","stateCode":"AC","latitude":4.4683,"longitude":97.9683},{"name":"Lasem","countryCode":"ID","stateCode":"JT","latitude":-6.6922,"longitude":111.4527},{"name":"Lawang","countryCode":"ID","stateCode":"JI","latitude":-7.8353,"longitude":112.6947},{"name":"Lebaksiu","countryCode":"ID","stateCode":"JT","latitude":-7.0496,"longitude":109.1441},{"name":"Legian","countryCode":"ID","stateCode":"BA","latitude":-8.70415,"longitude":115.17028},{"name":"Lembang","countryCode":"ID","stateCode":"JB","latitude":-6.81167,"longitude":107.6175},{"name":"Lembar","countryCode":"ID","stateCode":"NB","latitude":-8.7264,"longitude":116.0744},{"name":"Lhokseumawe","countryCode":"ID","stateCode":"AC","latitude":5.1801,"longitude":97.1507},{"name":"Loa Janan","countryCode":"ID","stateCode":"KI","latitude":-0.58295,"longitude":117.09503},{"name":"Lovina","countryCode":"ID","stateCode":"BA","latitude":-8.14927,"longitude":115.03999},{"name":"Lubuklinggau","countryCode":"ID","stateCode":"SS","latitude":-3.2945,"longitude":102.8614},{"name":"Lumajang","countryCode":"ID","stateCode":"JI","latitude":-8.1335,"longitude":113.2248},{"name":"Luwuk","countryCode":"ID","stateCode":"ST","latitude":-0.9516,"longitude":122.7875},{"name":"Madiun","countryCode":"ID","stateCode":"JI","latitude":-7.6298,"longitude":111.5239},{"name":"Magelang","countryCode":"ID","stateCode":"JT","latitude":-7.47056,"longitude":110.21778},{"name":"Majalengka","countryCode":"ID","stateCode":"JB","latitude":-6.83611,"longitude":108.22778},{"name":"Majenang","countryCode":"ID","stateCode":"JT","latitude":-7.2975,"longitude":108.7642},{"name":"Majene","countryCode":"ID","stateCode":"SR","latitude":-3.5403,"longitude":118.9707},{"name":"Makassar","countryCode":"ID","stateCode":"SN","latitude":-5.14861,"longitude":119.43194},{"name":"Malang","countryCode":"ID","stateCode":"JI","latitude":-7.9797,"longitude":112.6304},{"name":"Mamuju","countryCode":"ID","stateCode":"SR","latitude":-2.68056,"longitude":118.88611},{"name":"Manado","countryCode":"ID","stateCode":"SA","latitude":1.48218,"longitude":124.84892},{"name":"Manggar","countryCode":"ID","stateCode":"BB","latitude":-2.88333,"longitude":108.26667},{"name":"Manokwari","countryCode":"ID","stateCode":"PB","latitude":-0.86291,"longitude":134.06402},{"name":"Margahayukencana","countryCode":"ID","stateCode":"JB","latitude":-6.97083,"longitude":107.5675},{"name":"Margasari","countryCode":"ID","stateCode":"JT","latitude":-7.1,"longitude":109.01667},{"name":"Maros","countryCode":"ID","stateCode":"SN","latitude":-5.006,"longitude":119.5727},{"name":"Martapura","countryCode":"ID","stateCode":"KS","latitude":-3.4109,"longitude":114.8642},{"name":"Mataram","countryCode":"ID","stateCode":"NB","latitude":-8.58333,"longitude":116.11667},{"name":"Maumere","countryCode":"ID","stateCode":"NT","latitude":-8.6199,"longitude":122.2111},{"name":"Medan","countryCode":"ID","stateCode":"SU","latitude":3.58333,"longitude":98.66667},{"name":"Melati","countryCode":"ID","stateCode":"YO","latitude":-7.73333,"longitude":110.36667},{"name":"Mendaha","countryCode":"ID","stateCode":"JA","latitude":-1.0163,"longitude":103.59331},{"name":"Mertoyudan","countryCode":"ID","stateCode":"JT","latitude":-7.52,"longitude":110.22639},{"name":"Metro","countryCode":"ID","stateCode":"LA","latitude":-5.11306,"longitude":105.30667},{"name":"Meulaboh","countryCode":"ID","stateCode":"AC","latitude":4.14402,"longitude":96.12664},{"name":"Mlonggo","countryCode":"ID","stateCode":"JT","latitude":-6.53333,"longitude":110.7},{"name":"Mojoagung","countryCode":"ID","stateCode":"JI","latitude":-7.56667,"longitude":112.35},{"name":"Mojokerto","countryCode":"ID","stateCode":"JI","latitude":-7.4664,"longitude":112.4338},{"name":"Morowali Regency","countryCode":"ID","stateCode":"ST","latitude":-2.76062,"longitude":121.95267},{"name":"Mranggen","countryCode":"ID","stateCode":"JT","latitude":-7.0268,"longitude":110.5158},{"name":"Muncar","countryCode":"ID","stateCode":"JI","latitude":-8.43333,"longitude":114.33333},{"name":"Munduk","countryCode":"ID","stateCode":"BA","latitude":-8.26866,"longitude":115.07947},{"name":"Muntilan","countryCode":"ID","stateCode":"JT","latitude":-7.58111,"longitude":110.29278},{"name":"Muntok","countryCode":"ID","stateCode":"BB","latitude":-2.06719,"longitude":105.16228},{"name":"Nabire","countryCode":"ID","stateCode":"PA","latitude":-3.35989,"longitude":135.50074},{"name":"Naisano Dua","countryCode":"ID","stateCode":"NT","latitude":-9.59806,"longitude":123.77028},{"name":"Negara","countryCode":"ID","stateCode":"BA","latitude":-8.35694,"longitude":114.61694},{"name":"Nganjuk","countryCode":"ID","stateCode":"JI","latitude":-7.6051,"longitude":111.9035},{"name":"Ngawi","countryCode":"ID","stateCode":"JB","latitude":-7.4038,"longitude":111.4461},{"name":"Ngemplak","countryCode":"ID","stateCode":"JT","latitude":-7.54972,"longitude":110.71639},{"name":"Ngoro","countryCode":"ID","stateCode":"JI","latitude":-7.68386,"longitude":112.25804},{"name":"Ngunut","countryCode":"ID","stateCode":"JI","latitude":-8.1058,"longitude":112.01591},{"name":"Nusa Dua","countryCode":"ID","stateCode":"BA","latitude":-8.80047,"longitude":115.23341},{"name":"Paciran","countryCode":"ID","stateCode":"JI","latitude":-6.87666,"longitude":112.37606},{"name":"Padalarang","countryCode":"ID","stateCode":"JB","latitude":-6.83778,"longitude":107.47278},{"name":"Padang","countryCode":"ID","stateCode":"SB","latitude":-0.94924,"longitude":100.35427},{"name":"Padangsidempuan","countryCode":"ID","stateCode":"SU","latitude":1.37952,"longitude":99.27146},{"name":"Pagar Alam","countryCode":"ID","stateCode":"SS","latitude":-4.02506,"longitude":103.24694},{"name":"Pakisaji","countryCode":"ID","stateCode":"JI","latitude":-8.0665,"longitude":112.5981},{"name":"Palangkaraya","countryCode":"ID","stateCode":"KT","latitude":-2.20833,"longitude":113.91667},{"name":"Palembang","countryCode":"ID","stateCode":"SS","latitude":-2.91673,"longitude":104.7458},{"name":"Palimanan","countryCode":"ID","stateCode":"JB","latitude":-6.70694,"longitude":108.42417},{"name":"Palopo","countryCode":"ID","stateCode":"SN","latitude":-2.9925,"longitude":120.19694},{"name":"Palu","countryCode":"ID","stateCode":"ST","latitude":-0.90833,"longitude":119.87083},{"name":"Pamanukan","countryCode":"ID","stateCode":"JB","latitude":-6.28417,"longitude":107.81056},{"name":"Pamekasan","countryCode":"ID","stateCode":"JI","latitude":-7.1568,"longitude":113.4746},{"name":"Pameungpeuk","countryCode":"ID","stateCode":"JB","latitude":-7.01833,"longitude":107.60389},{"name":"Pamulang","countryCode":"ID","stateCode":"JB","latitude":-6.34278,"longitude":106.73833},{"name":"Panarukan","countryCode":"ID","stateCode":"JI","latitude":-7.70181,"longitude":113.91844},{"name":"Pandaan","countryCode":"ID","stateCode":"JI","latitude":-7.65268,"longitude":112.6875},{"name":"Pandak","countryCode":"ID","stateCode":"YO","latitude":-7.91306,"longitude":110.29361},{"name":"Pandeglang","countryCode":"ID","stateCode":"BT","latitude":-6.3084,"longitude":106.1067},{"name":"Pangkalan Brandan","countryCode":"ID","stateCode":"SU","latitude":4.0238,"longitude":98.2782},{"name":"Pangkalanbuun","countryCode":"ID","stateCode":"KT","latitude":-2.6832,"longitude":111.6259},{"name":"Pangkalpinang","countryCode":"ID","stateCode":"BB","latitude":-2.12914,"longitude":106.11377},{"name":"Panji","countryCode":"ID","stateCode":"JI","latitude":-7.72528,"longitude":114.09954},{"name":"Parapat","countryCode":"ID","stateCode":"SU","latitude":2.663,"longitude":98.9349},{"name":"Pare","countryCode":"ID","stateCode":"JI","latitude":-7.7679,"longitude":112.198},{"name":"Parepare","countryCode":"ID","stateCode":"SN","latitude":-4.0135,"longitude":119.6255},{"name":"Pariaman","countryCode":"ID","stateCode":"SB","latitude":-0.61898,"longitude":100.11997},{"name":"Parung","countryCode":"ID","stateCode":"JB","latitude":-6.42139,"longitude":106.73306},{"name":"Pasarkemis","countryCode":"ID","stateCode":"JB","latitude":-6.17028,"longitude":106.53028},{"name":"Paseh","countryCode":"ID","stateCode":"JB","latitude":-7.1026,"longitude":107.7641},{"name":"Pasuruan","countryCode":"ID","stateCode":"JI","latitude":-7.6453,"longitude":112.9075},{"name":"Pati","countryCode":"ID","stateCode":"JT","latitude":-6.7559,"longitude":111.038},{"name":"Payakumbuh","countryCode":"ID","stateCode":"SB","latitude":-0.2159,"longitude":100.6334},{"name":"Pecangaan","countryCode":"ID","stateCode":"JT","latitude":-6.6978,"longitude":110.7107},{"name":"Pekalongan","countryCode":"ID","stateCode":"JT","latitude":-6.8886,"longitude":109.6753},{"name":"Pekan Bahapal","countryCode":"ID","stateCode":"SU","latitude":3.11313,"longitude":99.17352},{"name":"Pekanbaru","countryCode":"ID","stateCode":"RI","latitude":0.51667,"longitude":101.44167},{"name":"Pelabuhanratu","countryCode":"ID","stateCode":"JB","latitude":-6.9875,"longitude":106.55139},{"name":"Pemalang","countryCode":"ID","stateCode":"JT","latitude":-6.89193,"longitude":109.38263},{"name":"Pematangsiantar","countryCode":"ID","stateCode":"SU","latitude":2.9595,"longitude":99.0687},{"name":"Pemenang","countryCode":"ID","stateCode":"NB","latitude":-8.40401,"longitude":116.10255},{"name":"Perbaungan","countryCode":"ID","stateCode":"SU","latitude":3.5679,"longitude":98.956},{"name":"Percut","countryCode":"ID","stateCode":"SU","latitude":3.6253,"longitude":98.864},{"name":"Plumbon","countryCode":"ID","stateCode":"JB","latitude":-6.705,"longitude":108.47278},{"name":"Polewali","countryCode":"ID","stateCode":"SR","latitude":-3.4324,"longitude":119.3435},{"name":"Ponorogo","countryCode":"ID","stateCode":"JI","latitude":-7.8685,"longitude":111.462},{"name":"Poso","countryCode":"ID","stateCode":"ST","latitude":-1.3959,"longitude":120.7524},{"name":"Pototano","countryCode":"ID","stateCode":"NB","latitude":-8.4126,"longitude":117.4811},{"name":"Prabumulih","countryCode":"ID","stateCode":"SS","latitude":-3.43447,"longitude":104.23056},{"name":"Praya","countryCode":"ID","stateCode":"NB","latitude":-8.70536,"longitude":116.27036},{"name":"Prigen","countryCode":"ID","stateCode":"JI","latitude":-7.68333,"longitude":112.61667},{"name":"Probolinggo","countryCode":"ID","stateCode":"JI","latitude":-7.7543,"longitude":113.2159},{"name":"Pundong","countryCode":"ID","stateCode":"YO","latitude":-7.95222,"longitude":110.34861},{"name":"Purbalingga","countryCode":"ID","stateCode":"JT","latitude":-7.38806,"longitude":109.36389},{"name":"Purwakarta","countryCode":"ID","stateCode":"JB","latitude":-6.55694,"longitude":107.44333},{"name":"Purwodadi","countryCode":"ID","stateCode":"JT","latitude":-7.0868,"longitude":110.9158},{"name":"Purwokerto","countryCode":"ID","stateCode":"JT","latitude":-7.42139,"longitude":109.23444},{"name":"Rajapolah","countryCode":"ID","stateCode":"JB","latitude":-7.221,"longitude":108.1896},{"name":"Randudongkal","countryCode":"ID","stateCode":"JT","latitude":-7.0981,"longitude":109.3243},{"name":"Rangkasbitung","countryCode":"ID","stateCode":"BT","latitude":-6.3591,"longitude":106.2494},{"name":"Rantauprapat","countryCode":"ID","stateCode":"SU","latitude":2.1,"longitude":99.83333},{"name":"Rantepao","countryCode":"ID","stateCode":"SN","latitude":-2.9701,"longitude":119.8978},{"name":"Rembangan","countryCode":"ID","stateCode":"JT","latitude":-6.7036,"longitude":111.3416},{"name":"Rengasdengklok","countryCode":"ID","stateCode":"JB","latitude":-6.15917,"longitude":107.29806},{"name":"Reuleuet","countryCode":"ID","stateCode":"AC","latitude":5.21667,"longitude":96.28333},{"name":"Ruteng","countryCode":"ID","stateCode":"NT","latitude":-8.61139,"longitude":120.46444},{"name":"Sabang","countryCode":"ID","stateCode":"AC","latitude":5.88969,"longitude":95.31644},{"name":"Salatiga","countryCode":"ID","stateCode":"JT","latitude":-7.33194,"longitude":110.49278},{"name":"Samarinda","countryCode":"ID","stateCode":"KI","latitude":-0.49167,"longitude":117.14583},{"name":"Sampang","countryCode":"ID","stateCode":"JI","latitude":-7.1872,"longitude":113.2394},{"name":"Sampit","countryCode":"ID","stateCode":"KT","latitude":-2.5315,"longitude":112.9496},{"name":"Sawangan","countryCode":"ID","stateCode":"JB","latitude":-6.40278,"longitude":106.77444},{"name":"Selayar Islands Regency","countryCode":"ID","stateCode":"SN","latitude":-6.81667,"longitude":120.8},{"name":"Selogiri","countryCode":"ID","stateCode":"JT","latitude":-7.78333,"longitude":110.86667},{"name":"Semarang","countryCode":"ID","stateCode":"JT","latitude":-6.99306,"longitude":110.42083},{"name":"Senggigi","countryCode":"ID","stateCode":"NB","latitude":-8.4919,"longitude":116.0424},{"name":"Sengkang","countryCode":"ID","stateCode":"SN","latitude":-4.1279,"longitude":120.0297},{"name":"Sepatan","countryCode":"ID","stateCode":"JB","latitude":-6.11889,"longitude":106.575},{"name":"Serang","countryCode":"ID","stateCode":"BT","latitude":-6.11528,"longitude":106.15417},{"name":"Seririt","countryCode":"ID","stateCode":"BA","latitude":-8.1928,"longitude":114.9388},{"name":"Serpong","countryCode":"ID","stateCode":"JB","latitude":-6.31694,"longitude":106.66417},{"name":"Sewon","countryCode":"ID","stateCode":"YO","latitude":-7.87639,"longitude":110.35889},{"name":"Sibolga","countryCode":"ID","stateCode":"SU","latitude":1.74016,"longitude":98.78117},{"name":"Sidareja","countryCode":"ID","stateCode":"JT","latitude":-7.4846,"longitude":108.7923},{"name":"Sidoarjo","countryCode":"ID","stateCode":"JI","latitude":-7.4478,"longitude":112.7183},{"name":"Sigli","countryCode":"ID","stateCode":"AC","latitude":5.3848,"longitude":95.9609},{"name":"Sijunjung","countryCode":"ID","stateCode":"SB","latitude":-0.7005,"longitude":100.9774},{"name":"Simpang","countryCode":"ID","stateCode":"JA","latitude":-1.26424,"longitude":104.09701},{"name":"Sinabang","countryCode":"ID","stateCode":"AC","latitude":2.4803,"longitude":96.3801},{"name":"Singaparna","countryCode":"ID","stateCode":"JB","latitude":-7.3515,"longitude":108.111},{"name":"Singaraja","countryCode":"ID","stateCode":"BA","latitude":-8.112,"longitude":115.08818},{"name":"Singkil","countryCode":"ID","stateCode":"AC","latitude":2.2874,"longitude":97.7884},{"name":"Singojuruh","countryCode":"ID","stateCode":"JI","latitude":-8.31667,"longitude":114.23333},{"name":"Singosari","countryCode":"ID","stateCode":"JI","latitude":-7.8924,"longitude":112.6658},{"name":"Sinjai","countryCode":"ID","stateCode":"SN","latitude":-5.1241,"longitude":120.253},{"name":"Situbondo","countryCode":"ID","stateCode":"JI","latitude":-7.70623,"longitude":114.00976},{"name":"Slawi","countryCode":"ID","stateCode":"JT","latitude":-6.9816,"longitude":109.1407},{"name":"Sleman","countryCode":"ID","stateCode":"YO","latitude":-7.71556,"longitude":110.35556},{"name":"Soe","countryCode":"ID","stateCode":"NT","latitude":-9.86071,"longitude":124.28395},{"name":"Sofifi","countryCode":"ID","stateCode":"MU","latitude":0.73729,"longitude":127.5588},{"name":"Sokaraja","countryCode":"ID","stateCode":"JT","latitude":-7.45806,"longitude":109.28806},{"name":"Soko","countryCode":"ID","stateCode":"JI","latitude":-7.48315,"longitude":112.42704},{"name":"Solok","countryCode":"ID","stateCode":"SB","latitude":-0.8006,"longitude":100.6571},{"name":"Soreang","countryCode":"ID","stateCode":"JB","latitude":-7.03306,"longitude":107.51833},{"name":"Sorong","countryCode":"ID","stateCode":"PB","latitude":-0.87956,"longitude":131.26104},{"name":"South Tangerang","countryCode":"ID","stateCode":"BT","latitude":-6.28862,"longitude":106.71789},{"name":"Sragen","countryCode":"ID","stateCode":"JT","latitude":-7.42639,"longitude":111.02222},{"name":"Srandakan","countryCode":"ID","stateCode":"YO","latitude":-7.93861,"longitude":110.25056},{"name":"Srono","countryCode":"ID","stateCode":"JI","latitude":-8.40003,"longitude":114.26661},{"name":"Stabat","countryCode":"ID","stateCode":"SU","latitude":3.73335,"longitude":98.45025},{"name":"Sukabumi","countryCode":"ID","stateCode":"JB","latitude":-6.91806,"longitude":106.92667},{"name":"Sumbawa Besar","countryCode":"ID","stateCode":"NB","latitude":-8.49317,"longitude":117.42024},{"name":"Sumber","countryCode":"ID","stateCode":"JB","latitude":-6.76028,"longitude":108.48306},{"name":"Sumberpucung","countryCode":"ID","stateCode":"JI","latitude":-8.15856,"longitude":112.48292},{"name":"Sumedang","countryCode":"ID","stateCode":"JB","latitude":-6.85861,"longitude":107.91639},{"name":"Sumedang Utara","countryCode":"ID","stateCode":"JB","latitude":-6.85,"longitude":107.91667},{"name":"Sumenep","countryCode":"ID","stateCode":"JI","latitude":-7.01667,"longitude":113.86667},{"name":"Sungai Penuh","countryCode":"ID","stateCode":"JA","latitude":-2.0561,"longitude":101.3913},{"name":"Sungailiat","countryCode":"ID","stateCode":"BB","latitude":-1.85442,"longitude":106.12215},{"name":"Sunggal","countryCode":"ID","stateCode":"SU","latitude":3.5765,"longitude":98.6151},{"name":"Surabaya","countryCode":"ID","stateCode":"JI","latitude":-7.24917,"longitude":112.75083},{"name":"Surakarta","countryCode":"ID","stateCode":"JT","latitude":-7.55611,"longitude":110.83167},{"name":"Tabanan","countryCode":"ID","stateCode":"BA","latitude":-8.5413,"longitude":115.12522},{"name":"Tangerang","countryCode":"ID","stateCode":"BT","latitude":-6.17806,"longitude":106.63},{"name":"Tanggul","countryCode":"ID","stateCode":"JI","latitude":-8.1645,"longitude":113.4525},{"name":"Tanggulangin","countryCode":"ID","stateCode":"JI","latitude":-7.49958,"longitude":112.69992},{"name":"Tanjung Pandan","countryCode":"ID","stateCode":"BB","latitude":-2.73353,"longitude":107.63477},{"name":"Tanjung Pinang","countryCode":"ID","stateCode":"KR","latitude":0.91667,"longitude":104.45833},{"name":"Tanjung Selor","countryCode":"ID","stateCode":"KU","latitude":2.8375,"longitude":117.36528},{"name":"Tanjungagung","countryCode":"ID","stateCode":"SS","latitude":-3.93728,"longitude":103.80465},{"name":"Tanjungbalai","countryCode":"ID","stateCode":"SU","latitude":2.96667,"longitude":99.8},{"name":"Tanjungtiram","countryCode":"ID","stateCode":"SU","latitude":4.0613,"longitude":98.3699},{"name":"Tarakan","countryCode":"ID","stateCode":"KU","latitude":3.31332,"longitude":117.59152},{"name":"Tarub","countryCode":"ID","stateCode":"JT","latitude":-6.93333,"longitude":109.16667},{"name":"Tasikmalaya","countryCode":"ID","stateCode":"JB","latitude":-7.3274,"longitude":108.2207},{"name":"Tayu","countryCode":"ID","stateCode":"JT","latitude":-6.5397,"longitude":111.0518},{"name":"Tebingtinggi","countryCode":"ID","stateCode":"SU","latitude":3.3285,"longitude":99.1625},{"name":"Tegal","countryCode":"ID","stateCode":"JT","latitude":-6.8694,"longitude":109.1402},{"name":"Teluk Nibung","countryCode":"ID","stateCode":"SU","latitude":3.001,"longitude":99.8164},{"name":"Teluknaga","countryCode":"ID","stateCode":"JB","latitude":-6.09889,"longitude":106.63806},{"name":"Terbanggi Besar","countryCode":"ID","stateCode":"LA","latitude":-4.87898,"longitude":105.21818},{"name":"Ternate","countryCode":"ID","stateCode":"MU","latitude":0.79065,"longitude":127.38424},{"name":"Tobelo","countryCode":"ID","stateCode":"MU","latitude":1.72837,"longitude":128.00948},{"name":"Tojo Una-Una Regency","countryCode":"ID","stateCode":"ST","latitude":-1.2036,"longitude":121.48201},{"name":"Tomohon","countryCode":"ID","stateCode":"SA","latitude":1.31678,"longitude":124.80379},{"name":"Tomok Bolon","countryCode":"ID","stateCode":"SU","latitude":2.6521,"longitude":98.8608},{"name":"Tondano","countryCode":"ID","stateCode":"SA","latitude":1.3054,"longitude":124.91261},{"name":"Tongging","countryCode":"ID","stateCode":"SU","latitude":2.8985,"longitude":98.5231},{"name":"Trenggalek","countryCode":"ID","stateCode":"JI","latitude":-8.0764,"longitude":111.70641},{"name":"Trucuk","countryCode":"ID","stateCode":"JT","latitude":-7.71833,"longitude":110.65889},{"name":"Tual","countryCode":"ID","stateCode":"MA","latitude":-5.62878,"longitude":132.75229},{"name":"Tuban","countryCode":"ID","stateCode":"JI","latitude":-6.8976,"longitude":112.0649},{"name":"Tuktuk Sonak","countryCode":"ID","stateCode":"SU","latitude":2.6689,"longitude":98.8576},{"name":"Tulangan Utara","countryCode":"ID","stateCode":"JI","latitude":-7.4737,"longitude":112.6505},{"name":"Tulungagung","countryCode":"ID","stateCode":"JI","latitude":-8.0657,"longitude":111.9025},{"name":"Ubud","countryCode":"ID","stateCode":"BA","latitude":-8.5098,"longitude":115.2654},{"name":"Ungaran","countryCode":"ID","stateCode":"JT","latitude":-7.13972,"longitude":110.405},{"name":"Waingapu","countryCode":"ID","stateCode":"NT","latitude":-9.6567,"longitude":120.2641},{"name":"Wakatobi Regency","countryCode":"ID","stateCode":"SG","latitude":-5.31934,"longitude":123.5948},{"name":"Wanaraja","countryCode":"ID","stateCode":"JB","latitude":-7.1749,"longitude":107.9808},{"name":"Wangon","countryCode":"ID","stateCode":"JT","latitude":-7.51611,"longitude":109.05389},{"name":"Watampone","countryCode":"ID","stateCode":"SN","latitude":-4.5386,"longitude":120.3279},{"name":"Wedi","countryCode":"ID","stateCode":"JT","latitude":-7.74306,"longitude":110.57944},{"name":"Welahan","countryCode":"ID","stateCode":"JT","latitude":-6.8,"longitude":110.71667},{"name":"Weleri","countryCode":"ID","stateCode":"JT","latitude":-6.9713,"longitude":110.0666},{"name":"Weru","countryCode":"ID","stateCode":"JB","latitude":-6.711,"longitude":108.5037},{"name":"Wiradesa","countryCode":"ID","stateCode":"JT","latitude":-6.8922,"longitude":109.619},{"name":"Wongsorejo","countryCode":"ID","stateCode":"JI","latitude":-7.9908,"longitude":114.4009},{"name":"Wonopringgo","countryCode":"ID","stateCode":"JT","latitude":-6.98333,"longitude":109.61667},{"name":"Wonosobo","countryCode":"ID","stateCode":"JT","latitude":-7.35889,"longitude":109.90306},{"name":"Yogyakarta","countryCode":"ID","stateCode":"YO","latitude":-7.80139,"longitude":110.36472}]
