[{"name":"Abbeyfeale","countryCode":"IE","stateCode":"M","latitude":52.38139,"longitude":-9.3025},{"name":"Abbeyleix","countryCode":"IE","stateCode":"L","latitude":52.91331,"longitude":-7.34456},{"name":"Adare","countryCode":"IE","stateCode":"M","latitude":52.56194,"longitude":-8.79556},{"name":"Aghada","countryCode":"IE","stateCode":"M","latitude":51.83917,"longitude":-8.21222},{"name":"An Cabhán","countryCode":"IE","stateCode":"U","latitude":53.91667,"longitude":-7.25},{"name":"An Clár","countryCode":"IE","stateCode":"M","latitude":52.83333,"longitude":-9},{"name":"An Iarmhí","countryCode":"IE","stateCode":"L","latitude":53.5,"longitude":-7.5},{"name":"An Longfort","countryCode":"IE","stateCode":"L","latitude":53.66667,"longitude":-7.75},{"name":"An Mhí","countryCode":"IE","stateCode":"L","latitude":53.66667,"longitude":-6.66667},{"name":"An Muileann gCearr","countryCode":"IE","stateCode":"L","latitude":53.53333,"longitude":-7.35},{"name":"An Ros","countryCode":"IE","stateCode":"L","latitude":53.52424,"longitude":-6.10497},{"name":"Annacotty","countryCode":"IE","stateCode":"M","latitude":52.66768,"longitude":-8.53121},{"name":"Ardee","countryCode":"IE","stateCode":"L","latitude":53.85972,"longitude":-6.54056},{"name":"Ardnacrusha","countryCode":"IE","stateCode":"M","latitude":52.70908,"longitude":-8.61431},{"name":"Arklow","countryCode":"IE","stateCode":"L","latitude":52.79306,"longitude":-6.14139},{"name":"Artane","countryCode":"IE","stateCode":"L","latitude":53.38712,"longitude":-6.2138},{"name":"Ashbourne","countryCode":"IE","stateCode":"L","latitude":53.51163,"longitude":-6.39821},{"name":"Ashford","countryCode":"IE","stateCode":"L","latitude":53.00833,"longitude":-6.11139},{"name":"Askeaton","countryCode":"IE","stateCode":"M","latitude":52.59972,"longitude":-8.97556},{"name":"Athboy","countryCode":"IE","stateCode":"L","latitude":53.62327,"longitude":-6.91434},{"name":"Athenry","countryCode":"IE","stateCode":"C","latitude":53.29639,"longitude":-8.74306},{"name":"Athgarvan","countryCode":"IE","stateCode":"L","latitude":53.15229,"longitude":-6.78173},{"name":"Athlone","countryCode":"IE","stateCode":"L","latitude":53.43333,"longitude":-7.95},{"name":"Athy","countryCode":"IE","stateCode":"L","latitude":52.99139,"longitude":-6.98028},{"name":"Aughrim","countryCode":"IE","stateCode":"L","latitude":52.85333,"longitude":-6.3275},{"name":"Bagenalstown","countryCode":"IE","stateCode":"L","latitude":52.70031,"longitude":-6.96181},{"name":"Bailieborough","countryCode":"IE","stateCode":"U","latitude":53.91667,"longitude":-6.96667},{"name":"Balally","countryCode":"IE","stateCode":"L","latitude":53.27504,"longitude":-6.23594},{"name":"Balbriggan","countryCode":"IE","stateCode":"L","latitude":53.60846,"longitude":-6.1831},{"name":"Baldoyle","countryCode":"IE","stateCode":"L","latitude":53.39972,"longitude":-6.12583},{"name":"Ballaghaderreen","countryCode":"IE","stateCode":"C","latitude":53.9,"longitude":-8.58333},{"name":"Ballina","countryCode":"IE","stateCode":"C","latitude":54.11667,"longitude":-9.16667},{"name":"Ballina","countryCode":"IE","stateCode":"M","latitude":52.80778,"longitude":-8.43556},{"name":"Ballinasloe","countryCode":"IE","stateCode":"C","latitude":53.3275,"longitude":-8.21944},{"name":"Ballinroad","countryCode":"IE","stateCode":"L","latitude":52.51789,"longitude":-6.40619},{"name":"Ballinrobe","countryCode":"IE","stateCode":"C","latitude":53.63333,"longitude":-9.23333},{"name":"Ballinteer","countryCode":"IE","stateCode":"L","latitude":53.27409,"longitude":-6.25397},{"name":"Ballisodare","countryCode":"IE","stateCode":"C","latitude":54.2111,"longitude":-8.50865},{"name":"Ballivor","countryCode":"IE","stateCode":"L","latitude":53.53167,"longitude":-6.96111},{"name":"Ballyboden","countryCode":"IE","stateCode":"L","latitude":53.28056,"longitude":-6.31639},{"name":"Ballybofey","countryCode":"IE","stateCode":"U","latitude":54.8,"longitude":-7.78333},{"name":"Ballybunnion","countryCode":"IE","stateCode":"M","latitude":52.51108,"longitude":-9.67097},{"name":"Ballyconnell","countryCode":"IE","stateCode":"U","latitude":54.11667,"longitude":-7.58333},{"name":"Ballyfermot","countryCode":"IE","stateCode":"L","latitude":53.34283,"longitude":-6.3548},{"name":"Ballygerry","countryCode":"IE","stateCode":"L","latitude":52.24917,"longitude":-6.35739},{"name":"Ballyhaunis","countryCode":"IE","stateCode":"C","latitude":53.76667,"longitude":-8.76667},{"name":"Ballyjamesduff","countryCode":"IE","stateCode":"U","latitude":53.86528,"longitude":-7.20278},{"name":"Ballylinan","countryCode":"IE","stateCode":"L","latitude":52.94497,"longitude":-7.04073},{"name":"Ballymahon","countryCode":"IE","stateCode":"L","latitude":53.56667,"longitude":-7.76667},{"name":"Ballymote","countryCode":"IE","stateCode":"C","latitude":54.08333,"longitude":-8.51667},{"name":"Ballymun","countryCode":"IE","stateCode":"L","latitude":53.39807,"longitude":-6.26693},{"name":"Ballyragget","countryCode":"IE","stateCode":"L","latitude":52.78889,"longitude":-7.33028},{"name":"Ballyshannon","countryCode":"IE","stateCode":"U","latitude":54.5,"longitude":-8.18333},{"name":"Balrothery","countryCode":"IE","stateCode":"L","latitude":53.58828,"longitude":-6.18728},{"name":"Baltinglass","countryCode":"IE","stateCode":"L","latitude":52.93722,"longitude":-6.70917},{"name":"Banagher","countryCode":"IE","stateCode":"L","latitude":53.18861,"longitude":-7.98667},{"name":"Bandon","countryCode":"IE","stateCode":"M","latitude":51.74694,"longitude":-8.7425},{"name":"Bantry","countryCode":"IE","stateCode":"M","latitude":51.68333,"longitude":-9.45},{"name":"Bayside","countryCode":"IE","stateCode":"L","latitude":53.38895,"longitude":-6.14041},{"name":"Bearna","countryCode":"IE","stateCode":"C","latitude":53.25194,"longitude":-9.14972},{"name":"Beaumont","countryCode":"IE","stateCode":"L","latitude":53.38721,"longitude":-6.22713},{"name":"Belmullet","countryCode":"IE","stateCode":"C","latitude":54.225,"longitude":-9.99083},{"name":"Belturbet","countryCode":"IE","stateCode":"U","latitude":54.1,"longitude":-7.45},{"name":"Birr","countryCode":"IE","stateCode":"L","latitude":53.09139,"longitude":-7.91333},{"name":"Blackrock","countryCode":"IE","stateCode":"L","latitude":53.3015,"longitude":-6.1778},{"name":"Blanchardstown","countryCode":"IE","stateCode":"L","latitude":53.38806,"longitude":-6.37556},{"name":"Blarney","countryCode":"IE","stateCode":"M","latitude":51.93333,"longitude":-8.56667},{"name":"Blessington","countryCode":"IE","stateCode":"L","latitude":53.17,"longitude":-6.5325},{"name":"Bonnybrook","countryCode":"IE","stateCode":"L","latitude":53.39835,"longitude":-6.20749},{"name":"Booterstown","countryCode":"IE","stateCode":"L","latitude":53.30447,"longitude":-6.19985},{"name":"Boyle","countryCode":"IE","stateCode":"C","latitude":53.96667,"longitude":-8.3},{"name":"Bray","countryCode":"IE","stateCode":"L","latitude":53.20278,"longitude":-6.09833},{"name":"Bunclody","countryCode":"IE","stateCode":"L","latitude":52.6553,"longitude":-6.65359},{"name":"Buncrana","countryCode":"IE","stateCode":"U","latitude":55.13333,"longitude":-7.45},{"name":"Bundoran","countryCode":"IE","stateCode":"U","latitude":54.47782,"longitude":-8.28094},{"name":"Cabinteely","countryCode":"IE","stateCode":"L","latitude":53.26973,"longitude":-6.16058},{"name":"Cabra","countryCode":"IE","stateCode":"L","latitude":53.36694,"longitude":-6.29444},{"name":"Caherconlish","countryCode":"IE","stateCode":"M","latitude":52.59361,"longitude":-8.47028},{"name":"Cahersiveen","countryCode":"IE","stateCode":"M","latitude":51.94861,"longitude":-10.22222},{"name":"Cahir","countryCode":"IE","stateCode":"M","latitude":52.37694,"longitude":-7.92167},{"name":"Callan","countryCode":"IE","stateCode":"L","latitude":52.545,"longitude":-7.39111},{"name":"Carlingford","countryCode":"IE","stateCode":"L","latitude":54.04,"longitude":-6.18833},{"name":"Carlow","countryCode":"IE","stateCode":"L","latitude":52.84083,"longitude":-6.92611},{"name":"Carndonagh","countryCode":"IE","stateCode":"U","latitude":55.25,"longitude":-7.26667},{"name":"Carnew","countryCode":"IE","stateCode":"L","latitude":52.70806,"longitude":-6.49444},{"name":"Carrick-on-Shannon","countryCode":"IE","stateCode":"C","latitude":53.94694,"longitude":-8.09},{"name":"Carrick-on-Suir","countryCode":"IE","stateCode":"M","latitude":52.34917,"longitude":-7.41306},{"name":"Carrickmacross","countryCode":"IE","stateCode":"U","latitude":53.97278,"longitude":-6.71889},{"name":"Carrigaline","countryCode":"IE","stateCode":"M","latitude":51.81167,"longitude":-8.39861},{"name":"Carrigtwohill","countryCode":"IE","stateCode":"M","latitude":51.90833,"longitude":-8.26333},{"name":"Cashel","countryCode":"IE","stateCode":"M","latitude":52.51583,"longitude":-7.88556},{"name":"Castlebar","countryCode":"IE","stateCode":"C","latitude":53.85,"longitude":-9.3},{"name":"Castlebellingham","countryCode":"IE","stateCode":"L","latitude":53.90083,"longitude":-6.39028},{"name":"Castleblayney","countryCode":"IE","stateCode":"U","latitude":54.11667,"longitude":-6.73333},{"name":"Castlebridge","countryCode":"IE","stateCode":"L","latitude":52.38639,"longitude":-6.44944},{"name":"Castlecomer","countryCode":"IE","stateCode":"L","latitude":52.80611,"longitude":-7.21056},{"name":"Castleconnell","countryCode":"IE","stateCode":"M","latitude":52.71389,"longitude":-8.49944},{"name":"Castledermot","countryCode":"IE","stateCode":"L","latitude":52.90889,"longitude":-6.84222},{"name":"Castleisland","countryCode":"IE","stateCode":"M","latitude":52.23333,"longitude":-9.46667},{"name":"Castleknock","countryCode":"IE","stateCode":"L","latitude":53.37483,"longitude":-6.36336},{"name":"Castlemartyr","countryCode":"IE","stateCode":"M","latitude":51.91028,"longitude":-8.05389},{"name":"Castlepollard","countryCode":"IE","stateCode":"L","latitude":53.67935,"longitude":-7.29736},{"name":"Castlerea","countryCode":"IE","stateCode":"C","latitude":53.76667,"longitude":-8.5},{"name":"Castletown","countryCode":"IE","stateCode":"L","latitude":52.72306,"longitude":-6.18944},{"name":"Cavan","countryCode":"IE","stateCode":"U","latitude":53.99083,"longitude":-7.36056},{"name":"Celbridge","countryCode":"IE","stateCode":"L","latitude":53.34165,"longitude":-6.54419},{"name":"Chapelizod","countryCode":"IE","stateCode":"L","latitude":53.34846,"longitude":-6.34301},{"name":"Charlesland","countryCode":"IE","stateCode":"L","latitude":53.12771,"longitude":-6.06347},{"name":"Cherry Orchard","countryCode":"IE","stateCode":"L","latitude":53.33605,"longitude":-6.37799},{"name":"Cherryville","countryCode":"IE","stateCode":"L","latitude":53.15694,"longitude":-6.96667},{"name":"Ciarraí","countryCode":"IE","stateCode":"M","latitude":52.16667,"longitude":-9.75},{"name":"Cill Airne","countryCode":"IE","stateCode":"M","latitude":52.0598,"longitude":-9.50858},{"name":"Clane","countryCode":"IE","stateCode":"L","latitude":53.29139,"longitude":-6.68917},{"name":"Clara","countryCode":"IE","stateCode":"L","latitude":53.3425,"longitude":-7.61389},{"name":"Claregalway","countryCode":"IE","stateCode":"C","latitude":53.33861,"longitude":-8.945},{"name":"Claremorris","countryCode":"IE","stateCode":"C","latitude":53.71667,"longitude":-9},{"name":"Clifden","countryCode":"IE","stateCode":"C","latitude":53.48907,"longitude":-10.0191},{"name":"Clogherhead","countryCode":"IE","stateCode":"L","latitude":53.79361,"longitude":-6.2375},{"name":"Clonakilty","countryCode":"IE","stateCode":"M","latitude":51.62306,"longitude":-8.87056},{"name":"Clondalkin","countryCode":"IE","stateCode":"L","latitude":53.32444,"longitude":-6.39722},{"name":"Clones","countryCode":"IE","stateCode":"U","latitude":54.18333,"longitude":-7.23333},{"name":"Clonskeagh","countryCode":"IE","stateCode":"L","latitude":53.31467,"longitude":-6.23148},{"name":"Cloyne","countryCode":"IE","stateCode":"M","latitude":51.86278,"longitude":-8.12444},{"name":"Cluain Meala","countryCode":"IE","stateCode":"M","latitude":52.355,"longitude":-7.70389},{"name":"Cobh","countryCode":"IE","stateCode":"M","latitude":51.85046,"longitude":-8.2948},{"name":"Collooney","countryCode":"IE","stateCode":"C","latitude":54.18333,"longitude":-8.5},{"name":"Confey","countryCode":"IE","stateCode":"L","latitude":53.37923,"longitude":-6.49052},{"name":"Convoy","countryCode":"IE","stateCode":"U","latitude":54.86083,"longitude":-7.66556},{"name":"Coolock","countryCode":"IE","stateCode":"L","latitude":53.3887,"longitude":-6.19998},{"name":"Cootehill","countryCode":"IE","stateCode":"U","latitude":54.0725,"longitude":-7.08194},{"name":"Cork","countryCode":"IE","stateCode":"M","latitude":51.89797,"longitude":-8.47061},{"name":"Cork City","countryCode":"IE","stateCode":"M","latitude":51.89755,"longitude":-8.46773},{"name":"County Carlow","countryCode":"IE","stateCode":"L","latitude":52.66667,"longitude":-6.83333},{"name":"County Cork","countryCode":"IE","stateCode":"M","latitude":51.96667,"longitude":-8.58333},{"name":"County Donegal","countryCode":"IE","stateCode":"U","latitude":54.91667,"longitude":-8},{"name":"County Galway","countryCode":"IE","stateCode":"C","latitude":53.33333,"longitude":-9},{"name":"County Leitrim","countryCode":"IE","stateCode":"C","latitude":54.11667,"longitude":-8},{"name":"County Monaghan","countryCode":"IE","stateCode":"U","latitude":54.25,"longitude":-7},{"name":"County Tipperary","countryCode":"IE","stateCode":"M","latitude":52.66667,"longitude":-7.83333},{"name":"Courtown","countryCode":"IE","stateCode":"L","latitude":52.64424,"longitude":-6.22899},{"name":"Croom","countryCode":"IE","stateCode":"M","latitude":52.51944,"longitude":-8.71778},{"name":"Crosshaven","countryCode":"IE","stateCode":"M","latitude":51.79833,"longitude":-8.30083},{"name":"Crossmolina","countryCode":"IE","stateCode":"C","latitude":54.1,"longitude":-9.31667},{"name":"Crumlin","countryCode":"IE","stateCode":"L","latitude":53.32154,"longitude":-6.31439},{"name":"Daingean","countryCode":"IE","stateCode":"L","latitude":53.29611,"longitude":-7.28944},{"name":"Dalkey","countryCode":"IE","stateCode":"L","latitude":53.27833,"longitude":-6.10028},{"name":"Darndale","countryCode":"IE","stateCode":"L","latitude":53.39948,"longitude":-6.18886},{"name":"Derrinturn","countryCode":"IE","stateCode":"L","latitude":53.34167,"longitude":-6.94111},{"name":"Derry","countryCode":"IE","stateCode":"M","latitude":51.58666,"longitude":-9.05026},{"name":"Derrybeg","countryCode":"IE","stateCode":"U","latitude":55.08333,"longitude":-8.28944},{"name":"Dingle","countryCode":"IE","stateCode":"M","latitude":52.14083,"longitude":-10.26889},{"name":"Dollymount","countryCode":"IE","stateCode":"L","latitude":53.36489,"longitude":-6.18032},{"name":"Donabate","countryCode":"IE","stateCode":"L","latitude":53.48722,"longitude":-6.15194},{"name":"Donaghmede","countryCode":"IE","stateCode":"L","latitude":53.39845,"longitude":-6.16179},{"name":"Donegal","countryCode":"IE","stateCode":"U","latitude":54.65378,"longitude":-8.11134},{"name":"Donnybrook","countryCode":"IE","stateCode":"L","latitude":53.31375,"longitude":-6.22274},{"name":"Donnycarney","countryCode":"IE","stateCode":"L","latitude":53.3735,"longitude":-6.20976},{"name":"Drogheda","countryCode":"IE","stateCode":"L","latitude":53.71889,"longitude":-6.34778},{"name":"Droichead Nua","countryCode":"IE","stateCode":"L","latitude":53.18194,"longitude":-6.79667},{"name":"Dromiskin","countryCode":"IE","stateCode":"L","latitude":53.92538,"longitude":-6.40292},{"name":"Drumcondra","countryCode":"IE","stateCode":"L","latitude":53.37058,"longitude":-6.25298},{"name":"Dublin","countryCode":"IE","stateCode":"L","latitude":53.33306,"longitude":-6.24889},{"name":"Dublin City","countryCode":"IE","stateCode":"L","latitude":53.35512,"longitude":-6.24922},{"name":"Duleek","countryCode":"IE","stateCode":"L","latitude":53.65667,"longitude":-6.41917},{"name":"Dún Laoghaire","countryCode":"IE","stateCode":"L","latitude":53.29395,"longitude":-6.13586},{"name":"Dún Laoghaire-Rathdown","countryCode":"IE","stateCode":"L","latitude":53.29436,"longitude":-6.13489},{"name":"Dunboyne","countryCode":"IE","stateCode":"L","latitude":53.41901,"longitude":-6.47375},{"name":"Dundalk","countryCode":"IE","stateCode":"L","latitude":54,"longitude":-6.41667},{"name":"Dundrum","countryCode":"IE","stateCode":"L","latitude":53.29067,"longitude":-6.25714},{"name":"Dungarvan","countryCode":"IE","stateCode":"M","latitude":52.08806,"longitude":-7.62528},{"name":"Dungloe","countryCode":"IE","stateCode":"U","latitude":54.95111,"longitude":-8.35917},{"name":"Dunleer","countryCode":"IE","stateCode":"L","latitude":53.835,"longitude":-6.39611},{"name":"Dunlewy","countryCode":"IE","stateCode":"U","latitude":55.01667,"longitude":-8.1},{"name":"Dunmanway","countryCode":"IE","stateCode":"M","latitude":51.71667,"longitude":-9.11667},{"name":"Dunmore East","countryCode":"IE","stateCode":"M","latitude":52.15108,"longitude":-6.99872},{"name":"Dunshaughlin","countryCode":"IE","stateCode":"L","latitude":53.5125,"longitude":-6.54},{"name":"Eadestown","countryCode":"IE","stateCode":"L","latitude":53.20278,"longitude":-6.57806},{"name":"Edenderry","countryCode":"IE","stateCode":"L","latitude":53.33948,"longitude":-7.04752},{"name":"Edgeworthstown","countryCode":"IE","stateCode":"L","latitude":53.7,"longitude":-7.61667},{"name":"Enfield","countryCode":"IE","stateCode":"L","latitude":53.41419,"longitude":-6.83229},{"name":"Ennis","countryCode":"IE","stateCode":"M","latitude":52.84361,"longitude":-8.98639},{"name":"Enniscorthy","countryCode":"IE","stateCode":"L","latitude":52.50083,"longitude":-6.55778},{"name":"Enniskerry","countryCode":"IE","stateCode":"L","latitude":53.1925,"longitude":-6.16917},{"name":"Fairview","countryCode":"IE","stateCode":"L","latitude":53.36597,"longitude":-6.23985},{"name":"Ferbane","countryCode":"IE","stateCode":"L","latitude":53.26944,"longitude":-7.82694},{"name":"Fermoy","countryCode":"IE","stateCode":"M","latitude":52.13583,"longitude":-8.27583},{"name":"Ferns","countryCode":"IE","stateCode":"L","latitude":52.58833,"longitude":-6.49972},{"name":"Fethard","countryCode":"IE","stateCode":"M","latitude":52.46722,"longitude":-7.69111},{"name":"Fingal County","countryCode":"IE","stateCode":"L","latitude":53.45909,"longitude":-6.21942},{"name":"Finglas","countryCode":"IE","stateCode":"L","latitude":53.38917,"longitude":-6.29694},{"name":"Firhouse","countryCode":"IE","stateCode":"L","latitude":53.28167,"longitude":-6.33917},{"name":"Foxford","countryCode":"IE","stateCode":"C","latitude":53.9807,"longitude":-9.11551},{"name":"Foxrock","countryCode":"IE","stateCode":"L","latitude":53.26667,"longitude":-6.17417},{"name":"Gaillimh","countryCode":"IE","stateCode":"C","latitude":53.27194,"longitude":-9.04889},{"name":"Galway City","countryCode":"IE","stateCode":"C","latitude":53.2877,"longitude":-9.05004},{"name":"Glasnevin","countryCode":"IE","stateCode":"L","latitude":53.37851,"longitude":-6.28028},{"name":"Gorey","countryCode":"IE","stateCode":"L","latitude":52.67472,"longitude":-6.2925},{"name":"Gort","countryCode":"IE","stateCode":"C","latitude":53.06639,"longitude":-8.81667},{"name":"Graiguenamanagh","countryCode":"IE","stateCode":"L","latitude":52.54028,"longitude":-6.95472},{"name":"Granard","countryCode":"IE","stateCode":"L","latitude":53.77928,"longitude":-7.49429},{"name":"Greenhills","countryCode":"IE","stateCode":"L","latitude":53.33467,"longitude":-6.30302},{"name":"Greystones","countryCode":"IE","stateCode":"L","latitude":53.14083,"longitude":-6.06306},{"name":"Gweedore","countryCode":"IE","stateCode":"U","latitude":55.05028,"longitude":-8.23194},{"name":"Hartstown","countryCode":"IE","stateCode":"L","latitude":53.39306,"longitude":-6.42694},{"name":"Howth","countryCode":"IE","stateCode":"L","latitude":53.38778,"longitude":-6.06528},{"name":"Inishcrone","countryCode":"IE","stateCode":"C","latitude":54.21591,"longitude":-9.09197},{"name":"Jobstown","countryCode":"IE","stateCode":"L","latitude":53.27866,"longitude":-6.40803},{"name":"Johnstown","countryCode":"IE","stateCode":"L","latitude":53.23833,"longitude":-6.62222},{"name":"Kanturk","countryCode":"IE","stateCode":"M","latitude":52.16667,"longitude":-8.9},{"name":"Kells","countryCode":"IE","stateCode":"L","latitude":53.72639,"longitude":-6.87917},{"name":"Kenmare","countryCode":"IE","stateCode":"M","latitude":51.88333,"longitude":-9.58333},{"name":"Kentstown","countryCode":"IE","stateCode":"L","latitude":53.62754,"longitude":-6.52674},{"name":"Kilbeggan","countryCode":"IE","stateCode":"L","latitude":53.36944,"longitude":-7.50333},{"name":"Kilcock","countryCode":"IE","stateCode":"L","latitude":53.40222,"longitude":-6.67083},{"name":"Kilcoole","countryCode":"IE","stateCode":"L","latitude":53.10278,"longitude":-6.065},{"name":"Kilcullen","countryCode":"IE","stateCode":"L","latitude":53.13028,"longitude":-6.74444},{"name":"Kildare","countryCode":"IE","stateCode":"L","latitude":53.16667,"longitude":-6.75},{"name":"Kilkenny","countryCode":"IE","stateCode":"L","latitude":52.58333,"longitude":-7.25},{"name":"Kill","countryCode":"IE","stateCode":"L","latitude":53.25139,"longitude":-6.59167},{"name":"Killaloe","countryCode":"IE","stateCode":"M","latitude":52.80667,"longitude":-8.44361},{"name":"Killester","countryCode":"IE","stateCode":"L","latitude":53.37322,"longitude":-6.20431},{"name":"Killorglin","countryCode":"IE","stateCode":"M","latitude":52.1,"longitude":-9.78333},{"name":"Killumney","countryCode":"IE","stateCode":"M","latitude":51.87243,"longitude":-8.64781},{"name":"Killybegs","countryCode":"IE","stateCode":"U","latitude":54.63333,"longitude":-8.45},{"name":"Kilmacanoge","countryCode":"IE","stateCode":"L","latitude":53.16722,"longitude":-6.13361},{"name":"Kilmallock","countryCode":"IE","stateCode":"M","latitude":52.4,"longitude":-8.57722},{"name":"Kilpedder","countryCode":"IE","stateCode":"L","latitude":53.10917,"longitude":-6.10667},{"name":"Kilquade","countryCode":"IE","stateCode":"L","latitude":53.09743,"longitude":-6.08411},{"name":"Kilrush","countryCode":"IE","stateCode":"M","latitude":52.63972,"longitude":-9.48333},{"name":"Kiltamagh","countryCode":"IE","stateCode":"C","latitude":53.85,"longitude":-9},{"name":"Kingscourt","countryCode":"IE","stateCode":"U","latitude":53.90806,"longitude":-6.80556},{"name":"Kinlough","countryCode":"IE","stateCode":"C","latitude":54.45,"longitude":-8.28333},{"name":"Kinnegad","countryCode":"IE","stateCode":"L","latitude":53.45222,"longitude":-7.09972},{"name":"Kinsale","countryCode":"IE","stateCode":"M","latitude":51.7075,"longitude":-8.53056},{"name":"Kinsealy-Drinan","countryCode":"IE","stateCode":"L","latitude":53.44395,"longitude":-6.20334},{"name":"Knocklyon","countryCode":"IE","stateCode":"L","latitude":53.2803,"longitude":-6.3313},{"name":"Lanesborough","countryCode":"IE","stateCode":"L","latitude":53.66667,"longitude":-7.98333},{"name":"Laois","countryCode":"IE","stateCode":"L","latitude":53,"longitude":-7.4},{"name":"Laytown","countryCode":"IE","stateCode":"L","latitude":53.68194,"longitude":-6.23917},{"name":"Leifear","countryCode":"IE","stateCode":"U","latitude":54.83194,"longitude":-7.48361},{"name":"Leixlip","countryCode":"IE","stateCode":"L","latitude":53.36583,"longitude":-6.49556},{"name":"Letterkenny","countryCode":"IE","stateCode":"U","latitude":54.95,"longitude":-7.73333},{"name":"Listowel","countryCode":"IE","stateCode":"M","latitude":52.44639,"longitude":-9.485},{"name":"Little Bray","countryCode":"IE","stateCode":"L","latitude":53.20444,"longitude":-6.12083},{"name":"Loch Garman","countryCode":"IE","stateCode":"L","latitude":52.5,"longitude":-6.66667},{"name":"Longford","countryCode":"IE","stateCode":"L","latitude":53.72536,"longitude":-7.79823},{"name":"Longwood","countryCode":"IE","stateCode":"L","latitude":53.45389,"longitude":-6.92194},{"name":"Loughlinstown","countryCode":"IE","stateCode":"L","latitude":53.24389,"longitude":-6.13306},{"name":"Loughrea","countryCode":"IE","stateCode":"C","latitude":53.19694,"longitude":-8.56694},{"name":"Lú","countryCode":"IE","stateCode":"L","latitude":53.83333,"longitude":-6.5},{"name":"Lucan","countryCode":"IE","stateCode":"L","latitude":53.35736,"longitude":-6.44859},{"name":"Luimneach","countryCode":"IE","stateCode":"M","latitude":52.66472,"longitude":-8.62306},{"name":"Lusk","countryCode":"IE","stateCode":"L","latitude":53.52743,"longitude":-6.16423},{"name":"Macroom","countryCode":"IE","stateCode":"M","latitude":51.90663,"longitude":-8.96968},{"name":"Malahide","countryCode":"IE","stateCode":"L","latitude":53.45083,"longitude":-6.15444},{"name":"Mallow","countryCode":"IE","stateCode":"M","latitude":52.13333,"longitude":-8.63333},{"name":"Manorhamilton","countryCode":"IE","stateCode":"C","latitude":54.30639,"longitude":-8.17611},{"name":"Marino","countryCode":"IE","stateCode":"L","latitude":53.37022,"longitude":-6.23646},{"name":"Maynooth","countryCode":"IE","stateCode":"L","latitude":53.385,"longitude":-6.59361},{"name":"Mayo County","countryCode":"IE","stateCode":"C","latitude":53.9,"longitude":-9.25},{"name":"Midleton","countryCode":"IE","stateCode":"M","latitude":51.91526,"longitude":-8.18052},{"name":"Millstreet","countryCode":"IE","stateCode":"M","latitude":52.05935,"longitude":-9.06031},{"name":"Milltown","countryCode":"IE","stateCode":"L","latitude":53.31301,"longitude":-6.2453},{"name":"Mitchelstown","countryCode":"IE","stateCode":"M","latitude":52.26583,"longitude":-8.26806},{"name":"Moate","countryCode":"IE","stateCode":"L","latitude":53.39389,"longitude":-7.71722},{"name":"Monaghan","countryCode":"IE","stateCode":"U","latitude":54.25,"longitude":-6.96667},{"name":"Monasterevin","countryCode":"IE","stateCode":"L","latitude":53.14056,"longitude":-7.06639},{"name":"Monkstown","countryCode":"IE","stateCode":"L","latitude":53.29308,"longitude":-6.15312},{"name":"Mooncoin","countryCode":"IE","stateCode":"L","latitude":52.28944,"longitude":-7.24833},{"name":"Moone","countryCode":"IE","stateCode":"L","latitude":52.97556,"longitude":-6.815},{"name":"Moroe","countryCode":"IE","stateCode":"M","latitude":52.65111,"longitude":-8.39611},{"name":"Mount Merrion","countryCode":"IE","stateCode":"L","latitude":53.30008,"longitude":-6.21504},{"name":"Mountmellick","countryCode":"IE","stateCode":"L","latitude":53.11361,"longitude":-7.32},{"name":"Mountrath","countryCode":"IE","stateCode":"L","latitude":52.99889,"longitude":-7.47278},{"name":"Moville","countryCode":"IE","stateCode":"U","latitude":55.19153,"longitude":-7.03873},{"name":"Moycullen","countryCode":"IE","stateCode":"C","latitude":53.33783,"longitude":-9.18002},{"name":"Moyross","countryCode":"IE","stateCode":"M","latitude":52.68198,"longitude":-8.63955},{"name":"Muff","countryCode":"IE","stateCode":"U","latitude":55.06667,"longitude":-7.26667},{"name":"Mullagh","countryCode":"IE","stateCode":"U","latitude":53.81306,"longitude":-6.95139},{"name":"Naas","countryCode":"IE","stateCode":"L","latitude":53.21583,"longitude":-6.66694},{"name":"Navan","countryCode":"IE","stateCode":"L","latitude":53.65278,"longitude":-6.68139},{"name":"Nenagh","countryCode":"IE","stateCode":"M","latitude":52.86194,"longitude":-8.19667},{"name":"Nenagh Bridge","countryCode":"IE","stateCode":"M","latitude":52.88167,"longitude":-8.19583},{"name":"New Ross","countryCode":"IE","stateCode":"L","latitude":52.39667,"longitude":-6.93667},{"name":"Newcastle","countryCode":"IE","stateCode":"L","latitude":53.30111,"longitude":-6.50222},{"name":"Newcastle West","countryCode":"IE","stateCode":"M","latitude":52.44917,"longitude":-9.06111},{"name":"Newmarket on Fergus","countryCode":"IE","stateCode":"M","latitude":52.76,"longitude":-8.89556},{"name":"Newport","countryCode":"IE","stateCode":"M","latitude":52.71111,"longitude":-8.40972},{"name":"Newtown Cunningham","countryCode":"IE","stateCode":"U","latitude":54.99639,"longitude":-7.51917},{"name":"Newtown Trim","countryCode":"IE","stateCode":"L","latitude":53.55611,"longitude":-6.77},{"name":"Newtownmountkennedy","countryCode":"IE","stateCode":"L","latitude":53.09052,"longitude":-6.11149},{"name":"Old Kilcullen","countryCode":"IE","stateCode":"L","latitude":53.10639,"longitude":-6.76528},{"name":"Oldbawn","countryCode":"IE","stateCode":"L","latitude":53.27556,"longitude":-6.3675},{"name":"Oldcastle","countryCode":"IE","stateCode":"L","latitude":53.76648,"longitude":-7.16284},{"name":"Oranmore","countryCode":"IE","stateCode":"C","latitude":53.26833,"longitude":-8.92},{"name":"Oughterard","countryCode":"IE","stateCode":"C","latitude":53.41667,"longitude":-9.33333},{"name":"Palmerstown","countryCode":"IE","stateCode":"L","latitude":53.35019,"longitude":-6.37778},{"name":"Passage West","countryCode":"IE","stateCode":"M","latitude":51.87389,"longitude":-8.34444},{"name":"Piltown","countryCode":"IE","stateCode":"L","latitude":52.35333,"longitude":-7.34028},{"name":"Portarlington","countryCode":"IE","stateCode":"L","latitude":53.16222,"longitude":-7.19111},{"name":"Portlaoise","countryCode":"IE","stateCode":"L","latitude":53.03441,"longitude":-7.29979},{"name":"Portlaw","countryCode":"IE","stateCode":"M","latitude":52.28833,"longitude":-7.32056},{"name":"Portmarnock","countryCode":"IE","stateCode":"L","latitude":53.42306,"longitude":-6.1375},{"name":"Portraine","countryCode":"IE","stateCode":"L","latitude":53.49667,"longitude":-6.11111},{"name":"Portumna","countryCode":"IE","stateCode":"C","latitude":53.08917,"longitude":-8.21889},{"name":"Prosperous","countryCode":"IE","stateCode":"L","latitude":53.29028,"longitude":-6.75389},{"name":"Raheny","countryCode":"IE","stateCode":"L","latitude":53.38681,"longitude":-6.18067},{"name":"Ramelton","countryCode":"IE","stateCode":"U","latitude":55.03673,"longitude":-7.64923},{"name":"Raphoe","countryCode":"IE","stateCode":"U","latitude":54.87472,"longitude":-7.59833},{"name":"Ráth Luirc","countryCode":"IE","stateCode":"M","latitude":52.35,"longitude":-8.68333},{"name":"Rathangan","countryCode":"IE","stateCode":"L","latitude":53.22139,"longitude":-6.995},{"name":"Rathcoole","countryCode":"IE","stateCode":"L","latitude":53.28278,"longitude":-6.47278},{"name":"Rathcormac","countryCode":"IE","stateCode":"M","latitude":52.07694,"longitude":-8.28194},{"name":"Rathdowney","countryCode":"IE","stateCode":"L","latitude":52.85472,"longitude":-7.58028},{"name":"Rathdrum","countryCode":"IE","stateCode":"L","latitude":52.92639,"longitude":-6.23556},{"name":"Rathgar","countryCode":"IE","stateCode":"L","latitude":53.31457,"longitude":-6.275},{"name":"Rathkeale","countryCode":"IE","stateCode":"M","latitude":52.52444,"longitude":-8.93806},{"name":"Rathmines","countryCode":"IE","stateCode":"L","latitude":53.32028,"longitude":-6.26333},{"name":"Rathnew","countryCode":"IE","stateCode":"L","latitude":52.99056,"longitude":-6.08528},{"name":"Rathwire","countryCode":"IE","stateCode":"L","latitude":53.50767,"longitude":-7.1351},{"name":"Ratoath","countryCode":"IE","stateCode":"L","latitude":53.50806,"longitude":-6.4625},{"name":"Rialto","countryCode":"IE","stateCode":"L","latitude":53.33625,"longitude":-6.29718},{"name":"Ringsend","countryCode":"IE","stateCode":"L","latitude":53.34194,"longitude":-6.22639},{"name":"Rochfortbridge","countryCode":"IE","stateCode":"L","latitude":53.41417,"longitude":-7.29611},{"name":"Roscommon","countryCode":"IE","stateCode":"C","latitude":53.75,"longitude":-8.25},{"name":"Roscrea","countryCode":"IE","stateCode":"M","latitude":52.95111,"longitude":-7.80167},{"name":"Rosslare","countryCode":"IE","stateCode":"L","latitude":52.27583,"longitude":-6.38444},{"name":"Saggart","countryCode":"IE","stateCode":"L","latitude":53.28028,"longitude":-6.44444},{"name":"Sallins","countryCode":"IE","stateCode":"L","latitude":53.24889,"longitude":-6.66611},{"name":"Sallynoggin","countryCode":"IE","stateCode":"L","latitude":53.27917,"longitude":-6.14058},{"name":"Sandyford","countryCode":"IE","stateCode":"L","latitude":53.2747,"longitude":-6.2253},{"name":"Sandymount","countryCode":"IE","stateCode":"L","latitude":53.32815,"longitude":-6.22224},{"name":"Shankill","countryCode":"IE","stateCode":"L","latitude":53.22611,"longitude":-6.12444},{"name":"Shannon","countryCode":"IE","stateCode":"M","latitude":52.70389,"longitude":-8.86417},{"name":"Sixmilebridge","countryCode":"IE","stateCode":"M","latitude":52.74139,"longitude":-8.77417},{"name":"Skerries","countryCode":"IE","stateCode":"L","latitude":53.58278,"longitude":-6.10833},{"name":"Skibbereen","countryCode":"IE","stateCode":"M","latitude":51.55,"longitude":-9.26667},{"name":"Slane","countryCode":"IE","stateCode":"L","latitude":53.71,"longitude":-6.54333},{"name":"Sligo","countryCode":"IE","stateCode":"C","latitude":54.25,"longitude":-8.66667},{"name":"South Dublin","countryCode":"IE","stateCode":"L","latitude":53.28595,"longitude":-6.37739},{"name":"Stamullin","countryCode":"IE","stateCode":"L","latitude":53.62889,"longitude":-6.26833},{"name":"Stradbally","countryCode":"IE","stateCode":"L","latitude":53.01556,"longitude":-7.15278},{"name":"Strandhill","countryCode":"IE","stateCode":"C","latitude":54.27194,"longitude":-8.59333},{"name":"Sutton","countryCode":"IE","stateCode":"L","latitude":53.38947,"longitude":-6.11059},{"name":"Swinford","countryCode":"IE","stateCode":"C","latitude":53.95,"longitude":-8.95},{"name":"Swords","countryCode":"IE","stateCode":"L","latitude":53.45972,"longitude":-6.21806},{"name":"Tallaght","countryCode":"IE","stateCode":"L","latitude":53.2859,"longitude":-6.37344},{"name":"Templemore","countryCode":"IE","stateCode":"M","latitude":52.79472,"longitude":-7.83389},{"name":"Templeogue","countryCode":"IE","stateCode":"L","latitude":53.29528,"longitude":-6.30889},{"name":"Terenure","countryCode":"IE","stateCode":"L","latitude":53.30972,"longitude":-6.28528},{"name":"Termonfeckin","countryCode":"IE","stateCode":"L","latitude":53.76333,"longitude":-6.26778},{"name":"Thomastown","countryCode":"IE","stateCode":"L","latitude":52.52667,"longitude":-7.13722},{"name":"Thurles","countryCode":"IE","stateCode":"M","latitude":52.68194,"longitude":-7.80222},{"name":"Tipperary","countryCode":"IE","stateCode":"M","latitude":52.47333,"longitude":-8.15583},{"name":"Tobercurry","countryCode":"IE","stateCode":"C","latitude":54.05,"longitude":-8.73333},{"name":"Tower","countryCode":"IE","stateCode":"M","latitude":51.92599,"longitude":-8.60747},{"name":"Trá Mhór","countryCode":"IE","stateCode":"M","latitude":52.16235,"longitude":-7.15244},{"name":"Tralee","countryCode":"IE","stateCode":"M","latitude":52.27042,"longitude":-9.70264},{"name":"Trim","countryCode":"IE","stateCode":"L","latitude":53.555,"longitude":-6.79167},{"name":"Tuam","countryCode":"IE","stateCode":"C","latitude":53.51667,"longitude":-8.85},{"name":"Tullamore","countryCode":"IE","stateCode":"L","latitude":53.27389,"longitude":-7.48889},{"name":"Tullow","countryCode":"IE","stateCode":"L","latitude":52.80028,"longitude":-6.73694},{"name":"Tullyallen","countryCode":"IE","stateCode":"L","latitude":53.73611,"longitude":-6.42278},{"name":"Uíbh Fhailí","countryCode":"IE","stateCode":"L","latitude":53.25,"longitude":-7.5},{"name":"Valleymount","countryCode":"IE","stateCode":"L","latitude":53.10389,"longitude":-6.55361},{"name":"Virginia","countryCode":"IE","stateCode":"U","latitude":53.83389,"longitude":-7.07556},{"name":"Waterford","countryCode":"IE","stateCode":"M","latitude":52.25833,"longitude":-7.11194},{"name":"Watergrasshill","countryCode":"IE","stateCode":"M","latitude":52.01139,"longitude":-8.34417},{"name":"Westport","countryCode":"IE","stateCode":"C","latitude":53.8,"longitude":-9.51667},{"name":"Whitegate","countryCode":"IE","stateCode":"M","latitude":51.83056,"longitude":-8.22972},{"name":"Wicklow","countryCode":"IE","stateCode":"L","latitude":53,"longitude":-6.41667},{"name":"Youghal","countryCode":"IE","stateCode":"M","latitude":51.95,"longitude":-7.85056}]
