[{"name":"Abhaneri","countryCode":"IN","stateCode":"RJ","latitude":27.00743,"longitude":76.6076},{"name":"Abhayapuri","countryCode":"IN","stateCode":"AS","latitude":26.32255,"longitude":90.68526},{"name":"Abiramam","countryCode":"IN","stateCode":"TN","latitude":9.4423,"longitude":78.4399},{"name":"Abohar","countryCode":"IN","stateCode":"PB","latitude":30.14453,"longitude":74.19552},{"name":"Abrama","countryCode":"IN","stateCode":"GJ","latitude":20.85865,"longitude":72.90648},{"name":"Abu","countryCode":"IN","stateCode":"RJ","latitude":24.59365,"longitude":72.71756},{"name":"Abu Road","countryCode":"IN","stateCode":"RJ","latitude":24.48012,"longitude":72.78186},{"name":"Achalpur","countryCode":"IN","stateCode":"MH","latitude":21.25665,"longitude":77.51006},{"name":"Achhnera","countryCode":"IN","stateCode":"UP","latitude":27.17826,"longitude":77.75674},{"name":"Adalaj","countryCode":"IN","stateCode":"GJ","latitude":23.16453,"longitude":72.58107},{"name":"Adampur","countryCode":"IN","stateCode":"PB","latitude":31.43224,"longitude":75.71484},{"name":"Adawad","countryCode":"IN","stateCode":"MH","latitude":21.21666667,"longitude":75.45},{"name":"Addanki","countryCode":"IN","stateCode":"AP","latitude":15.81061,"longitude":79.97338},{"name":"Adilabad","countryCode":"IN","stateCode":"TG","latitude":19.5,"longitude":78.5},{"name":"Adirampattinam","countryCode":"IN","stateCode":"TN","latitude":10.34059,"longitude":79.37905},{"name":"Adoni","countryCode":"IN","stateCode":"AP","latitude":15.62788,"longitude":77.27495},{"name":"Adur","countryCode":"IN","stateCode":"KL","latitude":9.15595,"longitude":76.73192},{"name":"Aduthurai","countryCode":"IN","stateCode":"TN","latitude":11.01542,"longitude":79.48093},{"name":"Afzalgarh","countryCode":"IN","stateCode":"UP","latitude":29.3937,"longitude":78.67393},{"name":"Afzalpur","countryCode":"IN","stateCode":"KA","latitude":17.19986,"longitude":76.36018},{"name":"Agar","countryCode":"IN","stateCode":"MP","latitude":23.71177,"longitude":76.01571},{"name":"Agar Panchaitan","countryCode":"IN","stateCode":"MH","latitude":18.173692,"longitude":72.988533},{"name":"Agartala","countryCode":"IN","stateCode":"TR","latitude":23.83605,"longitude":91.27939},{"name":"Agol","countryCode":"IN","stateCode":"GJ","latitude":23.15,"longitude":72.26666667},{"name":"Agra","countryCode":"IN","stateCode":"UP","latitude":27.18333,"longitude":78.01667},{"name":"Aheri","countryCode":"IN","stateCode":"MH","latitude":19.41166667,"longitude":80.00388889},{"name":"Ahiri","countryCode":"IN","stateCode":"MH","latitude":19.41386,"longitude":80.00359},{"name":"Ahmadnagar","countryCode":"IN","stateCode":"MH","latitude":19.09457,"longitude":74.73843},{"name":"Ahmadpur","countryCode":"IN","stateCode":"MH","latitude":18.70622,"longitude":76.93731},{"name":"Ahmedabad","countryCode":"IN","stateCode":"GJ","latitude":23.02579,"longitude":72.58727},{"name":"Ahmednagar","countryCode":"IN","stateCode":"MH","latitude":19.08333333,"longitude":74.73333333},{"name":"Ahmedpur","countryCode":"IN","stateCode":"WB","latitude":23.83009,"longitude":87.68661},{"name":"Ahraura","countryCode":"IN","stateCode":"UP","latitude":25.01579,"longitude":83.03294},{"name":"Ahwa","countryCode":"IN","stateCode":"GJ","latitude":20.75718,"longitude":73.68626},{"name":"Aidalpur","countryCode":"IN","stateCode":"UP","latitude":26.13333333,"longitude":79.45},{"name":"Airoli","countryCode":"IN","stateCode":"MH","latitude":19.15096,"longitude":72.99625},{"name":"Airwa","countryCode":"IN","stateCode":"UP","latitude":26.9,"longitude":79.43333333},{"name":"Aistala","countryCode":"IN","stateCode":"WB","latitude":23.18,"longitude":88.58},{"name":"Aizawl","countryCode":"IN","stateCode":"MZ","latitude":23.8,"longitude":92.9},{"name":"Ajaigarh","countryCode":"IN","stateCode":"MP","latitude":24.89879,"longitude":80.25921},{"name":"Ajitgarh","countryCode":"IN","stateCode":"PB","latitude":30.65,"longitude":76.7},{"name":"Ajjampur","countryCode":"IN","stateCode":"KA","latitude":13.72794,"longitude":76.0068},{"name":"Ajmer","countryCode":"IN","stateCode":"RJ","latitude":26.25,"longitude":74.66667},{"name":"Ajnala","countryCode":"IN","stateCode":"PB","latitude":31.84473,"longitude":74.76295},{"name":"Ajra","countryCode":"IN","stateCode":"MH","latitude":16.11601,"longitude":74.21097},{"name":"Akalgarh","countryCode":"IN","stateCode":"PB","latitude":29.82074,"longitude":75.89078},{"name":"Akalkot","countryCode":"IN","stateCode":"MH","latitude":17.52532,"longitude":76.20611},{"name":"Akaltara","countryCode":"IN","stateCode":"CT","latitude":22.02463,"longitude":82.42641},{"name":"Akasahebpet","countryCode":"IN","stateCode":"AP","latitude":17.50455,"longitude":82.56597},{"name":"Akbarpur","countryCode":"IN","stateCode":"UP","latitude":26.42953,"longitude":82.53431},{"name":"Akhnur","countryCode":"IN","stateCode":"JK","latitude":32.86667,"longitude":74.73333},{"name":"Akividu","countryCode":"IN","stateCode":"AP","latitude":16.58225,"longitude":81.38112},{"name":"Akkalkot","countryCode":"IN","stateCode":"MH","latitude":17.51666667,"longitude":76.2},{"name":"Akkarampalle","countryCode":"IN","stateCode":"AP","latitude":13.65,"longitude":79.42},{"name":"Aklera","countryCode":"IN","stateCode":"RJ","latitude":24.41288,"longitude":76.56719},{"name":"Akluj","countryCode":"IN","stateCode":"MH","latitude":17.88333333,"longitude":75.01666667},{"name":"Aknapur","countryCode":"IN","stateCode":"WB","latitude":18.38576389,"longitude":77.27225278},{"name":"Akodia","countryCode":"IN","stateCode":"MP","latitude":23.38027,"longitude":76.59875},{"name":"Akola","countryCode":"IN","stateCode":"MH","latitude":20.5,"longitude":77.16667},{"name":"Akola","countryCode":"IN","stateCode":"UP","latitude":27.06547,"longitude":77.88084},{"name":"Akolner","countryCode":"IN","stateCode":"MH","latitude":18.98333333,"longitude":74.66666667},{"name":"Akot","countryCode":"IN","stateCode":"MH","latitude":21.0963,"longitude":77.0588},{"name":"Akrani","countryCode":"IN","stateCode":"MH","latitude":21.82423611,"longitude":74.21687222},{"name":"Akrund","countryCode":"IN","stateCode":"GJ","latitude":23.28333333,"longitude":73.11666667},{"name":"Alagapuram","countryCode":"IN","stateCode":"TN","latitude":11.88705,"longitude":78.91758},{"name":"Alampur","countryCode":"IN","stateCode":"MP","latitude":26.02514,"longitude":78.79697},{"name":"Alampur","countryCode":"IN","stateCode":"TG","latitude":15.87987,"longitude":78.13352},{"name":"Aland","countryCode":"IN","stateCode":"KA","latitude":17.56425,"longitude":76.56854},{"name":"Alandi","countryCode":"IN","stateCode":"MH","latitude":18.67756,"longitude":73.89868},{"name":"Alandur","countryCode":"IN","stateCode":"TN","latitude":13.0025,"longitude":80.20611},{"name":"Alanganallur","countryCode":"IN","stateCode":"TN","latitude":10.04697,"longitude":78.09033},{"name":"Alangayam","countryCode":"IN","stateCode":"TN","latitude":12.62235,"longitude":78.75207},{"name":"Alangudi","countryCode":"IN","stateCode":"TN","latitude":10.3606,"longitude":78.98492},{"name":"Alangulam","countryCode":"IN","stateCode":"TN","latitude":8.86404,"longitude":77.49937},{"name":"Alappakkam","countryCode":"IN","stateCode":"TN","latitude":11.59895,"longitude":79.71893},{"name":"Alappuzha","countryCode":"IN","stateCode":"KL","latitude":9.49004,"longitude":76.3264},{"name":"Alawalpur","countryCode":"IN","stateCode":"PB","latitude":31.43161,"longitude":75.65614},{"name":"Aldona","countryCode":"IN","stateCode":"GA","latitude":15.59337,"longitude":73.87482},{"name":"Ale","countryCode":"IN","stateCode":"MH","latitude":19.17,"longitude":74.12},{"name":"Alibag","countryCode":"IN","stateCode":"MH","latitude":18.64813,"longitude":72.87579},{"name":"Aliganj","countryCode":"IN","stateCode":"UP","latitude":27.49358,"longitude":79.17127},{"name":"Aligarh","countryCode":"IN","stateCode":"UP","latitude":27.83333,"longitude":78.16667},{"name":"Alipur","countryCode":"IN","stateCode":"DL","latitude":28.79862,"longitude":77.13314},{"name":"Alipurduar","countryCode":"IN","stateCode":"WB","latitude":26.49136,"longitude":89.52796},{"name":"Alirajpur","countryCode":"IN","stateCode":"MP","latitude":22.31384,"longitude":74.36452},{"name":"Alkuti","countryCode":"IN","stateCode":"MH","latitude":19.05,"longitude":74.23},{"name":"Allahabad","countryCode":"IN","stateCode":"UP","latitude":25.45,"longitude":81.85},{"name":"Allahganj","countryCode":"IN","stateCode":"UP","latitude":27.5454,"longitude":79.68715},{"name":"Allapalli","countryCode":"IN","stateCode":"MH","latitude":19.43172,"longitude":80.06377},{"name":"Almora","countryCode":"IN","stateCode":"UT","latitude":29.69223,"longitude":79.49789},{"name":"Alnavar","countryCode":"IN","stateCode":"KA","latitude":15.42727,"longitude":74.74111},{"name":"Along","countryCode":"IN","stateCode":"AR","latitude":28.16951,"longitude":94.8006},{"name":"Alot","countryCode":"IN","stateCode":"MP","latitude":23.76336,"longitude":75.55662},{"name":"Alur","countryCode":"IN","stateCode":"KA","latitude":12.97805,"longitude":75.99094},{"name":"Aluva","countryCode":"IN","stateCode":"KL","latitude":10.10764,"longitude":76.35158},{"name":"Alwa Tirunagari","countryCode":"IN","stateCode":"TN","latitude":8.60635,"longitude":77.93983},{"name":"Alwar","countryCode":"IN","stateCode":"RJ","latitude":27.5,"longitude":76.5},{"name":"Alwaye","countryCode":"IN","stateCode":"KL","latitude":10.10649,"longitude":76.35484},{"name":"Amalapuram","countryCode":"IN","stateCode":"AP","latitude":16.57868,"longitude":82.00609},{"name":"Amalner","countryCode":"IN","stateCode":"MH","latitude":21.03983,"longitude":75.05887},{"name":"Amanganj","countryCode":"IN","stateCode":"MP","latitude":24.42664,"longitude":80.03579},{"name":"Amanpur","countryCode":"IN","stateCode":"UP","latitude":27.71222,"longitude":78.73788},{"name":"Amarkantak","countryCode":"IN","stateCode":"MP","latitude":22.67486,"longitude":81.75908},{"name":"Amarnath","countryCode":"IN","stateCode":"MH","latitude":19.2,"longitude":73.16667},{"name":"Amarpatan","countryCode":"IN","stateCode":"MP","latitude":24.31371,"longitude":80.97703},{"name":"Amarpur","countryCode":"IN","stateCode":"BR","latitude":25.03967,"longitude":86.90247},{"name":"Amarpur","countryCode":"IN","stateCode":"TR","latitude":23.5257,"longitude":91.65879},{"name":"Amarwara","countryCode":"IN","stateCode":"MP","latitude":22.2978,"longitude":79.16943},{"name":"Amauli","countryCode":"IN","stateCode":"UP","latitude":26.01666667,"longitude":80.3},{"name":"Ambad","countryCode":"IN","stateCode":"MH","latitude":19.61301,"longitude":75.78906},{"name":"Ambagarh Chauki","countryCode":"IN","stateCode":"CT","latitude":20.77644,"longitude":80.74608},{"name":"Ambah","countryCode":"IN","stateCode":"MP","latitude":26.70423,"longitude":78.22678},{"name":"Ambahta","countryCode":"IN","stateCode":"UP","latitude":29.85706,"longitude":77.33583},{"name":"Ambajogai","countryCode":"IN","stateCode":"MH","latitude":18.73312,"longitude":76.38616},{"name":"Ambala","countryCode":"IN","stateCode":"HR","latitude":30.32854,"longitude":76.9422},{"name":"Ambarnath","countryCode":"IN","stateCode":"MH","latitude":19.209,"longitude":73.186},{"name":"Ambasa","countryCode":"IN","stateCode":"TR","latitude":23.936,"longitude":91.85436},{"name":"Ambasamudram","countryCode":"IN","stateCode":"TN","latitude":8.71068,"longitude":77.4519},{"name":"Ambattur","countryCode":"IN","stateCode":"TN","latitude":13.09818,"longitude":80.16152},{"name":"Ambedkar Nagar","countryCode":"IN","stateCode":"UP","latitude":26.40544,"longitude":82.69762},{"name":"Ambegaon","countryCode":"IN","stateCode":"MH","latitude":19.11666667,"longitude":73.73333333},{"name":"Ambikapur","countryCode":"IN","stateCode":"CT","latitude":23.11892,"longitude":83.19537},{"name":"Ambur","countryCode":"IN","stateCode":"TN","latitude":12.79163,"longitude":78.71644},{"name":"Amet","countryCode":"IN","stateCode":"RJ","latitude":25.30609,"longitude":73.9258},{"name":"Amethi","countryCode":"IN","stateCode":"UP","latitude":28.01667,"longitude":81.05},{"name":"Amgaon","countryCode":"IN","stateCode":"MH","latitude":20.65,"longitude":79.95},{"name":"Amguri","countryCode":"IN","stateCode":"AS","latitude":26.81482,"longitude":94.52614},{"name":"Amla","countryCode":"IN","stateCode":"MP","latitude":21.92485,"longitude":78.12786},{"name":"Amlagora","countryCode":"IN","stateCode":"WB","latitude":22.84616,"longitude":87.33559},{"name":"Amli","countryCode":"IN","stateCode":"DH","latitude":20.28333,"longitude":73.01667},{"name":"Amloh","countryCode":"IN","stateCode":"PB","latitude":30.60837,"longitude":76.23199},{"name":"Ammapettai","countryCode":"IN","stateCode":"TN","latitude":10.79476,"longitude":79.31986},{"name":"Amod","countryCode":"IN","stateCode":"GJ","latitude":21.99317,"longitude":72.87047},{"name":"Amod,","countryCode":"IN","stateCode":"GJ","latitude":21.991,"longitude":72.871},{"name":"Amravati","countryCode":"IN","stateCode":"MH","latitude":20.93333,"longitude":77.75},{"name":"Amravati Division","countryCode":"IN","stateCode":"MH","latitude":20.93483,"longitude":77.75694},{"name":"Amreli","countryCode":"IN","stateCode":"GJ","latitude":21.50789,"longitude":71.18323},{"name":"Amritsar","countryCode":"IN","stateCode":"PB","latitude":31.67,"longitude":74.84},{"name":"Amroha","countryCode":"IN","stateCode":"UP","latitude":28.90314,"longitude":78.46984},{"name":"Amroli","countryCode":"IN","stateCode":"GJ","latitude":21.25084,"longitude":72.83878},{"name":"Amta","countryCode":"IN","stateCode":"WB","latitude":22.57333333,"longitude":88.01611111},{"name":"Amtala","countryCode":"IN","stateCode":"WB","latitude":22.22,"longitude":88.17},{"name":"Amudalavalasa","countryCode":"IN","stateCode":"AP","latitude":18.41025,"longitude":83.90295},{"name":"Anakapalle","countryCode":"IN","stateCode":"AP","latitude":17.69134,"longitude":83.00395},{"name":"Anamalais","countryCode":"IN","stateCode":"TN","latitude":10.58303,"longitude":76.93441},{"name":"Anand","countryCode":"IN","stateCode":"GJ","latitude":22.4,"longitude":72.75},{"name":"Anandnagar","countryCode":"IN","stateCode":"UP","latitude":27.10062,"longitude":83.27156},{"name":"Anandpur Sahib","countryCode":"IN","stateCode":"PB","latitude":31.23926,"longitude":76.50253},{"name":"Anantapur","countryCode":"IN","stateCode":"AP","latitude":14.55,"longitude":77.41667},{"name":"Anantnag","countryCode":"IN","stateCode":"JK","latitude":33.73068,"longitude":75.15418},{"name":"Andal","countryCode":"IN","stateCode":"WB","latitude":23.6,"longitude":87.2},{"name":"Andheri","countryCode":"IN","stateCode":"MH","latitude":19.11916667,"longitude":72.84694444},{"name":"Andippatti","countryCode":"IN","stateCode":"TN","latitude":9.99797,"longitude":77.62097},{"name":"Andol","countryCode":"IN","stateCode":"TG","latitude":17.81458,"longitude":78.07713},{"name":"Andura","countryCode":"IN","stateCode":"MH","latitude":20.88333333,"longitude":76.86666667},{"name":"Anekal","countryCode":"IN","stateCode":"KA","latitude":12.7111,"longitude":77.69557},{"name":"Angamali","countryCode":"IN","stateCode":"KL","latitude":10.19055,"longitude":76.38789},{"name":"Angul","countryCode":"IN","stateCode":"OR","latitude":20.84089,"longitude":85.10192},{"name":"Angul District","countryCode":"IN","stateCode":"OR","latitude":20.84903,"longitude":85.06079},{"name":"Anjad","countryCode":"IN","stateCode":"MP","latitude":22.04171,"longitude":75.05519},{"name":"Anjangaon","countryCode":"IN","stateCode":"MH","latitude":21.16516,"longitude":77.3091},{"name":"Anjar","countryCode":"IN","stateCode":"GJ","latitude":23.11316,"longitude":70.02671},{"name":"Anjarle","countryCode":"IN","stateCode":"MH","latitude":17.85,"longitude":73.09},{"name":"Anjaw","countryCode":"IN","stateCode":"AR","latitude":28.06549,"longitude":96.82878},{"name":"Ankleshwar","countryCode":"IN","stateCode":"GJ","latitude":21.63236,"longitude":72.99001},{"name":"Ankola","countryCode":"IN","stateCode":"KA","latitude":14.66049,"longitude":74.3047},{"name":"Annamalainagar","countryCode":"IN","stateCode":"TN","latitude":11.4,"longitude":79.73333},{"name":"Annavasal","countryCode":"IN","stateCode":"TN","latitude":10.4606,"longitude":78.70029},{"name":"Annigeri","countryCode":"IN","stateCode":"KA","latitude":15.42513,"longitude":75.4335},{"name":"Annur","countryCode":"IN","stateCode":"TN","latitude":11.23616,"longitude":77.10514},{"name":"Anshing","countryCode":"IN","stateCode":"MH","latitude":20.0409,"longitude":77.31501},{"name":"Anta","countryCode":"IN","stateCode":"RJ","latitude":25.15,"longitude":76.3},{"name":"Anthiyur","countryCode":"IN","stateCode":"TN","latitude":11.57506,"longitude":77.59043},{"name":"Antri","countryCode":"IN","stateCode":"MP","latitude":26.05804,"longitude":78.21027},{"name":"Antu","countryCode":"IN","stateCode":"UP","latitude":26.05654,"longitude":81.90267},{"name":"Anupgarh","countryCode":"IN","stateCode":"RJ","latitude":29.19111,"longitude":73.20861},{"name":"Anuppur","countryCode":"IN","stateCode":"MP","latitude":23.05674,"longitude":81.68399},{"name":"Anupshahr","countryCode":"IN","stateCode":"UP","latitude":28.35748,"longitude":78.26914},{"name":"Aonla","countryCode":"IN","stateCode":"UP","latitude":28.27402,"longitude":79.16521},{"name":"Arag","countryCode":"IN","stateCode":"MH","latitude":16.78,"longitude":74.8},{"name":"Arakkonam","countryCode":"IN","stateCode":"TN","latitude":13.08449,"longitude":79.67053},{"name":"Arambagh community development block","countryCode":"IN","stateCode":"WB","latitude":22.88,"longitude":87.78},{"name":"Arambol","countryCode":"IN","stateCode":"GA","latitude":15.68681,"longitude":73.70449},{"name":"Arang","countryCode":"IN","stateCode":"CT","latitude":21.19639,"longitude":81.96912},{"name":"Arangaon","countryCode":"IN","stateCode":"MH","latitude":19.02681,"longitude":74.71487},{"name":"Arantangi","countryCode":"IN","stateCode":"TN","latitude":10.17235,"longitude":78.99118},{"name":"Araria","countryCode":"IN","stateCode":"BR","latitude":26.2,"longitude":87.4},{"name":"Araul","countryCode":"IN","stateCode":"UP","latitude":26.917,"longitude":80.033},{"name":"Arcot","countryCode":"IN","stateCode":"TN","latitude":12.90569,"longitude":79.31897},{"name":"Ardhapur","countryCode":"IN","stateCode":"MH","latitude":19.28333333,"longitude":77.38333333},{"name":"Argaon","countryCode":"IN","stateCode":"MH","latitude":16.778999,"longitude":73.64553},{"name":"Arimalam","countryCode":"IN","stateCode":"TN","latitude":10.25498,"longitude":78.88403},{"name":"Ariyalur","countryCode":"IN","stateCode":"TN","latitude":11.15,"longitude":79.25},{"name":"Arkalgud","countryCode":"IN","stateCode":"KA","latitude":12.76171,"longitude":76.06035},{"name":"Arki","countryCode":"IN","stateCode":"HP","latitude":31.15196,"longitude":76.96675},{"name":"Arni","countryCode":"IN","stateCode":"TN","latitude":12.66771,"longitude":79.28529},{"name":"Aron","countryCode":"IN","stateCode":"MP","latitude":24.38109,"longitude":77.41739},{"name":"Aroor","countryCode":"IN","stateCode":"KL","latitude":9.8694,"longitude":76.30498},{"name":"Arrah","countryCode":"IN","stateCode":"BR","latitude":25.55629,"longitude":84.66335},{"name":"Arsikere","countryCode":"IN","stateCode":"KA","latitude":13.31446,"longitude":76.25704},{"name":"Artist Village","countryCode":"IN","stateCode":"MH","latitude":19.03227,"longitude":73.04276},{"name":"Arukutti","countryCode":"IN","stateCode":"KL","latitude":9.86667,"longitude":76.35},{"name":"Arumbavur","countryCode":"IN","stateCode":"TN","latitude":11.38096,"longitude":78.72965},{"name":"Arumuganeri","countryCode":"IN","stateCode":"TN","latitude":8.5688,"longitude":78.09091},{"name":"Aruppukkottai","countryCode":"IN","stateCode":"TN","latitude":9.5096,"longitude":78.09588},{"name":"Aruvankad","countryCode":"IN","stateCode":"TN","latitude":11.36315,"longitude":76.7579},{"name":"Arvi","countryCode":"IN","stateCode":"MH","latitude":20.99585,"longitude":78.22914},{"name":"Arwal","countryCode":"IN","stateCode":"BR","latitude":25.16158,"longitude":84.6904},{"name":"Asalatganj","countryCode":"IN","stateCode":"UP","latitude":26.68333333,"longitude":79.85},{"name":"Asandh","countryCode":"IN","stateCode":"HR","latitude":29.52119,"longitude":76.60552},{"name":"Asansol","countryCode":"IN","stateCode":"WB","latitude":23.68333333,"longitude":86.96666667},{"name":"Asarganj","countryCode":"IN","stateCode":"BR","latitude":25.15046,"longitude":86.68639},{"name":"Ashoknagar","countryCode":"IN","stateCode":"MP","latitude":24.58,"longitude":77.73},{"name":"Ashoknagar Kalyangarh","countryCode":"IN","stateCode":"WB","latitude":22.833,"longitude":88.633},{"name":"Ashta","countryCode":"IN","stateCode":"MH","latitude":16.94943,"longitude":74.40936},{"name":"Ashta","countryCode":"IN","stateCode":"MP","latitude":23.01754,"longitude":76.72208},{"name":"Ashti","countryCode":"IN","stateCode":"MH","latitude":19.37671,"longitude":76.2252},{"name":"Asifabad","countryCode":"IN","stateCode":"TG","latitude":19.35851,"longitude":79.28415},{"name":"Asika","countryCode":"IN","stateCode":"OR","latitude":19.61114,"longitude":84.65998},{"name":"Asind","countryCode":"IN","stateCode":"RJ","latitude":25.7342,"longitude":74.33278},{"name":"Asoda","countryCode":"IN","stateCode":"MH","latitude":21.03333333,"longitude":75.6},{"name":"Assaye","countryCode":"IN","stateCode":"MH","latitude":20.24512778,"longitude":75.88739722},{"name":"Astagaon","countryCode":"IN","stateCode":"MH","latitude":19.66666667,"longitude":74.5},{"name":"Atarra","countryCode":"IN","stateCode":"UP","latitude":25.28618,"longitude":80.57155},{"name":"Ateli Mandi","countryCode":"IN","stateCode":"HR","latitude":28.1008,"longitude":76.2598},{"name":"Athagarh","countryCode":"IN","stateCode":"OR","latitude":20.51999,"longitude":85.62965},{"name":"Athni","countryCode":"IN","stateCode":"KA","latitude":16.72613,"longitude":75.06421},{"name":"Atmakur","countryCode":"IN","stateCode":"AP","latitude":15.88109,"longitude":78.58704},{"name":"Atrauli","countryCode":"IN","stateCode":"UP","latitude":28.02964,"longitude":78.28571},{"name":"Atraulia","countryCode":"IN","stateCode":"UP","latitude":26.3333,"longitude":82.94727},{"name":"Attayyampatti","countryCode":"IN","stateCode":"TN","latitude":11.53272,"longitude":78.05363},{"name":"Attili","countryCode":"IN","stateCode":"AP","latitude":16.7,"longitude":81.6},{"name":"Attingal","countryCode":"IN","stateCode":"KL","latitude":8.69609,"longitude":76.81507},{"name":"Attur","countryCode":"IN","stateCode":"TN","latitude":11.59414,"longitude":78.60143},{"name":"Aundh, Satara","countryCode":"IN","stateCode":"MH","latitude":17.54583333,"longitude":74.375},{"name":"Aurad","countryCode":"IN","stateCode":"KA","latitude":18.25397,"longitude":77.41761},{"name":"Auraiya","countryCode":"IN","stateCode":"UP","latitude":26.64692,"longitude":79.42858},{"name":"Aurangabad","countryCode":"IN","stateCode":"BR","latitude":24.75204,"longitude":84.3742},{"name":"Aurangabad","countryCode":"IN","stateCode":"MH","latitude":19.88467,"longitude":75.33986},{"name":"Auras","countryCode":"IN","stateCode":"UP","latitude":26.91414,"longitude":80.50792},{"name":"Auroville","countryCode":"IN","stateCode":"TN","latitude":12.00549,"longitude":79.80885},{"name":"Ausa","countryCode":"IN","stateCode":"MH","latitude":18.24728,"longitude":76.4993},{"name":"Avadi","countryCode":"IN","stateCode":"TN","latitude":13.1147,"longitude":80.10981},{"name":"Avanigadda","countryCode":"IN","stateCode":"AP","latitude":16.02148,"longitude":80.91808},{"name":"Avanoor","countryCode":"IN","stateCode":"KL","latitude":10.60826,"longitude":76.1762},{"name":"Avinashi","countryCode":"IN","stateCode":"TN","latitude":11.19297,"longitude":77.26865},{"name":"Awantipur","countryCode":"IN","stateCode":"JK","latitude":33.91978,"longitude":75.01515},{"name":"Ayakudi","countryCode":"IN","stateCode":"TN","latitude":10.44992,"longitude":77.55198},{"name":"Ayodhya","countryCode":"IN","stateCode":"UP","latitude":26.79909,"longitude":82.2047},{"name":"Ayyampettai","countryCode":"IN","stateCode":"TN","latitude":10.90141,"longitude":79.17984},{"name":"Azamgarh","countryCode":"IN","stateCode":"UP","latitude":26.06832,"longitude":83.18358},{"name":"Azhikkal","countryCode":"IN","stateCode":"KL","latitude":11.91524,"longitude":75.34761},{"name":"Azizpur","countryCode":"IN","stateCode":"UP","latitude":26.97638889,"longitude":79.22138889},{"name":"Babai","countryCode":"IN","stateCode":"MP","latitude":22.70256,"longitude":77.93494},{"name":"Baberu","countryCode":"IN","stateCode":"UP","latitude":25.54711,"longitude":80.70443},{"name":"Babina","countryCode":"IN","stateCode":"UP","latitude":25.23947,"longitude":78.47028},{"name":"Babra","countryCode":"IN","stateCode":"GJ","latitude":21.84577,"longitude":71.30544},{"name":"Babrala","countryCode":"IN","stateCode":"UP","latitude":28.26419,"longitude":78.4056},{"name":"Babugarh","countryCode":"IN","stateCode":"UP","latitude":28.72353,"longitude":77.84677},{"name":"Bachhraon","countryCode":"IN","stateCode":"UP","latitude":28.92694,"longitude":78.23456},{"name":"Bachhrawan","countryCode":"IN","stateCode":"UP","latitude":26.4709,"longitude":81.1158},{"name":"Bada Barabil","countryCode":"IN","stateCode":"OR","latitude":22.11186,"longitude":85.38684},{"name":"Badagara","countryCode":"IN","stateCode":"KL","latitude":11.59776,"longitude":75.58142},{"name":"Badami","countryCode":"IN","stateCode":"KA","latitude":15.91495,"longitude":75.67683},{"name":"Badarpur","countryCode":"IN","stateCode":"AS","latitude":24.86852,"longitude":92.59606},{"name":"Badarwas","countryCode":"IN","stateCode":"MP","latitude":24.97516,"longitude":77.5649},{"name":"Baddi","countryCode":"IN","stateCode":"HP","latitude":30.95783,"longitude":76.79136},{"name":"Badgam","countryCode":"IN","stateCode":"JK","latitude":33.89001,"longitude":74.66297},{"name":"Badhni Kalan","countryCode":"IN","stateCode":"PB","latitude":30.6813,"longitude":75.29087},{"name":"Badkulla","countryCode":"IN","stateCode":"WB","latitude":23.28,"longitude":88.53},{"name":"Badlapur","countryCode":"IN","stateCode":"MH","latitude":19.15516,"longitude":73.26553},{"name":"Badnapur","countryCode":"IN","stateCode":"MH","latitude":19.86666667,"longitude":75.73333333},{"name":"Badnawar","countryCode":"IN","stateCode":"MP","latitude":23.02181,"longitude":75.23268},{"name":"Badnera","countryCode":"IN","stateCode":"MH","latitude":20.85463056,"longitude":77.72931111},{"name":"Baduria","countryCode":"IN","stateCode":"WB","latitude":22.74,"longitude":88.79},{"name":"Badvel","countryCode":"IN","stateCode":"AP","latitude":14.7451,"longitude":79.06288},{"name":"Bag","countryCode":"IN","stateCode":"MP","latitude":22.35905,"longitude":74.79052},{"name":"Baga","countryCode":"IN","stateCode":"GA","latitude":15.56517,"longitude":73.75517},{"name":"Bagaha","countryCode":"IN","stateCode":"BR","latitude":27.09918,"longitude":84.09003},{"name":"Bagalkot","countryCode":"IN","stateCode":"KA","latitude":16.18,"longitude":75.69},{"name":"Bagar","countryCode":"IN","stateCode":"RJ","latitude":28.18784,"longitude":75.50012},{"name":"Bagasara","countryCode":"IN","stateCode":"GJ","latitude":21.48333333,"longitude":70.95},{"name":"Bagasra","countryCode":"IN","stateCode":"GJ","latitude":21.48719,"longitude":70.95516},{"name":"Bagdogra","countryCode":"IN","stateCode":"WB","latitude":26.699804,"longitude":88.319392},{"name":"Bagepalli","countryCode":"IN","stateCode":"KA","latitude":13.78338,"longitude":77.79667},{"name":"Bageshwar","countryCode":"IN","stateCode":"UT","latitude":29.97315,"longitude":79.83224},{"name":"Bagewadi","countryCode":"IN","stateCode":"MH","latitude":16.29,"longitude":74.6},{"name":"Bagha Purana","countryCode":"IN","stateCode":"PB","latitude":30.68809,"longitude":75.09838},{"name":"Baghpat","countryCode":"IN","stateCode":"UP","latitude":28.95,"longitude":77.2167},{"name":"Baghra","countryCode":"IN","stateCode":"UP","latitude":29.46666667,"longitude":77.58333333},{"name":"Bagli","countryCode":"IN","stateCode":"MP","latitude":22.64124,"longitude":76.34877},{"name":"Bagnan","countryCode":"IN","stateCode":"WB","latitude":22.47,"longitude":87.97},{"name":"Bagra","countryCode":"IN","stateCode":"JH","latitude":23.73333,"longitude":86.31667},{"name":"Bagula","countryCode":"IN","stateCode":"WB","latitude":23.335,"longitude":88.644},{"name":"Bah","countryCode":"IN","stateCode":"UP","latitude":26.86912,"longitude":78.59385},{"name":"Bahadurganj","countryCode":"IN","stateCode":"BR","latitude":26.26172,"longitude":87.82443},{"name":"Bahadurgarh","countryCode":"IN","stateCode":"HR","latitude":28.69287,"longitude":76.93555},{"name":"Baheri","countryCode":"IN","stateCode":"UP","latitude":28.77416,"longitude":79.4974},{"name":"Bahjoi","countryCode":"IN","stateCode":"UP","latitude":28.39502,"longitude":78.62659},{"name":"Bahraich","countryCode":"IN","stateCode":"UP","latitude":27.80021,"longitude":81.51855},{"name":"Bahraigh","countryCode":"IN","stateCode":"UP","latitude":27.57429,"longitude":81.59474},{"name":"Bahsuma","countryCode":"IN","stateCode":"UP","latitude":29.20063,"longitude":77.97221},{"name":"Bahua","countryCode":"IN","stateCode":"UP","latitude":25.83942,"longitude":80.62255},{"name":"Bahula","countryCode":"IN","stateCode":"WB","latitude":23.657419,"longitude":87.195974},{"name":"Baidyabati","countryCode":"IN","stateCode":"WB","latitude":22.79,"longitude":88.32},{"name":"Baihar","countryCode":"IN","stateCode":"MP","latitude":22.10133,"longitude":80.54967},{"name":"Baikunthpur","countryCode":"IN","stateCode":"CT","latitude":23.26206,"longitude":82.56051},{"name":"Baikunthpur","countryCode":"IN","stateCode":"MP","latitude":24.72768,"longitude":81.40975},{"name":"Bail-Hongal","countryCode":"IN","stateCode":"KA","latitude":15.8137,"longitude":74.85895},{"name":"Bairagnia","countryCode":"IN","stateCode":"BR","latitude":26.74063,"longitude":85.27323},{"name":"Baisi","countryCode":"IN","stateCode":"BR","latitude":25.86302,"longitude":87.74487},{"name":"Bajna","countryCode":"IN","stateCode":"UP","latitude":27.89793,"longitude":77.67836},{"name":"Bakani","countryCode":"IN","stateCode":"RJ","latitude":24.28624,"longitude":76.23709},{"name":"Bakewar","countryCode":"IN","stateCode":"UP","latitude":26.66226,"longitude":79.17625},{"name":"Bakharla","countryCode":"IN","stateCode":"GJ","latitude":21.731517,"longitude":69.635296},{"name":"Bakhtiyarpur","countryCode":"IN","stateCode":"BR","latitude":25.46179,"longitude":85.53179},{"name":"Bakloh","countryCode":"IN","stateCode":"PB","latitude":32.47939,"longitude":75.91874},{"name":"Bakreswar","countryCode":"IN","stateCode":"WB","latitude":23.8832,"longitude":87.37265},{"name":"Baksa","countryCode":"IN","stateCode":"AS","latitude":26.69804,"longitude":91.15142},{"name":"Baksar","countryCode":"IN","stateCode":"UP","latitude":28.76666667,"longitude":78.01666667},{"name":"Bakshwaho","countryCode":"IN","stateCode":"MP","latitude":24.25106,"longitude":79.28618},{"name":"Balachor","countryCode":"IN","stateCode":"PB","latitude":31.06062,"longitude":76.30166},{"name":"Balagam","countryCode":"IN","stateCode":"GJ","latitude":21.36666667,"longitude":70.1},{"name":"Balaghat","countryCode":"IN","stateCode":"MP","latitude":21.96667,"longitude":80.33333},{"name":"Balamau","countryCode":"IN","stateCode":"UP","latitude":27.16666667,"longitude":80.35},{"name":"Balangir","countryCode":"IN","stateCode":"OR","latitude":20.75,"longitude":83.25},{"name":"Balapur","countryCode":"IN","stateCode":"MH","latitude":20.66612,"longitude":76.77386},{"name":"Balapur","countryCode":"IN","stateCode":"TG","latitude":17.31018,"longitude":78.49969},{"name":"Balapur, Akola district","countryCode":"IN","stateCode":"MH","latitude":20.66612,"longitude":76.77386},{"name":"Balarampur","countryCode":"IN","stateCode":"WB","latitude":23.09714,"longitude":86.22292},{"name":"Balasinor","countryCode":"IN","stateCode":"GJ","latitude":22.955891,"longitude":73.336499},{"name":"Balasore","countryCode":"IN","stateCode":"OR","latitude":21.49266,"longitude":86.93348},{"name":"Baldeo","countryCode":"IN","stateCode":"UP","latitude":27.41666667,"longitude":77.81666667},{"name":"Baldeogarh","countryCode":"IN","stateCode":"MP","latitude":24.75619,"longitude":79.06715},{"name":"Baldev","countryCode":"IN","stateCode":"UP","latitude":27.40684,"longitude":77.82214},{"name":"Baleshwar","countryCode":"IN","stateCode":"OR","latitude":21.5,"longitude":86.75},{"name":"Bali","countryCode":"IN","stateCode":"RJ","latitude":25.19725,"longitude":73.29117},{"name":"Bali Chak","countryCode":"IN","stateCode":"WB","latitude":22.36482,"longitude":87.55304},{"name":"Balimila","countryCode":"IN","stateCode":"OR","latitude":18.25167,"longitude":82.10659},{"name":"Balisana","countryCode":"IN","stateCode":"GJ","latitude":23.816436,"longitude":72.257536},{"name":"Ballalpur","countryCode":"IN","stateCode":"MH","latitude":19.84696,"longitude":79.34578},{"name":"Ballard Estate","countryCode":"IN","stateCode":"MH","latitude":18.95,"longitude":72.84},{"name":"Ballari","countryCode":"IN","stateCode":"KA","latitude":15.15,"longitude":76.55},{"name":"Ballarpur","countryCode":"IN","stateCode":"MH","latitude":19.83333333,"longitude":79.35},{"name":"Ballary","countryCode":"IN","stateCode":"KA","latitude":15.14205,"longitude":76.92398},{"name":"Ballia","countryCode":"IN","stateCode":"UP","latitude":25.83333,"longitude":84.16667},{"name":"Bally","countryCode":"IN","stateCode":"WB","latitude":22.65,"longitude":88.34},{"name":"Balod","countryCode":"IN","stateCode":"CT","latitude":20.73081,"longitude":81.20578},{"name":"Baloda","countryCode":"IN","stateCode":"CT","latitude":22.1389,"longitude":82.48171},{"name":"Baloda Bazar","countryCode":"IN","stateCode":"CT","latitude":21.65678,"longitude":82.16062},{"name":"Balotra","countryCode":"IN","stateCode":"RJ","latitude":25.83242,"longitude":72.24},{"name":"Balrampur","countryCode":"IN","stateCode":"UP","latitude":27.43449,"longitude":82.40281},{"name":"Balugaon","countryCode":"IN","stateCode":"OR","latitude":20.17838,"longitude":85.11327},{"name":"Balurghat","countryCode":"IN","stateCode":"WB","latitude":25.21666667,"longitude":88.76666667},{"name":"Bamanbore","countryCode":"IN","stateCode":"GJ","latitude":22.41666667,"longitude":71.01666667},{"name":"Bamangola community development block","countryCode":"IN","stateCode":"WB","latitude":25.17,"longitude":88.335},{"name":"Bambolim","countryCode":"IN","stateCode":"GA","latitude":15.46361,"longitude":73.8531},{"name":"Bamboo Flat","countryCode":"IN","stateCode":"AN","latitude":11.7,"longitude":92.71667},{"name":"Bamna","countryCode":"IN","stateCode":"MP","latitude":23.09454,"longitude":74.76164},{"name":"Bamor Kalan","countryCode":"IN","stateCode":"MP","latitude":24.89298,"longitude":78.15105},{"name":"Bamora","countryCode":"IN","stateCode":"MP","latitude":24.05539,"longitude":78.08925},{"name":"Banapur","countryCode":"IN","stateCode":"OR","latitude":19.77889,"longitude":85.17033},{"name":"Banas Kantha","countryCode":"IN","stateCode":"GJ","latitude":24.25,"longitude":72.5},{"name":"Banat","countryCode":"IN","stateCode":"UP","latitude":29.46355,"longitude":77.35478},{"name":"Banavar","countryCode":"IN","stateCode":"KA","latitude":13.41029,"longitude":76.16314},{"name":"Banbasa","countryCode":"IN","stateCode":"UP","latitude":28.99132,"longitude":80.07608},{"name":"Banda","countryCode":"IN","stateCode":"MP","latitude":24.04488,"longitude":78.96094},{"name":"Banda","countryCode":"IN","stateCode":"UP","latitude":25.5,"longitude":80.5},{"name":"Banda, Maharashtra","countryCode":"IN","stateCode":"MH","latitude":15.81273611,"longitude":73.86132778},{"name":"Bandia","countryCode":"IN","stateCode":"GJ","latitude":23.39604,"longitude":69.01155},{"name":"Bandikui","countryCode":"IN","stateCode":"RJ","latitude":27.05087,"longitude":76.57325},{"name":"Bandipore","countryCode":"IN","stateCode":"JK","latitude":34.50404,"longitude":74.82832},{"name":"Bandipura","countryCode":"IN","stateCode":"JK","latitude":34.41728,"longitude":74.64308},{"name":"Bandora","countryCode":"IN","stateCode":"GA","latitude":15.40823,"longitude":73.98129},{"name":"Bandra","countryCode":"IN","stateCode":"MH","latitude":19.05444444,"longitude":72.84055556},{"name":"Baner","countryCode":"IN","stateCode":"MH","latitude":18.56,"longitude":73.79027778},{"name":"Baneswar","countryCode":"IN","stateCode":"WB","latitude":26.65,"longitude":89.81666667},{"name":"Banga","countryCode":"IN","stateCode":"PB","latitude":31.18874,"longitude":75.99495},{"name":"Bangalore Rural","countryCode":"IN","stateCode":"KA","latitude":13.22567,"longitude":77.57501},{"name":"Bangalore Urban","countryCode":"IN","stateCode":"KA","latitude":13,"longitude":77.58333},{"name":"Banganapalle","countryCode":"IN","stateCode":"AP","latitude":15.31771,"longitude":78.22669},{"name":"Bangaon","countryCode":"IN","stateCode":"BR","latitude":25.86728,"longitude":86.51152},{"name":"Bangaon","countryCode":"IN","stateCode":"WB","latitude":23.07,"longitude":88.82},{"name":"Bangarapet","countryCode":"IN","stateCode":"KA","latitude":12.99116,"longitude":78.17804},{"name":"Bangarmau","countryCode":"IN","stateCode":"UP","latitude":26.8912,"longitude":80.21149},{"name":"Banihal","countryCode":"IN","stateCode":"JK","latitude":33.43647,"longitude":75.19684},{"name":"Banjar","countryCode":"IN","stateCode":"HP","latitude":31.639,"longitude":77.34055},{"name":"Banka","countryCode":"IN","stateCode":"BR","latitude":24.89214,"longitude":86.98425},{"name":"Banki","countryCode":"IN","stateCode":"OR","latitude":20.37912,"longitude":85.52953},{"name":"Bankot","countryCode":"IN","stateCode":"MH","latitude":17.98333333,"longitude":73.05},{"name":"Bankra","countryCode":"IN","stateCode":"WB","latitude":22.63,"longitude":88.3},{"name":"Bankura","countryCode":"IN","stateCode":"WB","latitude":23.25,"longitude":87.06666667},{"name":"Banmankhi","countryCode":"IN","stateCode":"BR","latitude":25.88857,"longitude":87.19421},{"name":"Bannur","countryCode":"IN","stateCode":"KA","latitude":12.33295,"longitude":76.86201},{"name":"Banposh","countryCode":"IN","stateCode":"OR","latitude":22.24834,"longitude":84.81044},{"name":"Bansberia","countryCode":"IN","stateCode":"WB","latitude":22.97,"longitude":88.4},{"name":"Bansdih","countryCode":"IN","stateCode":"UP","latitude":25.88377,"longitude":84.21827},{"name":"Bansgaon","countryCode":"IN","stateCode":"UP","latitude":26.55032,"longitude":83.34503},{"name":"Bansi","countryCode":"IN","stateCode":"UP","latitude":27.17749,"longitude":82.93442},{"name":"Bansihari community development block","countryCode":"IN","stateCode":"WB","latitude":25.4,"longitude":88.4167},{"name":"Banswada","countryCode":"IN","stateCode":"TG","latitude":18.37725,"longitude":77.88007},{"name":"Banswara","countryCode":"IN","stateCode":"RJ","latitude":23.54109,"longitude":74.4425},{"name":"Banthra","countryCode":"IN","stateCode":"UP","latitude":27.9172,"longitude":79.8174},{"name":"Bantva","countryCode":"IN","stateCode":"GJ","latitude":21.48815,"longitude":70.07576},{"name":"Bantval","countryCode":"IN","stateCode":"KA","latitude":12.8905,"longitude":75.03489},{"name":"Banur","countryCode":"IN","stateCode":"PB","latitude":30.55407,"longitude":76.71948},{"name":"Bapatla","countryCode":"IN","stateCode":"AP","latitude":15.90422,"longitude":80.46743},{"name":"Bar Bigha","countryCode":"IN","stateCode":"BR","latitude":25.21855,"longitude":85.7332},{"name":"Bara Banki","countryCode":"IN","stateCode":"UP","latitude":26.93864,"longitude":81.3274},{"name":"Bara Uchana","countryCode":"IN","stateCode":"HR","latitude":29.46747,"longitude":76.17798},{"name":"Barabazar","countryCode":"IN","stateCode":"WB","latitude":23.36,"longitude":86.65},{"name":"Baragaon","countryCode":"IN","stateCode":"UP","latitude":25.47554,"longitude":78.71224},{"name":"Baragarh","countryCode":"IN","stateCode":"OR","latitude":21.33333,"longitude":83.61667},{"name":"Baramati","countryCode":"IN","stateCode":"MH","latitude":18.15174,"longitude":74.57767},{"name":"Baramula","countryCode":"IN","stateCode":"JK","latitude":34.19287,"longitude":74.3692},{"name":"Baran","countryCode":"IN","stateCode":"RJ","latitude":25.09,"longitude":76.66},{"name":"Baranagar","countryCode":"IN","stateCode":"WB","latitude":22.64,"longitude":88.37},{"name":"Barasat","countryCode":"IN","stateCode":"WB","latitude":22.23333333,"longitude":88.45},{"name":"Barauli","countryCode":"IN","stateCode":"BR","latitude":26.38109,"longitude":84.58648},{"name":"Baraut","countryCode":"IN","stateCode":"UP","latitude":29.10199,"longitude":77.26334},{"name":"Barbil","countryCode":"IN","stateCode":"OR","latitude":22.10194,"longitude":85.37752},{"name":"Bardhaman","countryCode":"IN","stateCode":"WB","latitude":23.25,"longitude":87.85},{"name":"Bardoli","countryCode":"IN","stateCode":"GJ","latitude":21.12297,"longitude":73.11151},{"name":"Bareilly","countryCode":"IN","stateCode":"UP","latitude":28.41667,"longitude":79.38333},{"name":"Barela","countryCode":"IN","stateCode":"MP","latitude":23.09678,"longitude":80.05084},{"name":"Bargarh","countryCode":"IN","stateCode":"OR","latitude":21.33348,"longitude":83.61905},{"name":"Barghat","countryCode":"IN","stateCode":"MP","latitude":22.03065,"longitude":79.7328},{"name":"Bargi","countryCode":"IN","stateCode":"MP","latitude":22.99138,"longitude":79.8755},{"name":"Barh","countryCode":"IN","stateCode":"BR","latitude":25.48339,"longitude":85.70928},{"name":"Barhalganj","countryCode":"IN","stateCode":"UP","latitude":26.28333333,"longitude":83.5},{"name":"Barhi","countryCode":"IN","stateCode":"MP","latitude":23.90326,"longitude":80.81516},{"name":"Barhiya","countryCode":"IN","stateCode":"BR","latitude":25.28814,"longitude":86.02055},{"name":"Bari","countryCode":"IN","stateCode":"RJ","latitude":26.64661,"longitude":77.61634},{"name":"Bari Sadri","countryCode":"IN","stateCode":"RJ","latitude":24.41339,"longitude":74.47331},{"name":"Bariarpur","countryCode":"IN","stateCode":"BR","latitude":25.28791,"longitude":86.57643},{"name":"Barjala","countryCode":"IN","stateCode":"TR","latitude":23.6182,"longitude":91.35596},{"name":"Barjora","countryCode":"IN","stateCode":"WB","latitude":23.43333333,"longitude":87.28333333},{"name":"Barka Kana","countryCode":"IN","stateCode":"JH","latitude":23.62118,"longitude":85.46748},{"name":"Barkhera","countryCode":"IN","stateCode":"UP","latitude":28.45,"longitude":79.8},{"name":"Barkhera Kalan","countryCode":"IN","stateCode":"UP","latitude":28.45209,"longitude":79.80655},{"name":"Barki Saria","countryCode":"IN","stateCode":"JH","latitude":24.17594,"longitude":85.88938},{"name":"Barkot","countryCode":"IN","stateCode":"UT","latitude":30.80861,"longitude":78.20596},{"name":"Barmer","countryCode":"IN","stateCode":"RJ","latitude":25.75,"longitude":71.5},{"name":"Barnala","countryCode":"IN","stateCode":"PB","latitude":30.37451,"longitude":75.5487},{"name":"Barokhar","countryCode":"IN","stateCode":"UP","latitude":24.91666667,"longitude":81.96666667},{"name":"Barpali","countryCode":"IN","stateCode":"OR","latitude":21.19005,"longitude":83.58721},{"name":"Barpathar","countryCode":"IN","stateCode":"AS","latitude":26.28709,"longitude":93.88844},{"name":"Barpeta","countryCode":"IN","stateCode":"AS","latitude":26.47104,"longitude":91.0308},{"name":"Barpeta Road","countryCode":"IN","stateCode":"AS","latitude":26.50284,"longitude":90.96937},{"name":"Barrackpore","countryCode":"IN","stateCode":"WB","latitude":22.75,"longitude":88.36666667},{"name":"Barsana","countryCode":"IN","stateCode":"UP","latitude":27.64802,"longitude":77.3764},{"name":"Barsi","countryCode":"IN","stateCode":"MH","latitude":18.23454,"longitude":75.69275},{"name":"Baruipur","countryCode":"IN","stateCode":"WB","latitude":22.35,"longitude":88.44},{"name":"Baruni","countryCode":"IN","stateCode":"BR","latitude":25.47509,"longitude":85.96813},{"name":"Barwadih","countryCode":"IN","stateCode":"JH","latitude":23.8478,"longitude":84.11049},{"name":"Barwala","countryCode":"IN","stateCode":"HR","latitude":29.36747,"longitude":75.90809},{"name":"Barwani","countryCode":"IN","stateCode":"MP","latitude":22.02485,"longitude":74.91805},{"name":"Barwar (Lakhimpur Kheri)","countryCode":"IN","stateCode":"UP","latitude":25.50583333,"longitude":79.13972222},{"name":"Basanti","countryCode":"IN","stateCode":"WB","latitude":22.1891534,"longitude":88.6705685},{"name":"Basar","countryCode":"IN","stateCode":"AR","latitude":27.99008,"longitude":94.69451},{"name":"Basavakalyan","countryCode":"IN","stateCode":"KA","latitude":17.87445,"longitude":76.94972},{"name":"Basavana Bagevadi","countryCode":"IN","stateCode":"KA","latitude":16.57278,"longitude":75.97252},{"name":"Basi","countryCode":"IN","stateCode":"RJ","latitude":26.8315,"longitude":76.04856},{"name":"Basirhat","countryCode":"IN","stateCode":"WB","latitude":22.65722222,"longitude":88.89416667},{"name":"Basmat","countryCode":"IN","stateCode":"MH","latitude":19.32872,"longitude":77.15746},{"name":"Basmath","countryCode":"IN","stateCode":"MH","latitude":19.3167,"longitude":77.1667},{"name":"Basna","countryCode":"IN","stateCode":"CT","latitude":21.27885,"longitude":82.8267},{"name":"Basni","countryCode":"IN","stateCode":"RJ","latitude":27.17232,"longitude":73.64519},{"name":"Basoda","countryCode":"IN","stateCode":"MP","latitude":23.85153,"longitude":77.93652},{"name":"Bastar","countryCode":"IN","stateCode":"CT","latitude":19.26794,"longitude":81.73828},{"name":"Basti","countryCode":"IN","stateCode":"UP","latitude":26.82816,"longitude":82.77924},{"name":"Basudebpur","countryCode":"IN","stateCode":"OR","latitude":21.11974,"longitude":86.72896},{"name":"Basugaon","countryCode":"IN","stateCode":"AS","latitude":26.46742,"longitude":90.41951},{"name":"Baswa","countryCode":"IN","stateCode":"RJ","latitude":27.14955,"longitude":76.58345},{"name":"Batala","countryCode":"IN","stateCode":"PB","latitude":31.80921,"longitude":75.20294},{"name":"Batoti","countryCode":"IN","stateCode":"JK","latitude":33.11826,"longitude":75.30889},{"name":"Baud","countryCode":"IN","stateCode":"OR","latitude":20.83773,"longitude":84.32618},{"name":"Baudh","countryCode":"IN","stateCode":"OR","latitude":20.833,"longitude":84.333},{"name":"Bavdhan","countryCode":"IN","stateCode":"MH","latitude":18.53527778,"longitude":73.78277778},{"name":"Bawal","countryCode":"IN","stateCode":"HR","latitude":28.07184,"longitude":76.58312},{"name":"Bawali","countryCode":"IN","stateCode":"WB","latitude":22.42563,"longitude":88.19336},{"name":"Bawana","countryCode":"IN","stateCode":"DL","latitude":28.7982,"longitude":77.03431},{"name":"Bawanbir","countryCode":"IN","stateCode":"MH","latitude":21.08333333,"longitude":76.71666667},{"name":"Bayana","countryCode":"IN","stateCode":"RJ","latitude":26.90791,"longitude":77.28985},{"name":"Bazpur","countryCode":"IN","stateCode":"UT","latitude":29.15299,"longitude":79.10814},{"name":"Beawar","countryCode":"IN","stateCode":"RJ","latitude":26.10119,"longitude":74.32028},{"name":"Bedi","countryCode":"IN","stateCode":"GJ","latitude":22.50143,"longitude":70.04363},{"name":"Beed","countryCode":"IN","stateCode":"MH","latitude":18.98921,"longitude":75.75634},{"name":"Begamganj","countryCode":"IN","stateCode":"MP","latitude":23.59917,"longitude":78.34064},{"name":"Begampur","countryCode":"IN","stateCode":"WB","latitude":22.74,"longitude":88.24},{"name":"Begowal","countryCode":"IN","stateCode":"PB","latitude":31.61152,"longitude":75.52135},{"name":"Begun","countryCode":"IN","stateCode":"RJ","latitude":24.98333,"longitude":75},{"name":"Begusarai","countryCode":"IN","stateCode":"BR","latitude":25.41853,"longitude":86.13389},{"name":"Behat","countryCode":"IN","stateCode":"UP","latitude":30.1718,"longitude":77.6139},{"name":"Behror","countryCode":"IN","stateCode":"RJ","latitude":27.88832,"longitude":76.28108},{"name":"Bela","countryCode":"IN","stateCode":"UP","latitude":25.92058,"longitude":81.99629},{"name":"Belagavi","countryCode":"IN","stateCode":"KA","latitude":16.33333,"longitude":74.75},{"name":"Belaguntha","countryCode":"IN","stateCode":"OR","latitude":19.88249,"longitude":84.63801},{"name":"Belda","countryCode":"IN","stateCode":"WB","latitude":22.08,"longitude":87.35},{"name":"Beldanga","countryCode":"IN","stateCode":"WB","latitude":23.93,"longitude":88.25},{"name":"Beliatore","countryCode":"IN","stateCode":"WB","latitude":23.33333333,"longitude":87.21666667},{"name":"Bellampalli","countryCode":"IN","stateCode":"TG","latitude":19.05577,"longitude":79.493},{"name":"Belluru","countryCode":"IN","stateCode":"KA","latitude":12.9814,"longitude":76.73308},{"name":"Belonia","countryCode":"IN","stateCode":"TR","latitude":23.25178,"longitude":91.45407},{"name":"Belsand","countryCode":"IN","stateCode":"BR","latitude":26.44365,"longitude":85.40076},{"name":"Beltangadi","countryCode":"IN","stateCode":"KA","latitude":13.98333,"longitude":75.3},{"name":"Belthara","countryCode":"IN","stateCode":"UP","latitude":26.12694444,"longitude":83.89138889},{"name":"Belur","countryCode":"IN","stateCode":"KA","latitude":13.16558,"longitude":75.86519},{"name":"Belur","countryCode":"IN","stateCode":"TN","latitude":11.70752,"longitude":78.41437},{"name":"Bemetara","countryCode":"IN","stateCode":"CT","latitude":21.71556,"longitude":81.53423},{"name":"Benaulim","countryCode":"IN","stateCode":"GA","latitude":15.26435,"longitude":73.92812},{"name":"Bengaluru","countryCode":"IN","stateCode":"KA","latitude":12.97194,"longitude":77.59369},{"name":"Beniganj","countryCode":"IN","stateCode":"UP","latitude":27.29293,"longitude":80.44364},{"name":"Beohari","countryCode":"IN","stateCode":"MP","latitude":24.02423,"longitude":81.37831},{"name":"Berasia","countryCode":"IN","stateCode":"MP","latitude":23.63134,"longitude":77.43351},{"name":"Berhampore","countryCode":"IN","stateCode":"WB","latitude":24.1,"longitude":88.25},{"name":"Beri Khas","countryCode":"IN","stateCode":"HR","latitude":28.70146,"longitude":76.57708},{"name":"Beswan","countryCode":"IN","stateCode":"UP","latitude":27.63792,"longitude":77.88019},{"name":"Betamcherla","countryCode":"IN","stateCode":"AP","latitude":15.45144,"longitude":78.14797},{"name":"Betma","countryCode":"IN","stateCode":"MP","latitude":22.68653,"longitude":75.61456},{"name":"Bettiah","countryCode":"IN","stateCode":"BR","latitude":26.80229,"longitude":84.50311},{"name":"Betul","countryCode":"IN","stateCode":"MP","latitude":21.83333,"longitude":77.83333},{"name":"Betul Bazar","countryCode":"IN","stateCode":"MP","latitude":21.85572,"longitude":77.92913},{"name":"Bewar","countryCode":"IN","stateCode":"UP","latitude":27.21869,"longitude":79.29761},{"name":"Beypore","countryCode":"IN","stateCode":"KL","latitude":11.17151,"longitude":75.80611},{"name":"Bhabhra","countryCode":"IN","stateCode":"MP","latitude":22.53048,"longitude":74.32846},{"name":"Bhabhua","countryCode":"IN","stateCode":"BR","latitude":25.04049,"longitude":83.60749},{"name":"Bhachau","countryCode":"IN","stateCode":"GJ","latitude":23.29858,"longitude":70.34279},{"name":"Bhadarsa","countryCode":"IN","stateCode":"UP","latitude":26.66027778,"longitude":82.12416667},{"name":"Bhadarwah","countryCode":"IN","stateCode":"JK","latitude":32.97941,"longitude":75.71723},{"name":"Bhadasar","countryCode":"IN","stateCode":"RJ","latitude":28.31457,"longitude":74.28952},{"name":"Bhadaur","countryCode":"IN","stateCode":"PB","latitude":30.47651,"longitude":75.33049},{"name":"Bhadgaon, Maharashtra","countryCode":"IN","stateCode":"MH","latitude":20.16666667,"longitude":75.23333333},{"name":"Bhadohi","countryCode":"IN","stateCode":"UP","latitude":25.39526,"longitude":82.5703},{"name":"Bhadra","countryCode":"IN","stateCode":"RJ","latitude":29.10298,"longitude":75.17138},{"name":"Bhadrachalam","countryCode":"IN","stateCode":"TG","latitude":17.66846,"longitude":80.88887},{"name":"Bhadradri Kothagudem","countryCode":"IN","stateCode":"TG","latitude":17.5546,"longitude":80.61976},{"name":"Bhadrak","countryCode":"IN","stateCode":"OR","latitude":21,"longitude":86.6},{"name":"Bhadrakh","countryCode":"IN","stateCode":"OR","latitude":21.05447,"longitude":86.5156},{"name":"Bhadran","countryCode":"IN","stateCode":"GJ","latitude":22.3593,"longitude":72.9005},{"name":"Bhadravati","countryCode":"IN","stateCode":"KA","latitude":13.84846,"longitude":75.70502},{"name":"Bhadreswar","countryCode":"IN","stateCode":"WB","latitude":22.82,"longitude":88.35},{"name":"Bhagalpur","countryCode":"IN","stateCode":"BR","latitude":25.29023,"longitude":87.06665},{"name":"Bhagirathpur","countryCode":"IN","stateCode":"BR","latitude":26.2695,"longitude":86.06346},{"name":"Bhagwantnagar","countryCode":"IN","stateCode":"UP","latitude":26.22383,"longitude":80.7575},{"name":"Bhainsdehi","countryCode":"IN","stateCode":"MP","latitude":21.64491,"longitude":77.63023},{"name":"Bhaisa","countryCode":"IN","stateCode":"TG","latitude":19.11285,"longitude":77.96336},{"name":"Bhalki","countryCode":"IN","stateCode":"KA","latitude":18.04348,"longitude":77.206},{"name":"Bhandara","countryCode":"IN","stateCode":"MH","latitude":21.18333,"longitude":80},{"name":"Bhandardaha","countryCode":"IN","stateCode":"WB","latitude":22.62,"longitude":88.21},{"name":"Bhandardara","countryCode":"IN","stateCode":"MH","latitude":19.52916667,"longitude":73.75138889},{"name":"Bhander","countryCode":"IN","stateCode":"MP","latitude":25.73581,"longitude":78.74555},{"name":"Bhandu","countryCode":"IN","stateCode":"GJ","latitude":23.7,"longitude":72.36666667},{"name":"Bhandup","countryCode":"IN","stateCode":"MH","latitude":19.14,"longitude":72.93},{"name":"Bhanjanagar","countryCode":"IN","stateCode":"OR","latitude":19.92719,"longitude":84.58201},{"name":"Bhanpura","countryCode":"IN","stateCode":"MP","latitude":24.513,"longitude":75.7469},{"name":"Bhanpuri","countryCode":"IN","stateCode":"CT","latitude":21.0919,"longitude":80.93218},{"name":"Bhanvad","countryCode":"IN","stateCode":"GJ","latitude":21.93053,"longitude":69.78081},{"name":"Bharatpur","countryCode":"IN","stateCode":"RJ","latitude":27.21,"longitude":77.29},{"name":"Bharatpura","countryCode":"IN","stateCode":"UP","latitude":25.23333333,"longitude":78.96666667},{"name":"Bhargain","countryCode":"IN","stateCode":"UP","latitude":27.615,"longitude":79.14416667},{"name":"Bharthana","countryCode":"IN","stateCode":"UP","latitude":26.75231,"longitude":79.2218},{"name":"Bharuch","countryCode":"IN","stateCode":"GJ","latitude":21.69482,"longitude":72.9805},{"name":"Bharwari","countryCode":"IN","stateCode":"UP","latitude":25.56078,"longitude":81.49164},{"name":"Bhasawar","countryCode":"IN","stateCode":"RJ","latitude":27.03895,"longitude":77.04849},{"name":"Bhatapara","countryCode":"IN","stateCode":"CT","latitude":21.735,"longitude":81.94711},{"name":"Bhatgaon","countryCode":"IN","stateCode":"CT","latitude":21.15,"longitude":81.7},{"name":"Bhatha","countryCode":"IN","stateCode":"GJ","latitude":21.18333333,"longitude":72.76666667},{"name":"Bhatinda","countryCode":"IN","stateCode":"PB","latitude":30.20747,"longitude":74.93893},{"name":"Bhatkal","countryCode":"IN","stateCode":"KA","latitude":13.98534,"longitude":74.55531},{"name":"Bhatpara","countryCode":"IN","stateCode":"WB","latitude":22.86666667,"longitude":88.41666667},{"name":"Bhattiprolu","countryCode":"IN","stateCode":"AP","latitude":16.1026,"longitude":80.78074},{"name":"Bhaupur","countryCode":"IN","stateCode":"UP","latitude":26.91666667,"longitude":79.21666667},{"name":"Bhavani","countryCode":"IN","stateCode":"TN","latitude":11.44553,"longitude":77.68215},{"name":"Bhavnagar","countryCode":"IN","stateCode":"GJ","latitude":21.76287,"longitude":72.15331},{"name":"Bhawaniganj","countryCode":"IN","stateCode":"MP","latitude":24.41582,"longitude":75.83552},{"name":"Bhawanigarh","countryCode":"IN","stateCode":"PB","latitude":30.26685,"longitude":76.03854},{"name":"Bhawanipatna","countryCode":"IN","stateCode":"OR","latitude":19.90717,"longitude":83.16697},{"name":"Bhawanipur","countryCode":"IN","stateCode":"BR","latitude":26.45352,"longitude":87.02744},{"name":"Bhayandar","countryCode":"IN","stateCode":"MH","latitude":19.30157,"longitude":72.85107},{"name":"Bhayavadar","countryCode":"IN","stateCode":"GJ","latitude":21.85523,"longitude":70.24791},{"name":"Bhigvan","countryCode":"IN","stateCode":"MH","latitude":18.3007,"longitude":74.76701},{"name":"Bhikangaon","countryCode":"IN","stateCode":"MP","latitude":21.86764,"longitude":75.96391},{"name":"Bhikhi","countryCode":"IN","stateCode":"PB","latitude":30.05918,"longitude":75.535},{"name":"Bhilai","countryCode":"IN","stateCode":"CT","latitude":21.20919,"longitude":81.4285},{"name":"Bhildi","countryCode":"IN","stateCode":"GJ","latitude":24.18333333,"longitude":72.03333333},{"name":"Bhilwara","countryCode":"IN","stateCode":"RJ","latitude":25.5,"longitude":74.75},{"name":"Bhim Tal","countryCode":"IN","stateCode":"UT","latitude":29.34447,"longitude":79.56336},{"name":"Bhimavaram","countryCode":"IN","stateCode":"AP","latitude":16.54078,"longitude":81.52322},{"name":"Bhimtal","countryCode":"IN","stateCode":"UP","latitude":29.34444444,"longitude":79.56305556},{"name":"Bhimunipatnam","countryCode":"IN","stateCode":"AP","latitude":17.89017,"longitude":83.45203},{"name":"Bhind","countryCode":"IN","stateCode":"MP","latitude":26.5,"longitude":78.75},{"name":"Bhindar","countryCode":"IN","stateCode":"RJ","latitude":24.50235,"longitude":74.18551},{"name":"Bhinga","countryCode":"IN","stateCode":"UP","latitude":27.70283,"longitude":81.9343},{"name":"Bhinmal","countryCode":"IN","stateCode":"RJ","latitude":24.99944,"longitude":72.27141},{"name":"Bhitarwar","countryCode":"IN","stateCode":"MP","latitude":25.79216,"longitude":78.11085},{"name":"Bhiwadi","countryCode":"IN","stateCode":"RJ","latitude":28.21024,"longitude":76.86056},{"name":"Bhiwandi","countryCode":"IN","stateCode":"MH","latitude":19.30023,"longitude":73.05881},{"name":"Bhiwani","countryCode":"IN","stateCode":"HR","latitude":28.75,"longitude":76.16667},{"name":"Bhiwapur","countryCode":"IN","stateCode":"MH","latitude":20.83555556,"longitude":79.50111111},{"name":"Bhognipur","countryCode":"IN","stateCode":"UP","latitude":26.24,"longitude":79.8},{"name":"Bhogpur","countryCode":"IN","stateCode":"PB","latitude":31.55442,"longitude":75.64271},{"name":"Bhojpur","countryCode":"IN","stateCode":"BR","latitude":25.30886,"longitude":84.44504},{"name":"Bhojpur Dharampur","countryCode":"IN","stateCode":"GJ","latitude":23.25,"longitude":69.67},{"name":"Bhojudih","countryCode":"IN","stateCode":"JH","latitude":23.63962,"longitude":86.44105},{"name":"Bhokar","countryCode":"IN","stateCode":"MH","latitude":19.217803,"longitude":77.669392},{"name":"Bhokardan","countryCode":"IN","stateCode":"MH","latitude":20.27,"longitude":75.77},{"name":"Bholath","countryCode":"IN","stateCode":"PB","latitude":31.54277778,"longitude":75.5075},{"name":"Bhongaon","countryCode":"IN","stateCode":"UP","latitude":27.25515,"longitude":79.18118},{"name":"Bhongir","countryCode":"IN","stateCode":"TG","latitude":17.51544,"longitude":78.88563},{"name":"Bhoom","countryCode":"IN","stateCode":"MH","latitude":18.45972222,"longitude":75.66083333},{"name":"Bhopal","countryCode":"IN","stateCode":"MP","latitude":23.25469,"longitude":77.40289},{"name":"Bhor","countryCode":"IN","stateCode":"MH","latitude":18.14861,"longitude":73.84336},{"name":"Bhowali","countryCode":"IN","stateCode":"UT","latitude":29.38985,"longitude":79.50481},{"name":"Bhuban","countryCode":"IN","stateCode":"OR","latitude":20.88197,"longitude":85.83334},{"name":"Bhubaneshwar","countryCode":"IN","stateCode":"OR","latitude":20.27241,"longitude":85.83385},{"name":"Bhudgaon","countryCode":"IN","stateCode":"MH","latitude":16.90742,"longitude":74.59954},{"name":"Bhugaon","countryCode":"IN","stateCode":"MH","latitude":18.501284,"longitude":73.750161},{"name":"Bhuj","countryCode":"IN","stateCode":"GJ","latitude":23.25397,"longitude":69.66928},{"name":"Bhum","countryCode":"IN","stateCode":"MH","latitude":18.45908,"longitude":75.65877},{"name":"Bhuma","countryCode":"IN","stateCode":"RJ","latitude":27.78333,"longitude":74.93333},{"name":"Bhusaval","countryCode":"IN","stateCode":"MH","latitude":21.04365,"longitude":75.78506},{"name":"Bhusawal","countryCode":"IN","stateCode":"MH","latitude":21.05,"longitude":75.77},{"name":"Biaora","countryCode":"IN","stateCode":"MP","latitude":23.9205,"longitude":76.91074},{"name":"Bid","countryCode":"IN","stateCode":"MH","latitude":18.83333,"longitude":75.75},{"name":"Bidar","countryCode":"IN","stateCode":"KA","latitude":18.08333,"longitude":77.33333},{"name":"Bidhnu","countryCode":"IN","stateCode":"UP","latitude":26.33333333,"longitude":80.28333333},{"name":"Bidhuna","countryCode":"IN","stateCode":"UP","latitude":26.80172,"longitude":79.50829},{"name":"Bighapur","countryCode":"IN","stateCode":"UP","latitude":26.35,"longitude":80.68},{"name":"Bighapur Khurd","countryCode":"IN","stateCode":"UP","latitude":26.34734,"longitude":80.65698},{"name":"Bihar Sharif","countryCode":"IN","stateCode":"BR","latitude":25.20084,"longitude":85.52389},{"name":"Bihariganj","countryCode":"IN","stateCode":"BR","latitude":25.73415,"longitude":86.98837},{"name":"Bihpuriagaon","countryCode":"IN","stateCode":"AS","latitude":27.01718,"longitude":93.91673},{"name":"Bijapur","countryCode":"IN","stateCode":"CT","latitude":18.84322,"longitude":80.7761},{"name":"Bijawar","countryCode":"IN","stateCode":"MP","latitude":24.62351,"longitude":79.48994},{"name":"Bijbehara","countryCode":"IN","stateCode":"JK","latitude":33.79378,"longitude":75.107},{"name":"Bijni","countryCode":"IN","stateCode":"AS","latitude":26.49588,"longitude":90.70298},{"name":"Bijnor","countryCode":"IN","stateCode":"UP","latitude":29.41667,"longitude":78.51667},{"name":"Bijrauni","countryCode":"IN","stateCode":"MP","latitude":24.93296,"longitude":77.64352},{"name":"Bijur","countryCode":"IN","stateCode":"MH","latitude":13.84388889,"longitude":74.63972222},{"name":"Bikaner","countryCode":"IN","stateCode":"RJ","latitude":28.01762,"longitude":73.31495},{"name":"Bikapur","countryCode":"IN","stateCode":"UP","latitude":26.59534,"longitude":82.13272},{"name":"Bikramganj","countryCode":"IN","stateCode":"BR","latitude":25.21073,"longitude":84.25508},{"name":"Bilara","countryCode":"IN","stateCode":"RJ","latitude":26.18067,"longitude":73.7055},{"name":"Bilari","countryCode":"IN","stateCode":"UP","latitude":28.62146,"longitude":78.80361},{"name":"Bilariaganj","countryCode":"IN","stateCode":"UP","latitude":26.19593,"longitude":83.2269},{"name":"Bilashi","countryCode":"IN","stateCode":"MH","latitude":16.98333,"longitude":74.03333},{"name":"Bilasipara","countryCode":"IN","stateCode":"AS","latitude":26.23285,"longitude":90.2341},{"name":"Bilaspur","countryCode":"IN","stateCode":"CT","latitude":22.38333,"longitude":82.13333},{"name":"Bilaspur","countryCode":"IN","stateCode":"HP","latitude":31.33027,"longitude":76.75663},{"name":"Bilaspur","countryCode":"IN","stateCode":"HR","latitude":30.3045,"longitude":77.30424},{"name":"Bilaspur","countryCode":"IN","stateCode":"UP","latitude":28.88655,"longitude":79.2703},{"name":"Bilgi","countryCode":"IN","stateCode":"KA","latitude":16.34714,"longitude":75.61804},{"name":"Bilgram","countryCode":"IN","stateCode":"UP","latitude":27.17509,"longitude":80.03201},{"name":"Bilhaur","countryCode":"IN","stateCode":"UP","latitude":26.84345,"longitude":80.06388},{"name":"Bilimora","countryCode":"IN","stateCode":"GJ","latitude":20.76957,"longitude":72.96134},{"name":"Bilkha","countryCode":"IN","stateCode":"GJ","latitude":21.4415,"longitude":70.60063},{"name":"Biloli","countryCode":"IN","stateCode":"MH","latitude":18.77385,"longitude":77.72463},{"name":"Bilsanda","countryCode":"IN","stateCode":"UP","latitude":28.24341,"longitude":79.95135},{"name":"Bilsi","countryCode":"IN","stateCode":"UP","latitude":28.12941,"longitude":78.9109},{"name":"Bilthra","countryCode":"IN","stateCode":"UP","latitude":26.12705,"longitude":83.89148},{"name":"Binauli","countryCode":"IN","stateCode":"UP","latitude":29.09416667,"longitude":77.40083333},{"name":"Binaur","countryCode":"IN","stateCode":"UP","latitude":26.38333333,"longitude":80.16666667},{"name":"Bindki","countryCode":"IN","stateCode":"UP","latitude":26.03613,"longitude":80.57617},{"name":"Binka","countryCode":"IN","stateCode":"OR","latitude":21.02626,"longitude":83.81197},{"name":"Birbhaddar","countryCode":"IN","stateCode":"UT","latitude":30.0712,"longitude":78.28189},{"name":"Birbhum district","countryCode":"IN","stateCode":"WB","latitude":24,"longitude":87.58333},{"name":"Birdpur","countryCode":"IN","stateCode":"UP","latitude":27.3833,"longitude":83.1167},{"name":"Birmitrapur","countryCode":"IN","stateCode":"OR","latitude":22.4,"longitude":84.76667},{"name":"Birpara","countryCode":"IN","stateCode":"WB","latitude":26.5,"longitude":89.5},{"name":"Birpur","countryCode":"IN","stateCode":"BR","latitude":26.50823,"longitude":87.01194},{"name":"Birpur","countryCode":"IN","stateCode":"UP","latitude":26.53,"longitude":86.25},{"name":"Birur","countryCode":"IN","stateCode":"KA","latitude":13.59723,"longitude":75.97167},{"name":"Bisalpur","countryCode":"IN","stateCode":"UP","latitude":28.29253,"longitude":79.80472},{"name":"Bisanda Buzurg","countryCode":"IN","stateCode":"UP","latitude":25.41666667,"longitude":80.61666667},{"name":"Bisauli","countryCode":"IN","stateCode":"UP","latitude":28.30772,"longitude":78.93678},{"name":"Bisenda Buzurg","countryCode":"IN","stateCode":"UP","latitude":25.4035,"longitude":80.61889},{"name":"Bishnah","countryCode":"IN","stateCode":"JK","latitude":32.6106,"longitude":74.85557},{"name":"Bishnupur","countryCode":"IN","stateCode":"MN","latitude":24.60769,"longitude":93.77998},{"name":"Bishnupur","countryCode":"IN","stateCode":"WB","latitude":22.38,"longitude":88.27},{"name":"Bishunpur Urf Maharajganj","countryCode":"IN","stateCode":"UP","latitude":26.25914,"longitude":83.11643},{"name":"Bissau","countryCode":"IN","stateCode":"RJ","latitude":28.24737,"longitude":75.07666},{"name":"Biswan","countryCode":"IN","stateCode":"UP","latitude":27.49581,"longitude":80.99618},{"name":"Bithur","countryCode":"IN","stateCode":"UP","latitude":26.60664,"longitude":80.27098},{"name":"Bobbili","countryCode":"IN","stateCode":"AP","latitude":18.57366,"longitude":83.35925},{"name":"Bodhan","countryCode":"IN","stateCode":"TG","latitude":18.66208,"longitude":77.88581},{"name":"Bodinayakkanur","countryCode":"IN","stateCode":"TN","latitude":10.01171,"longitude":77.34976},{"name":"Bodri","countryCode":"IN","stateCode":"MP","latitude":23.16524,"longitude":81.43262},{"name":"Boisar","countryCode":"IN","stateCode":"MH","latitude":19.80362,"longitude":72.75598},{"name":"Bokajan","countryCode":"IN","stateCode":"AS","latitude":26.02131,"longitude":93.77945},{"name":"Bokakhat","countryCode":"IN","stateCode":"AS","latitude":26.64018,"longitude":93.60052},{"name":"Bokaro","countryCode":"IN","stateCode":"JH","latitude":23.68562,"longitude":85.99026},{"name":"Bolanikhodan","countryCode":"IN","stateCode":"OR","latitude":22.11312,"longitude":85.33645},{"name":"Bolpur","countryCode":"IN","stateCode":"WB","latitude":23.67,"longitude":87.72},{"name":"Bomdila","countryCode":"IN","stateCode":"AR","latitude":27.26475,"longitude":92.42472},{"name":"Bongaigaon","countryCode":"IN","stateCode":"AS","latitude":26.4603,"longitude":90.6464},{"name":"Borgaon Manju","countryCode":"IN","stateCode":"MH","latitude":20.71944444,"longitude":77.15277778},{"name":"Borivali","countryCode":"IN","stateCode":"MH","latitude":19.23,"longitude":72.86},{"name":"Borivli","countryCode":"IN","stateCode":"MH","latitude":19.23496,"longitude":72.85976},{"name":"Borkhera","countryCode":"IN","stateCode":"RJ","latitude":25.52115,"longitude":75.64028},{"name":"Borsad","countryCode":"IN","stateCode":"GJ","latitude":22.40788,"longitude":72.89817},{"name":"Botad","countryCode":"IN","stateCode":"GJ","latitude":22.16917,"longitude":71.66671},{"name":"Brahmapur","countryCode":"IN","stateCode":"OR","latitude":19.31151,"longitude":84.7929},{"name":"Brahmapuri","countryCode":"IN","stateCode":"MH","latitude":20.6084,"longitude":79.8559},{"name":"Brajarajnagar","countryCode":"IN","stateCode":"OR","latitude":21.81667,"longitude":83.91667},{"name":"Breach Candy","countryCode":"IN","stateCode":"MH","latitude":18.967,"longitude":72.805},{"name":"Budaun","countryCode":"IN","stateCode":"UP","latitude":28.11667,"longitude":78.98333},{"name":"Buddh Gaya","countryCode":"IN","stateCode":"BR","latitude":24.69808,"longitude":84.9869},{"name":"Budge Budge","countryCode":"IN","stateCode":"WB","latitude":22.47,"longitude":88.17},{"name":"Budhana","countryCode":"IN","stateCode":"UP","latitude":29.28805,"longitude":77.47534},{"name":"Budhlada","countryCode":"IN","stateCode":"PB","latitude":29.92799,"longitude":75.56205},{"name":"Buguda","countryCode":"IN","stateCode":"OR","latitude":19.80806,"longitude":84.79084},{"name":"Bulandshahr","countryCode":"IN","stateCode":"UP","latitude":28.41667,"longitude":77.83333},{"name":"Buldana","countryCode":"IN","stateCode":"MH","latitude":20.58333,"longitude":76.41667},{"name":"Buldhana","countryCode":"IN","stateCode":"MH","latitude":20.53333333,"longitude":76.18333333},{"name":"Bundi","countryCode":"IN","stateCode":"RJ","latitude":25.43855,"longitude":75.63735},{"name":"Bundu","countryCode":"IN","stateCode":"JH","latitude":23.16095,"longitude":85.59007},{"name":"Burhanpur","countryCode":"IN","stateCode":"MP","latitude":21.31,"longitude":76.23},{"name":"Burhar","countryCode":"IN","stateCode":"MP","latitude":23.21494,"longitude":81.53204},{"name":"Buriya","countryCode":"IN","stateCode":"HR","latitude":30.15911,"longitude":77.35814},{"name":"Burla","countryCode":"IN","stateCode":"OR","latitude":21.50976,"longitude":83.87259},{"name":"Buxar","countryCode":"IN","stateCode":"BR","latitude":25.5,"longitude":84.1},{"name":"Byadgi","countryCode":"IN","stateCode":"KA","latitude":14.67325,"longitude":75.4868},{"name":"Byculla","countryCode":"IN","stateCode":"MH","latitude":18.98,"longitude":72.835},{"name":"Byndoor","countryCode":"IN","stateCode":"KA","latitude":13.86667,"longitude":74.63333},{"name":"Cachar","countryCode":"IN","stateCode":"AS","latitude":24.78213,"longitude":92.85771},{"name":"Calangute","countryCode":"IN","stateCode":"GA","latitude":15.5439,"longitude":73.7553},{"name":"Canacona","countryCode":"IN","stateCode":"KA","latitude":14.9959,"longitude":74.05056},{"name":"Candolim","countryCode":"IN","stateCode":"GA","latitude":15.51807,"longitude":73.76259},{"name":"Canning","countryCode":"IN","stateCode":"WB","latitude":22.32,"longitude":88.67},{"name":"Captainganj","countryCode":"IN","stateCode":"UP","latitude":26.9264,"longitude":83.71334},{"name":"Carapur","countryCode":"IN","stateCode":"GA","latitude":15.56588,"longitude":73.98713},{"name":"Cavelossim","countryCode":"IN","stateCode":"GA","latitude":15.17255,"longitude":73.94194},{"name":"Central Delhi","countryCode":"IN","stateCode":"DL","latitude":28.64857,"longitude":77.21895},{"name":"Chabua","countryCode":"IN","stateCode":"AS","latitude":27.48253,"longitude":95.17451},{"name":"Chaibasa","countryCode":"IN","stateCode":"JH","latitude":22.55038,"longitude":85.80249},{"name":"Chail","countryCode":"IN","stateCode":"UP","latitude":25.42654,"longitude":81.63198},{"name":"Chakan","countryCode":"IN","stateCode":"MH","latitude":18.76059,"longitude":73.86351},{"name":"Chakapara","countryCode":"IN","stateCode":"WB","latitude":22.63,"longitude":88.35},{"name":"Chakdaha","countryCode":"IN","stateCode":"WB","latitude":23.08,"longitude":88.52},{"name":"Chakia","countryCode":"IN","stateCode":"BR","latitude":26.41598,"longitude":85.04665},{"name":"Chakia","countryCode":"IN","stateCode":"UP","latitude":25.04891,"longitude":83.22155},{"name":"Chaklasi","countryCode":"IN","stateCode":"GJ","latitude":22.6532,"longitude":72.94497},{"name":"Chakradharpur","countryCode":"IN","stateCode":"JH","latitude":22.67611,"longitude":85.62892},{"name":"Chakrata","countryCode":"IN","stateCode":"UT","latitude":30.70369,"longitude":77.86386},{"name":"Chaksu","countryCode":"IN","stateCode":"RJ","latitude":26.6051,"longitude":75.94814},{"name":"Chakulia","countryCode":"IN","stateCode":"JH","latitude":22.48301,"longitude":86.71793},{"name":"Chakur","countryCode":"IN","stateCode":"MH","latitude":18.51305556,"longitude":76.87527778},{"name":"Chalala","countryCode":"IN","stateCode":"GJ","latitude":21.41073,"longitude":71.16621},{"name":"Chalisgaon","countryCode":"IN","stateCode":"MH","latitude":20.45781,"longitude":75.01596},{"name":"Challakere","countryCode":"IN","stateCode":"KA","latitude":14.318,"longitude":76.65165},{"name":"Challapalle","countryCode":"IN","stateCode":"AP","latitude":16.11756,"longitude":80.93139},{"name":"Chaloda","countryCode":"IN","stateCode":"GJ","latitude":22.8,"longitude":72.45},{"name":"Chamba","countryCode":"IN","stateCode":"HP","latitude":32.57147,"longitude":76.10229},{"name":"Chamoli","countryCode":"IN","stateCode":"UT","latitude":30.5,"longitude":79.5},{"name":"Champa","countryCode":"IN","stateCode":"CT","latitude":22.03532,"longitude":82.64234},{"name":"Champadanga","countryCode":"IN","stateCode":"WB","latitude":22.83,"longitude":87.96},{"name":"Champahati","countryCode":"IN","stateCode":"WB","latitude":22.40026,"longitude":88.49209},{"name":"Champaner","countryCode":"IN","stateCode":"GJ","latitude":22.4859,"longitude":73.5371},{"name":"Champawat","countryCode":"IN","stateCode":"UT","latitude":29.28756,"longitude":80.03737},{"name":"Champdani","countryCode":"IN","stateCode":"WB","latitude":22.8,"longitude":88.37},{"name":"Champhai","countryCode":"IN","stateCode":"MZ","latitude":23.47444,"longitude":93.32556},{"name":"Champua","countryCode":"IN","stateCode":"OR","latitude":22.06734,"longitude":85.66463},{"name":"Chamrajnagar","countryCode":"IN","stateCode":"KA","latitude":11.96,"longitude":77.09},{"name":"Chanasma","countryCode":"IN","stateCode":"GJ","latitude":23.71472,"longitude":72.11279},{"name":"Chanda","countryCode":"IN","stateCode":"MH","latitude":19.95076,"longitude":79.29523},{"name":"Chandannagar","countryCode":"IN","stateCode":"WB","latitude":22.86666667,"longitude":88.38333333},{"name":"Chandauli","countryCode":"IN","stateCode":"UP","latitude":25.25803,"longitude":83.26825},{"name":"Chandauli District","countryCode":"IN","stateCode":"UP","latitude":25.26134,"longitude":83.26408},{"name":"Chandausi","countryCode":"IN","stateCode":"UP","latitude":28.45,"longitude":78.77},{"name":"Chandbali","countryCode":"IN","stateCode":"OR","latitude":20.77519,"longitude":86.74139},{"name":"Chanderi","countryCode":"IN","stateCode":"MP","latitude":24.71312,"longitude":78.13809},{"name":"Chandgad","countryCode":"IN","stateCode":"MH","latitude":15,"longitude":74},{"name":"Chandia","countryCode":"IN","stateCode":"MP","latitude":23.65647,"longitude":80.70911},{"name":"Chandigarh","countryCode":"IN","stateCode":"CH","latitude":30.73629,"longitude":76.7884},{"name":"Chandil","countryCode":"IN","stateCode":"JH","latitude":22.95745,"longitude":86.05331},{"name":"Chandla","countryCode":"IN","stateCode":"MP","latitude":25.07148,"longitude":80.19294},{"name":"Chandor","countryCode":"IN","stateCode":"MH","latitude":20.3306,"longitude":74.24467},{"name":"Chandpur","countryCode":"IN","stateCode":"UP","latitude":29.13489,"longitude":78.27187},{"name":"Chandrakona","countryCode":"IN","stateCode":"WB","latitude":22.73,"longitude":87.52},{"name":"Chandrapur","countryCode":"IN","stateCode":"MH","latitude":20.11793,"longitude":79.44377},{"name":"Chanduasi","countryCode":"IN","stateCode":"UP","latitude":28.45178,"longitude":78.78277},{"name":"Chandur","countryCode":"IN","stateCode":"MH","latitude":19.73444,"longitude":79.17167},{"name":"Chandur","countryCode":"IN","stateCode":"TG","latitude":17.87455,"longitude":78.10017},{"name":"Chandur Bazar","countryCode":"IN","stateCode":"MH","latitude":21.23853,"longitude":77.74713},{"name":"Changanacheri","countryCode":"IN","stateCode":"KL","latitude":9.44203,"longitude":76.53604},{"name":"Changlang","countryCode":"IN","stateCode":"AR","latitude":27.36265,"longitude":96.34518},{"name":"Channagiri","countryCode":"IN","stateCode":"KA","latitude":14.02399,"longitude":75.92577},{"name":"Channapatna","countryCode":"IN","stateCode":"KA","latitude":12.65143,"longitude":77.20672},{"name":"Channarayapatna","countryCode":"IN","stateCode":"KA","latitude":12.90642,"longitude":76.38775},{"name":"Chapar","countryCode":"IN","stateCode":"AS","latitude":26.27266,"longitude":90.44556},{"name":"Chapra","countryCode":"IN","stateCode":"BR","latitude":25.78031,"longitude":84.74709},{"name":"Charkhari","countryCode":"IN","stateCode":"UP","latitude":25.40304,"longitude":79.74877},{"name":"Charkhi Dadri","countryCode":"IN","stateCode":"HR","latitude":28.59166,"longitude":76.27161},{"name":"Charthawal","countryCode":"IN","stateCode":"UP","latitude":29.54687,"longitude":77.59438},{"name":"Chas","countryCode":"IN","stateCode":"JH","latitude":23.63556,"longitude":86.16712},{"name":"Chatakonda","countryCode":"IN","stateCode":"TG","latitude":17.55303,"longitude":80.6477},{"name":"Chatra","countryCode":"IN","stateCode":"JH","latitude":24.20645,"longitude":84.87085},{"name":"Chatrapur","countryCode":"IN","stateCode":"OR","latitude":19.35574,"longitude":84.98359},{"name":"Chaupal","countryCode":"IN","stateCode":"HP","latitude":30.94647,"longitude":77.5884},{"name":"Chausala","countryCode":"IN","stateCode":"MH","latitude":18.708692,"longitude":75.691595},{"name":"Chechat","countryCode":"IN","stateCode":"RJ","latitude":24.76667,"longitude":75.88333},{"name":"Chēlakara","countryCode":"IN","stateCode":"KL","latitude":10.69289,"longitude":76.34387},{"name":"Chembur","countryCode":"IN","stateCode":"MH","latitude":19.05871111,"longitude":72.89969444},{"name":"Chemmumiahpet","countryCode":"IN","stateCode":"AP","latitude":15.89794,"longitude":79.32129},{"name":"Chengam","countryCode":"IN","stateCode":"TN","latitude":12.30889,"longitude":78.79137},{"name":"Chengannur","countryCode":"IN","stateCode":"KL","latitude":9.31575,"longitude":76.61513},{"name":"Chennai","countryCode":"IN","stateCode":"TN","latitude":13.08784,"longitude":80.27847},{"name":"Chennimalai","countryCode":"IN","stateCode":"TN","latitude":11.16378,"longitude":77.60388},{"name":"Cherpulassery","countryCode":"IN","stateCode":"KL","latitude":10.87655,"longitude":76.30932},{"name":"Cherrapunji","countryCode":"IN","stateCode":"ML","latitude":25.30089,"longitude":91.69619},{"name":"Cherthala","countryCode":"IN","stateCode":"KL","latitude":9.68444,"longitude":76.33558},{"name":"Chetput","countryCode":"IN","stateCode":"TN","latitude":13.07,"longitude":80.24083},{"name":"Chettipalaiyam","countryCode":"IN","stateCode":"TN","latitude":10.91248,"longitude":77.03699},{"name":"Chetwayi","countryCode":"IN","stateCode":"KL","latitude":10.52885,"longitude":76.04793},{"name":"Cheyyar","countryCode":"IN","stateCode":"TN","latitude":12.66052,"longitude":79.54308},{"name":"Cheyyur","countryCode":"IN","stateCode":"TN","latitude":12.34948,"longitude":80.00304},{"name":"Chhabra","countryCode":"IN","stateCode":"RJ","latitude":24.66472,"longitude":76.84379},{"name":"Chhachhrauli","countryCode":"IN","stateCode":"HR","latitude":30.24492,"longitude":77.36027},{"name":"Chhala","countryCode":"IN","stateCode":"GJ","latitude":23.30779,"longitude":72.77404},{"name":"Chhapar","countryCode":"IN","stateCode":"RJ","latitude":27.819,"longitude":74.43936},{"name":"Chhaprauli","countryCode":"IN","stateCode":"UP","latitude":29.20989,"longitude":77.17454},{"name":"Chharra","countryCode":"IN","stateCode":"UP","latitude":27.9247,"longitude":78.40102},{"name":"Chhata","countryCode":"IN","stateCode":"UP","latitude":27.72374,"longitude":77.5081},{"name":"Chhatapur","countryCode":"IN","stateCode":"BR","latitude":26.21965,"longitude":87.00479},{"name":"Chhatarpur","countryCode":"IN","stateCode":"MP","latitude":24.75,"longitude":79.75},{"name":"Chhibramau","countryCode":"IN","stateCode":"UP","latitude":27.14872,"longitude":79.50078},{"name":"Chhindwara","countryCode":"IN","stateCode":"MP","latitude":22.05697,"longitude":78.93958},{"name":"Chhitauni","countryCode":"IN","stateCode":"UP","latitude":27.11666667,"longitude":83.98333333},{"name":"Chhota Udepur","countryCode":"IN","stateCode":"GJ","latitude":22.30401,"longitude":74.0158},{"name":"Chhoti Sadri","countryCode":"IN","stateCode":"RJ","latitude":24.38145,"longitude":74.7012},{"name":"Chhuikhadan","countryCode":"IN","stateCode":"CT","latitude":21.52316,"longitude":80.99788},{"name":"Chhutmalpur","countryCode":"IN","stateCode":"UP","latitude":30.03209,"longitude":77.75329},{"name":"Chicalim","countryCode":"IN","stateCode":"GA","latitude":15.39835,"longitude":73.84216},{"name":"Chichli","countryCode":"IN","stateCode":"MP","latitude":22.83363,"longitude":78.82611},{"name":"Chicholi","countryCode":"IN","stateCode":"MH","latitude":21.46926,"longitude":79.70151},{"name":"Chichondi Patil","countryCode":"IN","stateCode":"MH","latitude":19,"longitude":74.91666667},{"name":"Chidambaram","countryCode":"IN","stateCode":"TN","latitude":11.39933,"longitude":79.69144},{"name":"Chidawa","countryCode":"IN","stateCode":"RJ","latitude":28.23937,"longitude":75.64035},{"name":"Chik Ballapur","countryCode":"IN","stateCode":"KA","latitude":13.43512,"longitude":77.72787},{"name":"Chikhli","countryCode":"IN","stateCode":"GJ","latitude":20.75751,"longitude":73.06268},{"name":"Chikhli (Buldhana)","countryCode":"IN","stateCode":"MH","latitude":20.35046,"longitude":76.25774},{"name":"Chikhli (Jalna)","countryCode":"IN","stateCode":"MH","latitude":20.02193,"longitude":75.78544},{"name":"Chikitigarh","countryCode":"IN","stateCode":"OR","latitude":19.20233,"longitude":84.6145},{"name":"Chikkaballapur","countryCode":"IN","stateCode":"KA","latitude":13.55,"longitude":77.87},{"name":"Chikkamagaluru","countryCode":"IN","stateCode":"KA","latitude":13.49,"longitude":75.73},{"name":"Chiknayakanhalli","countryCode":"IN","stateCode":"KA","latitude":13.41609,"longitude":76.62063},{"name":"Chikodi","countryCode":"IN","stateCode":"KA","latitude":16.42898,"longitude":74.58591},{"name":"Chilakalurupet","countryCode":"IN","stateCode":"AP","latitude":16.08987,"longitude":80.16705},{"name":"Chillupar","countryCode":"IN","stateCode":"UP","latitude":26.28221,"longitude":83.5064},{"name":"Chima","countryCode":"IN","stateCode":"PB","latitude":30.6854,"longitude":76.08643},{"name":"Chimur","countryCode":"IN","stateCode":"MH","latitude":20.49694444,"longitude":79.37666667},{"name":"Chinchani","countryCode":"IN","stateCode":"MH","latitude":19.87458,"longitude":72.6851},{"name":"Chinchinim","countryCode":"IN","stateCode":"GA","latitude":15.21447,"longitude":73.97555},{"name":"Chincholi","countryCode":"IN","stateCode":"KA","latitude":17.46508,"longitude":77.41874},{"name":"Chinchpokli","countryCode":"IN","stateCode":"MH","latitude":18.98333333,"longitude":72.83333333},{"name":"Chingleput","countryCode":"IN","stateCode":"TN","latitude":12.69184,"longitude":79.97661},{"name":"Chinna Salem","countryCode":"IN","stateCode":"TN","latitude":11.63422,"longitude":78.87412},{"name":"Chinnachowk","countryCode":"IN","stateCode":"AP","latitude":14.47516,"longitude":78.8354},{"name":"Chinnamanur","countryCode":"IN","stateCode":"TN","latitude":9.83999,"longitude":77.38109},{"name":"Chinnasekkadu","countryCode":"IN","stateCode":"TN","latitude":13.16089,"longitude":80.25727},{"name":"Chintamani","countryCode":"IN","stateCode":"KA","latitude":13.40051,"longitude":78.05172},{"name":"Chiplun","countryCode":"IN","stateCode":"MH","latitude":17.53339,"longitude":73.50935},{"name":"Chipurupalle","countryCode":"IN","stateCode":"AP","latitude":18.31142,"longitude":83.56846},{"name":"Chirala","countryCode":"IN","stateCode":"AP","latitude":15.82385,"longitude":80.35219},{"name":"Chirang","countryCode":"IN","stateCode":"AS","latitude":26.52527,"longitude":90.49066},{"name":"Chirgaon","countryCode":"IN","stateCode":"UP","latitude":25.57198,"longitude":78.81432},{"name":"Chiria","countryCode":"IN","stateCode":"JH","latitude":22.31093,"longitude":85.27601},{"name":"Chitapur","countryCode":"IN","stateCode":"KA","latitude":17.12357,"longitude":77.0824},{"name":"Chitradurga","countryCode":"IN","stateCode":"KA","latitude":14.2,"longitude":76.5},{"name":"Chitrakoot","countryCode":"IN","stateCode":"UP","latitude":25.20511,"longitude":81.08962},{"name":"Chitrakoot Dham","countryCode":"IN","stateCode":"UP","latitude":25.2,"longitude":80.9},{"name":"Chittaranjan","countryCode":"IN","stateCode":"WB","latitude":23.87,"longitude":86.87},{"name":"Chittarkonda","countryCode":"IN","stateCode":"OR","latitude":18.12533,"longitude":82.1089},{"name":"Chittaurgarh","countryCode":"IN","stateCode":"RJ","latitude":24.5,"longitude":74.5},{"name":"Chittoor","countryCode":"IN","stateCode":"AP","latitude":13.41667,"longitude":79},{"name":"Chittur","countryCode":"IN","stateCode":"KL","latitude":10.69967,"longitude":76.7471},{"name":"Chodavaram","countryCode":"IN","stateCode":"AP","latitude":17.82884,"longitude":82.93526},{"name":"Cholapuram","countryCode":"IN","stateCode":"TN","latitude":9.35193,"longitude":77.56839},{"name":"Chopan","countryCode":"IN","stateCode":"UP","latitude":24.51954,"longitude":83.02287},{"name":"Chopda","countryCode":"IN","stateCode":"MH","latitude":21.24578,"longitude":75.29946},{"name":"Chorhat","countryCode":"IN","stateCode":"MP","latitude":24.42743,"longitude":81.66948},{"name":"Chotila","countryCode":"IN","stateCode":"GJ","latitude":22.42347,"longitude":71.19641},{"name":"Chowari","countryCode":"IN","stateCode":"HP","latitude":32.4319,"longitude":76.012},{"name":"Chuari Khas","countryCode":"IN","stateCode":"HP","latitude":32.43058,"longitude":76.01428},{"name":"Chuda","countryCode":"IN","stateCode":"GJ","latitude":22.48333333,"longitude":71.68333333},{"name":"Chunar","countryCode":"IN","stateCode":"UP","latitude":25.12776,"longitude":82.8821},{"name":"Churachandpur","countryCode":"IN","stateCode":"MN","latitude":24.33333,"longitude":93.68333},{"name":"Churk","countryCode":"IN","stateCode":"UP","latitude":24.65,"longitude":83.1},{"name":"Churu","countryCode":"IN","stateCode":"RJ","latitude":28.30415,"longitude":74.96718},{"name":"Churulia","countryCode":"IN","stateCode":"WB","latitude":23.78,"longitude":87.08},{"name":"Clement Town","countryCode":"IN","stateCode":"UT","latitude":30.26361,"longitude":78.00862},{"name":"Closepet","countryCode":"IN","stateCode":"KA","latitude":12.72181,"longitude":77.28149},{"name":"Cochin","countryCode":"IN","stateCode":"KL","latitude":9.93988,"longitude":76.26022},{"name":"Coimbatore","countryCode":"IN","stateCode":"TN","latitude":10.8,"longitude":77.09},{"name":"Colaba","countryCode":"IN","stateCode":"MH","latitude":18.91,"longitude":72.81},{"name":"Colachel","countryCode":"IN","stateCode":"TN","latitude":8.17938,"longitude":77.25818},{"name":"Colgong","countryCode":"IN","stateCode":"BR","latitude":25.26328,"longitude":87.23264},{"name":"Colonelganj","countryCode":"IN","stateCode":"UP","latitude":27.13432,"longitude":81.69868},{"name":"Colovale","countryCode":"IN","stateCode":"GA","latitude":15.63522,"longitude":73.82426},{"name":"Colva","countryCode":"IN","stateCode":"GA","latitude":15.27976,"longitude":73.92285},{"name":"Contai","countryCode":"IN","stateCode":"WB","latitude":21.78,"longitude":87.75},{"name":"Cooch Behar","countryCode":"IN","stateCode":"WB","latitude":26.31666667,"longitude":89.43333333},{"name":"Coondapoor","countryCode":"IN","stateCode":"KA","latitude":13.63126,"longitude":74.6902},{"name":"Cortalim","countryCode":"IN","stateCode":"GA","latitude":15.40247,"longitude":73.90881},{"name":"Cossimbazar","countryCode":"IN","stateCode":"WB","latitude":24.12,"longitude":88.28},{"name":"Cuddalore","countryCode":"IN","stateCode":"TN","latitude":11.52,"longitude":79.51},{"name":"Cuddapah","countryCode":"IN","stateCode":"AP","latitude":14.41667,"longitude":78.75},{"name":"Cumbum","countryCode":"IN","stateCode":"AP","latitude":15.58171,"longitude":79.11059},{"name":"Cumbum","countryCode":"IN","stateCode":"TN","latitude":9.73647,"longitude":77.2847},{"name":"Cuncolim","countryCode":"IN","stateCode":"GA","latitude":15.1773,"longitude":73.99392},{"name":"Curchorem","countryCode":"IN","stateCode":"GA","latitude":15.26349,"longitude":74.10875},{"name":"Curti","countryCode":"IN","stateCode":"GA","latitude":15.41667,"longitude":74.01667},{"name":"Cuttack","countryCode":"IN","stateCode":"OR","latitude":20.5,"longitude":86.25},{"name":"Dabhoda","countryCode":"IN","stateCode":"GJ","latitude":23.16666667,"longitude":72.73333333},{"name":"Dabhoi","countryCode":"IN","stateCode":"GJ","latitude":22.18333,"longitude":73.43333},{"name":"Dabhol","countryCode":"IN","stateCode":"MH","latitude":17.58971,"longitude":73.18001},{"name":"Daboh","countryCode":"IN","stateCode":"MP","latitude":26.00239,"longitude":78.87658},{"name":"Dabra","countryCode":"IN","stateCode":"MP","latitude":25.88572,"longitude":78.33221},{"name":"Dabwali","countryCode":"IN","stateCode":"HR","latitude":29.94906,"longitude":74.73832},{"name":"Daddi","countryCode":"IN","stateCode":"MH","latitude":16.06666667,"longitude":74.43333333},{"name":"Dadra","countryCode":"IN","stateCode":"DH","latitude":20.32504,"longitude":72.96618},{"name":"Dadra & Nagar Haveli","countryCode":"IN","stateCode":"DH","latitude":20.20651,"longitude":73.00811},{"name":"Dadri","countryCode":"IN","stateCode":"UP","latitude":28.55257,"longitude":77.55403},{"name":"Dagshai","countryCode":"IN","stateCode":"HP","latitude":30.88431,"longitude":77.05228},{"name":"Dahanu","countryCode":"IN","stateCode":"MH","latitude":19.96778,"longitude":72.71263},{"name":"Dahegam","countryCode":"IN","stateCode":"GJ","latitude":23.16903,"longitude":72.82161},{"name":"Dahivel","countryCode":"IN","stateCode":"MH","latitude":21.06666667,"longitude":74.16666667},{"name":"Dahod","countryCode":"IN","stateCode":"GJ","latitude":22.52,"longitude":74.15},{"name":"Daitari","countryCode":"IN","stateCode":"OR","latitude":21.1,"longitude":85.75},{"name":"Dakor","countryCode":"IN","stateCode":"GJ","latitude":22.75268,"longitude":73.14967},{"name":"Dakshin Dinajpur district","countryCode":"IN","stateCode":"WB","latitude":25.22,"longitude":88.76},{"name":"Dakshina Kannada","countryCode":"IN","stateCode":"KA","latitude":12.84,"longitude":75.29},{"name":"Dalhousie","countryCode":"IN","stateCode":"HP","latitude":32.55219,"longitude":75.94663},{"name":"Dalkola","countryCode":"IN","stateCode":"WB","latitude":25.87577,"longitude":87.84009},{"name":"Dalmau","countryCode":"IN","stateCode":"UP","latitude":26.06477,"longitude":81.0298},{"name":"Dalsingh Sarai","countryCode":"IN","stateCode":"BR","latitude":25.66795,"longitude":85.83636},{"name":"Daltonganj","countryCode":"IN","stateCode":"JH","latitude":24.03971,"longitude":84.0658},{"name":"Dam Dam","countryCode":"IN","stateCode":"WB","latitude":22.63333333,"longitude":88.42277778},{"name":"Daman","countryCode":"IN","stateCode":"DH","latitude":20.41431,"longitude":72.83236},{"name":"Daman District","countryCode":"IN","stateCode":"DH","latitude":20.41667,"longitude":72.88333},{"name":"Damnagar","countryCode":"IN","stateCode":"GJ","latitude":21.69232,"longitude":71.51747},{"name":"Damoh","countryCode":"IN","stateCode":"MP","latitude":23.75,"longitude":79.58333},{"name":"Dandeli","countryCode":"IN","stateCode":"KA","latitude":15.26667,"longitude":74.61667},{"name":"Dandi","countryCode":"IN","stateCode":"GJ","latitude":21.32988,"longitude":72.62484},{"name":"Dangs (India)","countryCode":"IN","stateCode":"GJ","latitude":20.75,"longitude":73.75},{"name":"Dankaur","countryCode":"IN","stateCode":"UP","latitude":28.35121,"longitude":77.55508},{"name":"Danta","countryCode":"IN","stateCode":"GJ","latitude":24.18861111,"longitude":72.76583333},{"name":"Dapoli","countryCode":"IN","stateCode":"MH","latitude":17.75888889,"longitude":73.18555556},{"name":"Daraganj","countryCode":"IN","stateCode":"UP","latitude":25.43333333,"longitude":81.88333333},{"name":"Daranagar","countryCode":"IN","stateCode":"UP","latitude":25.6816208,"longitude":81.3497579},{"name":"Darbhanga","countryCode":"IN","stateCode":"BR","latitude":26,"longitude":86},{"name":"Dariba","countryCode":"IN","stateCode":"RJ","latitude":24.94865,"longitude":74.1342},{"name":"Darjeeling","countryCode":"IN","stateCode":"WB","latitude":27.04166667,"longitude":88.26305556},{"name":"Darlawn","countryCode":"IN","stateCode":"MZ","latitude":24.01336,"longitude":92.92439},{"name":"Darrang","countryCode":"IN","stateCode":"AS","latitude":26.51195,"longitude":92.16843},{"name":"Darsi","countryCode":"IN","stateCode":"AP","latitude":15.76978,"longitude":79.67939},{"name":"Darwha","countryCode":"IN","stateCode":"MH","latitude":20.31017,"longitude":77.77257},{"name":"Daryapur","countryCode":"IN","stateCode":"MH","latitude":20.92489,"longitude":77.32644},{"name":"Dasna","countryCode":"IN","stateCode":"UP","latitude":28.67736,"longitude":77.52252},{"name":"Dasnapur","countryCode":"IN","stateCode":"TG","latitude":19.65399,"longitude":78.51213},{"name":"Dasuya","countryCode":"IN","stateCode":"PB","latitude":31.81679,"longitude":75.6531},{"name":"Dataganj","countryCode":"IN","stateCode":"UP","latitude":28.0253,"longitude":79.40819},{"name":"Datia","countryCode":"IN","stateCode":"MP","latitude":25.75,"longitude":78.5},{"name":"Dattapur","countryCode":"IN","stateCode":"MH","latitude":20.78075,"longitude":78.1407},{"name":"Daudnagar","countryCode":"IN","stateCode":"BR","latitude":25.03473,"longitude":84.40095},{"name":"Daulatabad","countryCode":"IN","stateCode":"MH","latitude":19.93611,"longitude":75.22148},{"name":"Daulatpur","countryCode":"IN","stateCode":"HP","latitude":31.78871,"longitude":75.99154},{"name":"Daulatpur","countryCode":"IN","stateCode":"WB","latitude":25.32605,"longitude":88.32989},{"name":"Daund","countryCode":"IN","stateCode":"MH","latitude":18.46515,"longitude":74.58375},{"name":"Daurala","countryCode":"IN","stateCode":"UP","latitude":29.11344,"longitude":77.70467},{"name":"Dausa","countryCode":"IN","stateCode":"RJ","latitude":26.88269,"longitude":76.57053},{"name":"Davanagere","countryCode":"IN","stateCode":"KA","latitude":14.43,"longitude":75.9},{"name":"Davorlim","countryCode":"IN","stateCode":"GA","latitude":15.27221,"longitude":73.99242},{"name":"Dayal Bagh","countryCode":"IN","stateCode":"UP","latitude":27.22122,"longitude":78.01095},{"name":"Dayapar","countryCode":"IN","stateCode":"GJ","latitude":23.63371,"longitude":68.90192},{"name":"Debagram","countryCode":"IN","stateCode":"WB","latitude":23.68333333,"longitude":88.28333333},{"name":"Debipur","countryCode":"IN","stateCode":"WB","latitude":24.25029,"longitude":88.61824},{"name":"Deccan Gymkhana","countryCode":"IN","stateCode":"MH","latitude":18.5184,"longitude":73.8406},{"name":"Deglur","countryCode":"IN","stateCode":"MH","latitude":18.54777778,"longitude":77.57722222},{"name":"Dehradun","countryCode":"IN","stateCode":"UT","latitude":30.33,"longitude":78.06},{"name":"Dehri","countryCode":"IN","stateCode":"BR","latitude":24.90247,"longitude":84.18217},{"name":"Dehu","countryCode":"IN","stateCode":"MH","latitude":18.71851,"longitude":73.76635},{"name":"Delhi","countryCode":"IN","stateCode":"DL","latitude":28.65195,"longitude":77.23149},{"name":"Delvada","countryCode":"IN","stateCode":"GJ","latitude":20.77544,"longitude":71.04646},{"name":"Delwada","countryCode":"IN","stateCode":"GJ","latitude":20.7833,"longitude":71.05},{"name":"Denkanikota","countryCode":"IN","stateCode":"TN","latitude":12.5301,"longitude":77.78887},{"name":"Deoband","countryCode":"IN","stateCode":"UP","latitude":29.69505,"longitude":77.67964},{"name":"Deogarh","countryCode":"IN","stateCode":"JH","latitude":24.44382,"longitude":86.72607},{"name":"Deogarh","countryCode":"IN","stateCode":"OR","latitude":21.53827,"longitude":84.73337},{"name":"Deogarh","countryCode":"IN","stateCode":"UP","latitude":24.526,"longitude":78.238},{"name":"Deolali","countryCode":"IN","stateCode":"MH","latitude":19.94404,"longitude":73.83441},{"name":"Deolapar","countryCode":"IN","stateCode":"MH","latitude":21.58611111,"longitude":79.36944444},{"name":"Deoli","countryCode":"IN","stateCode":"DL","latitude":28.50254,"longitude":77.23117},{"name":"Deoli","countryCode":"IN","stateCode":"MH","latitude":20.6492,"longitude":78.48023},{"name":"Deoli","countryCode":"IN","stateCode":"RJ","latitude":25.75728,"longitude":75.37991},{"name":"Deoni","countryCode":"IN","stateCode":"MH","latitude":18.26388889,"longitude":77.08222222},{"name":"Deoranian","countryCode":"IN","stateCode":"UP","latitude":28.62989,"longitude":79.47648},{"name":"Deori","countryCode":"IN","stateCode":"CT","latitude":21.45,"longitude":82.61667},{"name":"Deori Khas","countryCode":"IN","stateCode":"MP","latitude":23.39017,"longitude":79.0163},{"name":"Deoria","countryCode":"IN","stateCode":"UP","latitude":26.66667,"longitude":83.75},{"name":"Depalpur","countryCode":"IN","stateCode":"MP","latitude":22.85095,"longitude":75.54224},{"name":"Dera Baba Nanak","countryCode":"IN","stateCode":"PB","latitude":32.03733,"longitude":75.02787},{"name":"Dera Bassi","countryCode":"IN","stateCode":"PB","latitude":30.5872,"longitude":76.8428},{"name":"Dera Gopipur","countryCode":"IN","stateCode":"HP","latitude":31.87919,"longitude":76.21871},{"name":"Derapur","countryCode":"IN","stateCode":"UP","latitude":26.41666667,"longitude":79.8},{"name":"Dergaon","countryCode":"IN","stateCode":"AS","latitude":26.7,"longitude":93.96667},{"name":"Deshnoke","countryCode":"IN","stateCode":"RJ","latitude":27.79836,"longitude":73.34297},{"name":"Desur","countryCode":"IN","stateCode":"TN","latitude":12.43727,"longitude":79.48145},{"name":"Detroj","countryCode":"IN","stateCode":"GJ","latitude":23.33333333,"longitude":72.18333333},{"name":"Deulgaon Raja","countryCode":"IN","stateCode":"MH","latitude":20.01757,"longitude":76.03755},{"name":"Devadanappatti","countryCode":"IN","stateCode":"TN","latitude":10.14673,"longitude":77.6439},{"name":"Devakottai","countryCode":"IN","stateCode":"TN","latitude":9.94704,"longitude":78.8233},{"name":"Devanhalli","countryCode":"IN","stateCode":"KA","latitude":13.24655,"longitude":77.71183},{"name":"Devaprayag","countryCode":"IN","stateCode":"UT","latitude":30.14603,"longitude":78.60272},{"name":"Devarkonda","countryCode":"IN","stateCode":"TG","latitude":16.69186,"longitude":78.92073},{"name":"Devbhumi Dwarka","countryCode":"IN","stateCode":"GJ","latitude":22.20253,"longitude":69.65498},{"name":"Devgadh Bariya","countryCode":"IN","stateCode":"GJ","latitude":22.70517,"longitude":73.90882},{"name":"Devgarh","countryCode":"IN","stateCode":"RJ","latitude":25.52533,"longitude":73.90812},{"name":"Devrukh","countryCode":"IN","stateCode":"MH","latitude":17.065,"longitude":73.61583333},{"name":"Dewa","countryCode":"IN","stateCode":"UP","latitude":27.03621,"longitude":81.16692},{"name":"Dewas","countryCode":"IN","stateCode":"MP","latitude":23,"longitude":76.16667},{"name":"Dhaka","countryCode":"IN","stateCode":"BR","latitude":26.67479,"longitude":85.16698},{"name":"Dhalai","countryCode":"IN","stateCode":"TR","latitude":23.84307,"longitude":91.92591},{"name":"Dhali","countryCode":"IN","stateCode":"TN","latitude":10.51049,"longitude":77.18806},{"name":"Dhamnod","countryCode":"IN","stateCode":"MP","latitude":22.20928,"longitude":75.47057},{"name":"Dhampur","countryCode":"IN","stateCode":"UP","latitude":29.30883,"longitude":78.51083},{"name":"Dhamtari","countryCode":"IN","stateCode":"CT","latitude":20.70718,"longitude":81.54874},{"name":"Dhana","countryCode":"IN","stateCode":"MP","latitude":23.74697,"longitude":78.86234},{"name":"Dhanaula","countryCode":"IN","stateCode":"PB","latitude":30.28216,"longitude":75.57341},{"name":"Dhanaura","countryCode":"IN","stateCode":"UP","latitude":28.95912,"longitude":78.25629},{"name":"Dhanbad","countryCode":"IN","stateCode":"JH","latitude":23.80199,"longitude":86.44324},{"name":"Dhandhuka","countryCode":"IN","stateCode":"GJ","latitude":22.38185,"longitude":71.98664},{"name":"Dhanera","countryCode":"IN","stateCode":"GJ","latitude":24.50967,"longitude":72.02343},{"name":"Dhanghata","countryCode":"IN","stateCode":"UP","latitude":26.55419444,"longitude":83.00806111},{"name":"Dhaniakhali community development block","countryCode":"IN","stateCode":"WB","latitude":22.97,"longitude":88.1},