[{"name":"‘Afak","countryCode":"IQ","stateCode":"QA","latitude":32.0643,"longitude":45.24743},{"name":"‘Alī al Gharbī","countryCode":"IQ","stateCode":"MA","latitude":32.46186,"longitude":46.68794},{"name":"‘Anah","countryCode":"IQ","stateCode":"AN","latitude":34.36857,"longitude":41.98194},{"name":"‘Anat al Qadīmah","countryCode":"IQ","stateCode":"AN","latitude":34.46934,"longitude":41.94223},{"name":"‘Aqrah","countryCode":"IQ","stateCode":"NI","latitude":36.76038,"longitude":43.89428},{"name":"Abu Ghraib District","countryCode":"IQ","stateCode":"BG","latitude":33.29194,"longitude":44.06919},{"name":"Abū Ghurayb","countryCode":"IQ","stateCode":"BG","latitude":33.30563,"longitude":44.18477},{"name":"Ad Dīwānīyah","countryCode":"IQ","stateCode":"QA","latitude":31.99289,"longitude":44.92552},{"name":"Ad Dujayl","countryCode":"IQ","stateCode":"SD","latitude":33.84667,"longitude":44.23444},{"name":"Al ‘Amādīyah","countryCode":"IQ","stateCode":"DA","latitude":37.09214,"longitude":43.48769},{"name":"Al ‘Amārah","countryCode":"IQ","stateCode":"MA","latitude":31.83561,"longitude":47.14483},{"name":"Al ‘Azīzīyah","countryCode":"IQ","stateCode":"WA","latitude":32.90941,"longitude":45.06359},{"name":"Al Başrah al Qadīmah","countryCode":"IQ","stateCode":"BA","latitude":30.50316,"longitude":47.81507},{"name":"Al Fallūjah","countryCode":"IQ","stateCode":"AN","latitude":33.34913,"longitude":43.78599},{"name":"Al Fāw","countryCode":"IQ","stateCode":"BA","latitude":29.97421,"longitude":48.47309},{"name":"Al Hārithah","countryCode":"IQ","stateCode":"BA","latitude":30.58481,"longitude":47.76114},{"name":"Al Ḩayy","countryCode":"IQ","stateCode":"WA","latitude":32.17419,"longitude":46.04345},{"name":"Al Ḩillah","countryCode":"IQ","stateCode":"BB","latitude":32.46367,"longitude":44.41963},{"name":"Al Hindīyah","countryCode":"IQ","stateCode":"KA","latitude":32.54671,"longitude":44.22765},{"name":"Al Kūt","countryCode":"IQ","stateCode":"WA","latitude":32.5128,"longitude":45.81817},{"name":"Al Mawşil al Jadīdah","countryCode":"IQ","stateCode":"NI","latitude":36.33271,"longitude":43.10555},{"name":"Al Miqdādīyah","countryCode":"IQ","stateCode":"DI","latitude":33.97861,"longitude":44.93694},{"name":"Al Mishkhāb","countryCode":"IQ","stateCode":"NA","latitude":31.80437,"longitude":44.4893},{"name":"Al Musayyib","countryCode":"IQ","stateCode":"BB","latitude":32.77872,"longitude":44.29005},{"name":"Al-Hamdaniya","countryCode":"IQ","stateCode":"NI","latitude":36.27093,"longitude":43.37758},{"name":"Al-Mejar Al-Kabi District","countryCode":"IQ","stateCode":"MA","latitude":31.4294,"longitude":47.20355},{"name":"Ar Rumaythah","countryCode":"IQ","stateCode":"MU","latitude":31.52845,"longitude":45.20377},{"name":"Ar Ruţbah","countryCode":"IQ","stateCode":"AN","latitude":33.03718,"longitude":40.28586},{"name":"Arbil","countryCode":"IQ","stateCode":"AR","latitude":36.1907,"longitude":44.00947},{"name":"As Samawah","countryCode":"IQ","stateCode":"MU","latitude":31.33198,"longitude":45.2944},{"name":"As Sulaymānīyah","countryCode":"IQ","stateCode":"SU","latitude":35.56496,"longitude":45.4329},{"name":"Aş Şuwayrah","countryCode":"IQ","stateCode":"WA","latitude":32.92556,"longitude":44.77583},{"name":"Ash Shāmīyah","countryCode":"IQ","stateCode":"QA","latitude":31.96257,"longitude":44.60075},{"name":"Ash Shaţrah","countryCode":"IQ","stateCode":"DQ","latitude":31.40906,"longitude":46.1727},{"name":"Ash Shaykhān","countryCode":"IQ","stateCode":"NI","latitude":36.69595,"longitude":43.35202},{"name":"Az Zubayr","countryCode":"IQ","stateCode":"BA","latitude":30.39213,"longitude":47.70175},{"name":"Baghdad","countryCode":"IQ","stateCode":"BG","latitude":33.34058,"longitude":44.40088},{"name":"Balad","countryCode":"IQ","stateCode":"SD","latitude":34.01485,"longitude":44.14574},{"name":"Baladrūz","countryCode":"IQ","stateCode":"DI","latitude":33.69631,"longitude":45.07782},{"name":"Baqubah","countryCode":"IQ","stateCode":"DI","latitude":33.75403,"longitude":44.60518},{"name":"Basrah","countryCode":"IQ","stateCode":"BA","latitude":30.50852,"longitude":47.7804},{"name":"Batifa","countryCode":"IQ","stateCode":"DA","latitude":37.17454,"longitude":43.01233},{"name":"Bayjī","countryCode":"IQ","stateCode":"SD","latitude":34.92915,"longitude":43.48878},{"name":"Baynjiwayn","countryCode":"IQ","stateCode":"SU","latitude":35.62054,"longitude":45.94908},{"name":"Dihok","countryCode":"IQ","stateCode":"DA","latitude":36.86709,"longitude":42.98845},{"name":"Erbil","countryCode":"IQ","stateCode":"AR","latitude":36.18333,"longitude":44.01193},{"name":"Ḩadīthah","countryCode":"IQ","stateCode":"AN","latitude":34.13661,"longitude":42.37727},{"name":"Ḩalabjah","countryCode":"IQ","stateCode":"SU","latitude":35.17778,"longitude":45.98611},{"name":"Hīt","countryCode":"IQ","stateCode":"AN","latitude":33.63664,"longitude":42.82768},{"name":"Hīt District","countryCode":"IQ","stateCode":"AN","latitude":33.73482,"longitude":42.68228},{"name":"Imam Qasim","countryCode":"IQ","stateCode":"BB","latitude":32.29799,"longitude":44.68282},{"name":"Jamjamāl","countryCode":"IQ","stateCode":"SU","latitude":35.53356,"longitude":44.8343},{"name":"Karbala","countryCode":"IQ","stateCode":"KA","latitude":32.61603,"longitude":44.02488},{"name":"Khāliş","countryCode":"IQ","stateCode":"DI","latitude":33.80809,"longitude":44.53343},{"name":"Kifrī","countryCode":"IQ","stateCode":"DI","latitude":34.68963,"longitude":44.96057},{"name":"Kirkuk","countryCode":"IQ","stateCode":"KI","latitude":35.46806,"longitude":44.39222},{"name":"Koysinceq","countryCode":"IQ","stateCode":"AR","latitude":36.08289,"longitude":44.62873},{"name":"Kufa","countryCode":"IQ","stateCode":"NA","latitude":32.05114,"longitude":44.44017},{"name":"Mandalī","countryCode":"IQ","stateCode":"DI","latitude":33.7481,"longitude":45.55503},{"name":"Mosul","countryCode":"IQ","stateCode":"NI","latitude":36.335,"longitude":43.11889},{"name":"Nāḩiyat al Fuhūd","countryCode":"IQ","stateCode":"DQ","latitude":30.96972,"longitude":46.72278},{"name":"Nāḩiyat ash Shināfīyah","countryCode":"IQ","stateCode":"QA","latitude":31.58376,"longitude":44.64675},{"name":"Nahiyat Ghammas","countryCode":"IQ","stateCode":"QA","latitude":31.74311,"longitude":44.6196},{"name":"Nāḩīyat Saddat al Hindīyah","countryCode":"IQ","stateCode":"BB","latitude":32.71557,"longitude":44.27857},{"name":"Najaf","countryCode":"IQ","stateCode":"NA","latitude":32.02594,"longitude":44.34625},{"name":"Nasiriyah","countryCode":"IQ","stateCode":"DQ","latitude":31.05799,"longitude":46.25726},{"name":"Qaḑā’ Kifrī","countryCode":"IQ","stateCode":"DI","latitude":34.52289,"longitude":44.85821},{"name":"Ramadi","countryCode":"IQ","stateCode":"AN","latitude":33.42056,"longitude":43.30778},{"name":"Rāwah","countryCode":"IQ","stateCode":"AN","latitude":34.48229,"longitude":41.91898},{"name":"Ruwāndiz","countryCode":"IQ","stateCode":"AR","latitude":36.61207,"longitude":44.52372},{"name":"Sāmarrā’","countryCode":"IQ","stateCode":"SD","latitude":34.1959,"longitude":43.88568},{"name":"Shaqlāwah","countryCode":"IQ","stateCode":"AR","latitude":36.40422,"longitude":44.32563},{"name":"Sīnah","countryCode":"IQ","stateCode":"DA","latitude":36.80851,"longitude":43.03935},{"name":"Sinjar","countryCode":"IQ","stateCode":"NI","latitude":36.29548,"longitude":41.89315},{"name":"Soran","countryCode":"IQ","stateCode":"AR","latitude":36.6532,"longitude":44.54407},{"name":"Tall ‘Afar","countryCode":"IQ","stateCode":"NI","latitude":36.37913,"longitude":42.44806},{"name":"Tallkayf","countryCode":"IQ","stateCode":"NI","latitude":36.49118,"longitude":43.12114},{"name":"Tikrīt","countryCode":"IQ","stateCode":"SD","latitude":34.61581,"longitude":43.67861},{"name":"Tozkhurmato","countryCode":"IQ","stateCode":"SD","latitude":34.88808,"longitude":44.63256},{"name":"Umm Qaşr","countryCode":"IQ","stateCode":"BA","latitude":30.0362,"longitude":47.91951},{"name":"Zaxo","countryCode":"IQ","stateCode":"DA","latitude":37.14871,"longitude":42.68591}]
