[{"name":"Abashiri","countryCode":"JP","stateCode":"01","latitude":44.02127,"longitude":144.26971},{"name":"Abashiri Shi","countryCode":"JP","stateCode":"01","latitude":43.98565,"longitude":144.21051},{"name":"Abiko","countryCode":"JP","stateCode":"12","latitude":35.86667,"longitude":140.01667},{"name":"Abiko-shi","countryCode":"JP","stateCode":"12","latitude":35.86947,"longitude":140.0651},{"name":"Achi","countryCode":"JP","stateCode":"39","latitude":35.44388889,"longitude":137.7475},{"name":"Adachi Ku","countryCode":"JP","stateCode":"13","latitude":35.7788,"longitude":139.79509},{"name":"Agano Shi","countryCode":"JP","stateCode":"15","latitude":37.8142,"longitude":139.25914},{"name":"Agatsuma-gun","countryCode":"JP","stateCode":"10","latitude":36.57368,"longitude":138.67243},{"name":"Agematsu","countryCode":"JP","stateCode":"39","latitude":35.78388889,"longitude":137.69416667},{"name":"Ageo Shi","countryCode":"JP","stateCode":"11","latitude":35.97043,"longitude":139.58159},{"name":"Ageoshimo","countryCode":"JP","stateCode":"11","latitude":35.97145,"longitude":139.61382},{"name":"Aioi","countryCode":"JP","stateCode":"28","latitude":34.80361,"longitude":134.46806},{"name":"Aioi Shi","countryCode":"JP","stateCode":"28","latitude":34.82719,"longitude":134.46699},{"name":"Aira Shi","countryCode":"JP","stateCode":"46","latitude":31.7846,"longitude":130.60668},{"name":"Aisai-shi","countryCode":"JP","stateCode":"23","latitude":35.17234,"longitude":136.69478},{"name":"Aizu-wakamatsu Shi","countryCode":"JP","stateCode":"07","latitude":37.45071,"longitude":139.96814},{"name":"Akabira","countryCode":"JP","stateCode":"01","latitude":43.55139,"longitude":142.05306},{"name":"Akabira-shi","countryCode":"JP","stateCode":"01","latitude":43.5679,"longitude":142.06281},{"name":"Akaiwa Shi","countryCode":"JP","stateCode":"33","latitude":34.83767,"longitude":134.01792},{"name":"Akashi","countryCode":"JP","stateCode":"28","latitude":34.65524,"longitude":135.00687},{"name":"Akashi Shi","countryCode":"JP","stateCode":"28","latitude":34.68277,"longitude":134.94029},{"name":"Aki","countryCode":"JP","stateCode":"39","latitude":33.5025,"longitude":133.90722222},{"name":"Aki-takata Shi","countryCode":"JP","stateCode":"34","latitude":34.70248,"longitude":132.6777},{"name":"Akiruno-shi","countryCode":"JP","stateCode":"13","latitude":35.73285,"longitude":139.22525},{"name":"Akishima-shi","countryCode":"JP","stateCode":"13","latitude":35.70782,"longitude":139.36418},{"name":"Akita","countryCode":"JP","stateCode":"05","latitude":39.71667,"longitude":140.11667},{"name":"Akita Shi","countryCode":"JP","stateCode":"05","latitude":39.71043,"longitude":140.23207},{"name":"Akune","countryCode":"JP","stateCode":"46","latitude":32.01667,"longitude":130.2},{"name":"Akune Shi","countryCode":"JP","stateCode":"46","latitude":32.02516,"longitude":130.19768},{"name":"Ama-gun","countryCode":"JP","stateCode":"23","latitude":35.17174,"longitude":136.82308},{"name":"Amagasaki Shi","countryCode":"JP","stateCode":"28","latitude":34.73544,"longitude":135.41181},{"name":"Amagi","countryCode":"JP","stateCode":"40","latitude":33.41804,"longitude":130.65413},{"name":"Amakusa Gun","countryCode":"JP","stateCode":"43","latitude":32.48513,"longitude":130.0724},{"name":"Amakusa Shi","countryCode":"JP","stateCode":"43","latitude":32.38515,"longitude":130.15014},{"name":"Amami","countryCode":"JP","stateCode":"46","latitude":28.3769,"longitude":129.49379},{"name":"Amami Shi","countryCode":"JP","stateCode":"46","latitude":28.34542,"longitude":129.50221},{"name":"Ami","countryCode":"JP","stateCode":"08","latitude":36.03333,"longitude":140.2},{"name":"Anan","countryCode":"JP","stateCode":"39","latitude":35.32361111,"longitude":137.81611111},{"name":"Anan Shi","countryCode":"JP","stateCode":"36","latitude":33.87716,"longitude":134.60644},{"name":"Anjō-shi","countryCode":"JP","stateCode":"23","latitude":34.94341,"longitude":137.07165},{"name":"Annaka","countryCode":"JP","stateCode":"10","latitude":36.33011,"longitude":138.89585},{"name":"Annaka Shi","countryCode":"JP","stateCode":"10","latitude":36.34079,"longitude":138.77647},{"name":"Aoki","countryCode":"JP","stateCode":"39","latitude":36.37,"longitude":138.12861111},{"name":"Aomori","countryCode":"JP","stateCode":"02","latitude":40.81667,"longitude":140.73333},{"name":"Aomori Shi","countryCode":"JP","stateCode":"02","latitude":40.77001,"longitude":140.75423},{"name":"Arai","countryCode":"JP","stateCode":"15","latitude":37.00059,"longitude":138.2259},{"name":"Arakawa Ku","countryCode":"JP","stateCode":"13","latitude":35.73993,"longitude":139.7813},{"name":"Arao Shi","countryCode":"JP","stateCode":"43","latitude":32.97619,"longitude":130.47562},{"name":"Arashiyama","countryCode":"JP","stateCode":"26","latitude":35.01481,"longitude":135.67755},{"name":"Arida Shi","countryCode":"JP","stateCode":"30","latitude":34.07937,"longitude":135.1423},{"name":"Asago-shi","countryCode":"JP","stateCode":"28","latitude":35.26249,"longitude":134.82527},{"name":"Asahi","countryCode":"JP","stateCode":"18","latitude":35.97259,"longitude":136.12455},{"name":"Asahi","countryCode":"JP","stateCode":"39","latitude":36.12361111,"longitude":137.86638889},{"name":"Asahi-shi","countryCode":"JP","stateCode":"12","latitude":35.73443,"longitude":140.65549},{"name":"Asahikawa","countryCode":"JP","stateCode":"01","latitude":43.77063,"longitude":142.36489},{"name":"Asaka","countryCode":"JP","stateCode":"11","latitude":35.80472,"longitude":139.60194},{"name":"Asaka-shi","countryCode":"JP","stateCode":"11","latitude":35.8,"longitude":139.6},{"name":"Asakuchi Shi","countryCode":"JP","stateCode":"33","latitude":34.53607,"longitude":133.59456},{"name":"Asakura Shi","countryCode":"JP","stateCode":"40","latitude":33.41684,"longitude":130.74167},{"name":"Ashibetsu","countryCode":"JP","stateCode":"01","latitude":43.50972,"longitude":142.18556},{"name":"Ashibetsu-shi","countryCode":"JP","stateCode":"01","latitude":43.42542,"longitude":142.20161},{"name":"Ashikaga","countryCode":"JP","stateCode":"09","latitude":36.33333,"longitude":139.45},{"name":"Ashiya","countryCode":"JP","stateCode":"28","latitude":34.72807,"longitude":135.30264},{"name":"Ashiya Shi","countryCode":"JP","stateCode":"28","latitude":34.74853,"longitude":135.29759},{"name":"Aso-shi","countryCode":"JP","stateCode":"43","latitude":32.95608,"longitude":131.09458},{"name":"Atami","countryCode":"JP","stateCode":"22","latitude":35.08834,"longitude":139.05325},{"name":"Atami-shi","countryCode":"JP","stateCode":"22","latitude":35.08957,"longitude":139.06357},{"name":"Atsugi","countryCode":"JP","stateCode":"14","latitude":35.44272,"longitude":139.36931},{"name":"Atsugi Shi","countryCode":"JP","stateCode":"14","latitude":35.46513,"longitude":139.32707},{"name":"Awa-shi","countryCode":"JP","stateCode":"36","latitude":34.1,"longitude":134.25},{"name":"Awaji Shi","countryCode":"JP","stateCode":"28","latitude":34.49749,"longitude":134.91331},{"name":"Awara-shi","countryCode":"JP","stateCode":"18","latitude":36.22777,"longitude":136.25154},{"name":"Ayabe","countryCode":"JP","stateCode":"26","latitude":35.3,"longitude":135.25},{"name":"Ayabe-shi","countryCode":"JP","stateCode":"26","latitude":35.35263,"longitude":135.34465},{"name":"Ayase Shi","countryCode":"JP","stateCode":"14","latitude":35.43995,"longitude":139.43089},{"name":"Azumino","countryCode":"JP","stateCode":"39","latitude":36.30388889,"longitude":137.90555556},{"name":"Azumino-Shi","countryCode":"JP","stateCode":"20","latitude":36.32716,"longitude":137.83988},{"name":"Bandō","countryCode":"JP","stateCode":"08","latitude":36.06997,"longitude":139.86705},{"name":"Bandō-shi","countryCode":"JP","stateCode":"08","latitude":36.06384,"longitude":139.88787},{"name":"Beppu","countryCode":"JP","stateCode":"44","latitude":33.27945,"longitude":131.49751},{"name":"Beppu Shi","countryCode":"JP","stateCode":"44","latitude":33.28573,"longitude":131.4528},{"name":"Bibai","countryCode":"JP","stateCode":"01","latitude":43.32472,"longitude":141.85861},{"name":"Bizen Shi","countryCode":"JP","stateCode":"33","latitude":34.79504,"longitude":134.2351},{"name":"Bungo-ōno Shi","countryCode":"JP","stateCode":"44","latitude":32.97249,"longitude":131.5121},{"name":"Bungo-Takada-shi","countryCode":"JP","stateCode":"44","latitude":33.5567,"longitude":131.44506},{"name":"Bunkyō-ku","countryCode":"JP","stateCode":"13","latitude":35.71745,"longitude":139.74729},{"name":"Buzen","countryCode":"JP","stateCode":"40","latitude":33.61153,"longitude":131.13002},{"name":"Buzen-shi","countryCode":"JP","stateCode":"40","latitude":33.56743,"longitude":131.08578},{"name":"Chatan","countryCode":"JP","stateCode":"47","latitude":26.30948,"longitude":127.77024},{"name":"Chiba","countryCode":"JP","stateCode":"12","latitude":35.6,"longitude":140.11667},{"name":"Chichibu","countryCode":"JP","stateCode":"11","latitude":35.99028,"longitude":139.07639},{"name":"Chichibu-shi","countryCode":"JP","stateCode":"11","latitude":35.95966,"longitude":138.93347},{"name":"Chigasaki","countryCode":"JP","stateCode":"14","latitude":35.33638,"longitude":139.40434},{"name":"Chigasaki Shi","countryCode":"JP","stateCode":"14","latitude":35.34429,"longitude":139.40958},{"name":"Chikugo Shi","countryCode":"JP","stateCode":"40","latitude":33.20748,"longitude":130.49122},{"name":"Chikuhoku","countryCode":"JP","stateCode":"39","latitude":36.4212,"longitude":138.04011},{"name":"Chikuma","countryCode":"JP","stateCode":"39","latitude":36.50624,"longitude":138.12352},{"name":"Chikuma Shi","countryCode":"JP","stateCode":"20","latitude":36.50624,"longitude":138.12352},{"name":"Chikusei","countryCode":"JP","stateCode":"08","latitude":36.316,"longitude":139.98238},{"name":"Chikusei-shi","countryCode":"JP","stateCode":"08","latitude":36.28938,"longitude":139.98692},{"name":"Chikushino-shi","countryCode":"JP","stateCode":"40","latitude":33.49631,"longitude":130.5156},{"name":"Chino","countryCode":"JP","stateCode":"20","latitude":35.9944,"longitude":138.15428},{"name":"Chino","countryCode":"JP","stateCode":"39","latitude":35.99555556,"longitude":138.15888889},{"name":"Chino Shi","countryCode":"JP","stateCode":"20","latitude":36.02522,"longitude":138.24668},{"name":"Chiryū","countryCode":"JP","stateCode":"23","latitude":35,"longitude":137.03333},{"name":"Chiryū-shi","countryCode":"JP","stateCode":"23","latitude":34.99862,"longitude":137.05},{"name":"Chita","countryCode":"JP","stateCode":"23","latitude":35.00267,"longitude":136.8642},{"name":"Chita-shi","countryCode":"JP","stateCode":"23","latitude":34.97048,"longitude":136.8649},{"name":"Chitose","countryCode":"JP","stateCode":"01","latitude":42.81944,"longitude":141.65222},{"name":"Chitose Shi","countryCode":"JP","stateCode":"01","latitude":42.80048,"longitude":141.50951},{"name":"Chiyoda-ku","countryCode":"JP","stateCode":"13","latitude":35.69402,"longitude":139.75363},{"name":"Chōfu","countryCode":"JP","stateCode":"13","latitude":35.65924,"longitude":139.54837},{"name":"Chōfu-shi","countryCode":"JP","stateCode":"13","latitude":35.65,"longitude":139.55},{"name":"Chōshi-shi","countryCode":"JP","stateCode":"12","latitude":35.74303,"longitude":140.77552},{"name":"Chūō Ku","countryCode":"JP","stateCode":"13","latitude":35.66993,"longitude":139.77705},{"name":"Chūō-shi","countryCode":"JP","stateCode":"19","latitude":35.58418,"longitude":138.5411},{"name":"Daigo","countryCode":"JP","stateCode":"08","latitude":36.76667,"longitude":140.35},{"name":"Daisen","countryCode":"JP","stateCode":"05","latitude":39.44116,"longitude":140.48961},{"name":"Daisen-shi","countryCode":"JP","stateCode":"05","latitude":39.5371,"longitude":140.44139},{"name":"Daitō Shi","countryCode":"JP","stateCode":"27","latitude":34.71284,"longitude":135.63576},{"name":"Daitōchō","countryCode":"JP","stateCode":"27","latitude":34.71378,"longitude":135.62033},{"name":"Date","countryCode":"JP","stateCode":"01","latitude":42.46806,"longitude":140.86806},{"name":"Date-shi","countryCode":"JP","stateCode":"01","latitude":42.49337,"longitude":140.89142},{"name":"Date-shi","countryCode":"JP","stateCode":"07","latitude":37.81667,"longitude":140.51667},{"name":"Dazaifu-shi","countryCode":"JP","stateCode":"40","latitude":33.5,"longitude":130.53333},{"name":"Ebetsu","countryCode":"JP","stateCode":"01","latitude":43.10806,"longitude":141.55056},{"name":"Ebina Shi","countryCode":"JP","stateCode":"14","latitude":35.43762,"longitude":139.39307},{"name":"Ebino-shi","countryCode":"JP","stateCode":"45","latitude":32.01667,"longitude":130.8},{"name":"Echizen-shi","countryCode":"JP","stateCode":"18","latitude":35.88946,"longitude":136.17723},{"name":"Edogawa Ku","countryCode":"JP","stateCode":"13","latitude":35.69242,"longitude":139.87567},{"name":"Edosaki","countryCode":"JP","stateCode":"08","latitude":35.95,"longitude":140.31667},{"name":"Ena-shi","countryCode":"JP","stateCode":"21","latitude":35.44722,"longitude":137.4181},{"name":"Eniwa-shi","countryCode":"JP","stateCode":"01","latitude":42.88333,"longitude":141.56667},{"name":"Enzan","countryCode":"JP","stateCode":"19","latitude":35.7,"longitude":138.73333},{"name":"Etajima-shi","countryCode":"JP","stateCode":"34","latitude":34.21989,"longitude":132.44345},{"name":"Fuchū-shi","countryCode":"JP","stateCode":"13","latitude":35.66667,"longitude":139.5},{"name":"Fuchū-shi","countryCode":"JP","stateCode":"34","latitude":34.56667,"longitude":133.23333},{"name":"Fuchūchō","countryCode":"JP","stateCode":"34","latitude":34.5735,"longitude":133.23513},{"name":"Fuefuki-shi","countryCode":"JP","stateCode":"19","latitude":35.59955,"longitude":138.68067},{"name":"Fuji Shi","countryCode":"JP","stateCode":"22","latitude":35.20106,"longitude":138.69905},{"name":"Fuji-yoshida Shi","countryCode":"JP","stateCode":"19","latitude":35.43915,"longitude":138.79368},{"name":"Fujieda Shi","countryCode":"JP","stateCode":"22","latitude":34.91956,"longitude":138.23379},{"name":"Fujiidera-shi","countryCode":"JP","stateCode":"27","latitude":34.57422,"longitude":135.5973},{"name":"Fujikawaguchiko","countryCode":"JP","stateCode":"19","latitude":35.48933,"longitude":138.68832},{"name":"Fujimi","countryCode":"JP","stateCode":"39","latitude":35.91472222,"longitude":138.24083333},{"name":"Fujimi-shi","countryCode":"JP","stateCode":"11","latitude":35.85393,"longitude":139.55478},{"name":"Fujimino Shi","countryCode":"JP","stateCode":"11","latitude":35.86505,"longitude":139.51524},{"name":"Fujinomiya","countryCode":"JP","stateCode":"22","latitude":35.21667,"longitude":138.61667},{"name":"Fujinomiya Shi","countryCode":"JP","stateCode":"22","latitude":35.31753,"longitude":138.62375},{"name":"Fujioka","countryCode":"JP","stateCode":"09","latitude":36.25,"longitude":139.65},{"name":"Fujioka","countryCode":"JP","stateCode":"10","latitude":36.24624,"longitude":139.07204},{"name":"Fujioka Shi","countryCode":"JP","stateCode":"10","latitude":36.19213,"longitude":138.99918},{"name":"Fujisawa","countryCode":"JP","stateCode":"14","latitude":35.34926,"longitude":139.47666},{"name":"Fujisawa Shi","countryCode":"JP","stateCode":"14","latitude":35.36814,"longitude":139.45899},{"name":"Fujishiro","countryCode":"JP","stateCode":"08","latitude":35.91667,"longitude":140.11667},{"name":"Fujiyoshida","countryCode":"JP","stateCode":"19","latitude":35.44032,"longitude":138.79586},{"name":"Fukagawa","countryCode":"JP","stateCode":"01","latitude":43.70806,"longitude":142.03917},{"name":"Fukagawa-shi","countryCode":"JP","stateCode":"01","latitude":43.79334,"longitude":142.09923},{"name":"Fukaya-shi","countryCode":"JP","stateCode":"11","latitude":36.2,"longitude":139.28333},{"name":"Fukayachō","countryCode":"JP","stateCode":"11","latitude":36.2,"longitude":139.28333},{"name":"Fukiage-fujimi","countryCode":"JP","stateCode":"11","latitude":36.1,"longitude":139.45},{"name":"Fukuchiyama-shi","countryCode":"JP","stateCode":"26","latitude":35.32404,"longitude":135.11332},{"name":"Fukuechō","countryCode":"JP","stateCode":"42","latitude":32.69732,"longitude":128.84561},{"name":"Fukui-shi","countryCode":"JP","stateCode":"18","latitude":36.06667,"longitude":136.21667},{"name":"Fukumitsu","countryCode":"JP","stateCode":"16","latitude":36.55751,"longitude":136.86945},{"name":"Fukuoka","countryCode":"JP","stateCode":"40","latitude":33.6,"longitude":130.41667},{"name":"Fukuoka-shi","countryCode":"JP","stateCode":"40","latitude":33.56894,"longitude":130.35764},{"name":"Fukura","countryCode":"JP","stateCode":"28","latitude":34.25765,"longitude":134.71535},{"name":"Fukuroi","countryCode":"JP","stateCode":"22","latitude":34.75,"longitude":137.91667},{"name":"Fukuroi-shi","countryCode":"JP","stateCode":"22","latitude":34.74175,"longitude":137.92805},{"name":"Fukushima","countryCode":"JP","stateCode":"07","latitude":37.75,"longitude":140.46667},{"name":"Fukushima Shi","countryCode":"JP","stateCode":"07","latitude":37.78643,"longitude":140.38849},{"name":"Fukutsu Shi","countryCode":"JP","stateCode":"40","latitude":33.77982,"longitude":130.49804},{"name":"Fukuyama","countryCode":"JP","stateCode":"34","latitude":34.48333,"longitude":133.36667},{"name":"Fukuyama Shi","countryCode":"JP","stateCode":"34","latitude":34.52342,"longitude":133.33779},{"name":"Funabashi-shi","countryCode":"JP","stateCode":"12","latitude":35.69455,"longitude":139.98255},{"name":"Funaishikawa","countryCode":"JP","stateCode":"08","latitude":36.46667,"longitude":140.56667},{"name":"Funehikimachi-funehiki","countryCode":"JP","stateCode":"07","latitude":37.44722,"longitude":140.5771},{"name":"Furano-shi","countryCode":"JP","stateCode":"01","latitude":43.28182,"longitude":142.47349},{"name":"Furukawa","countryCode":"JP","stateCode":"04","latitude":38.57167,"longitude":140.95556},{"name":"Fussa","countryCode":"JP","stateCode":"13","latitude":35.73667,"longitude":139.32361},{"name":"Futtsu","countryCode":"JP","stateCode":"12","latitude":35.3108,"longitude":139.81877},{"name":"Gamagōri","countryCode":"JP","stateCode":"23","latitude":34.83333,"longitude":137.23333},{"name":"Gamagōri-shi","countryCode":"JP","stateCode":"23","latitude":34.82759,"longitude":137.22752},{"name":"Geisei","countryCode":"JP","stateCode":"39","latitude":33.52694444,"longitude":133.80916667},{"name":"Gero","countryCode":"JP","stateCode":"21","latitude":35.8,"longitude":137.23333},{"name":"Gero-shi","countryCode":"JP","stateCode":"21","latitude":35.75,"longitude":137.25},{"name":"Gifu-shi","countryCode":"JP","stateCode":"21","latitude":35.44826,"longitude":136.7647},{"name":"Ginowan Shi","countryCode":"JP","stateCode":"47","latitude":26.2762,"longitude":127.75742},{"name":"Gobō","countryCode":"JP","stateCode":"30","latitude":33.88153,"longitude":135.1696},{"name":"Gōdo","countryCode":"JP","stateCode":"21","latitude":35.41667,"longitude":136.6},{"name":"Gojō","countryCode":"JP","stateCode":"29","latitude":34.35,"longitude":135.7},{"name":"Gojō-shi","countryCode":"JP","stateCode":"29","latitude":34.35081,"longitude":135.69489},{"name":"Gose","countryCode":"JP","stateCode":"29","latitude":34.45,"longitude":135.73333},{"name":"Gosen","countryCode":"JP","stateCode":"15","latitude":37.73333,"longitude":139.16667},{"name":"Gosen Shi","countryCode":"JP","stateCode":"15","latitude":37.65643,"longitude":139.22634},{"name":"Goshogawara","countryCode":"JP","stateCode":"02","latitude":40.80444,"longitude":140.44139},{"name":"Goshogawara Shi","countryCode":"JP","stateCode":"02","latitude":40.91657,"longitude":140.46998},{"name":"Gotenba Shi","countryCode":"JP","stateCode":"22","latitude":35.29893,"longitude":138.87902},{"name":"Gotō Shi","countryCode":"JP","stateCode":"42","latitude":32.69892,"longitude":128.76871},{"name":"Gōtsu Shi","countryCode":"JP","stateCode":"32","latitude":34.98095,"longitude":132.29488},{"name":"Gōtsuchō","countryCode":"JP","stateCode":"32","latitude":35.00856,"longitude":132.2257},{"name":"Gujō","countryCode":"JP","stateCode":"21","latitude":35.73691,"longitude":136.95852},{"name":"Gujō-shi","countryCode":"JP","stateCode":"21","latitude":35.83298,"longitude":136.94561},{"name":"Gushikawa","countryCode":"JP","stateCode":"47","latitude":26.35937,"longitude":127.86735},{"name":"Gyōda","countryCode":"JP","stateCode":"11","latitude":36.14074,"longitude":139.46011},{"name":"Habikino-shi","countryCode":"JP","stateCode":"27","latitude":34.55775,"longitude":135.60631},{"name":"Hachimantai","countryCode":"JP","stateCode":"03","latitude":39.89979,"longitude":141.12989},{"name":"Hachimantai Shi","countryCode":"JP","stateCode":"03","latitude":40.0239,"longitude":140.99113},{"name":"Hachinohe","countryCode":"JP","stateCode":"02","latitude":40.5,"longitude":141.5},{"name":"Hachinohe Shi","countryCode":"JP","stateCode":"02","latitude":40.47389,"longitude":141.48125},{"name":"Hachiōji","countryCode":"JP","stateCode":"13","latitude":35.65583,"longitude":139.32389},{"name":"Hadano","countryCode":"JP","stateCode":"14","latitude":35.37111,"longitude":139.22361},{"name":"Hadano-shi","countryCode":"JP","stateCode":"14","latitude":35.4,"longitude":139.2},{"name":"Hagi","countryCode":"JP","stateCode":"35","latitude":34.4,"longitude":131.41667},{"name":"Hagi Shi","countryCode":"JP","stateCode":"35","latitude":34.43206,"longitude":131.50623},{"name":"Haibara-akanedai","countryCode":"JP","stateCode":"29","latitude":34.53333,"longitude":135.95},{"name":"Hakodate","countryCode":"JP","stateCode":"01","latitude":41.77583,"longitude":140.73667},{"name":"Hakodate Shi","countryCode":"JP","stateCode":"01","latitude":41.83754,"longitude":140.92597},{"name":"Hakone","countryCode":"JP","stateCode":"14","latitude":35.18945,"longitude":139.02649},{"name":"Hakuba","countryCode":"JP","stateCode":"20","latitude":36.69818,"longitude":137.86185},{"name":"Hakuba","countryCode":"JP","stateCode":"39","latitude":36.7,"longitude":137.86666667},{"name":"Hakui","countryCode":"JP","stateCode":"17","latitude":36.88333,"longitude":136.78333},{"name":"Hakui Shi","countryCode":"JP","stateCode":"17","latitude":36.91136,"longitude":136.81626},{"name":"Hakusan Shi","countryCode":"JP","stateCode":"17","latitude":36.27558,"longitude":136.66966},{"name":"Hamada","countryCode":"JP","stateCode":"32","latitude":34.88333,"longitude":132.08333},{"name":"Hamada Shi","countryCode":"JP","stateCode":"32","latitude":34.82809,"longitude":132.13914},{"name":"Hamakita","countryCode":"JP","stateCode":"22","latitude":34.8,"longitude":137.78333},{"name":"Hamamatsu","countryCode":"JP","stateCode":"22","latitude":34.7,"longitude":137.73333},{"name":"Hamamatsu-shi","countryCode":"JP","stateCode":"22","latitude":34.95375,"longitude":137.80733},{"name":"Hamanoichi","countryCode":"JP","stateCode":"46","latitude":31.71667,"longitude":130.73333},{"name":"Hamura-shi","countryCode":"JP","stateCode":"13","latitude":35.76351,"longitude":139.31411},{"name":"Hanamaki","countryCode":"JP","stateCode":"03","latitude":39.38333,"longitude":141.11667},{"name":"Hanamaki Shi","countryCode":"JP","stateCode":"03","latitude":39.44187,"longitude":141.16751},{"name":"Hanawa","countryCode":"JP","stateCode":"05","latitude":40.18361,"longitude":140.78722},{"name":"Handa","countryCode":"JP","stateCode":"23","latitude":34.88333,"longitude":136.93333},{"name":"Handa-shi","countryCode":"JP","stateCode":"23","latitude":34.89903,"longitude":136.9266},{"name":"Hannan","countryCode":"JP","stateCode":"27","latitude":34.33333,"longitude":135.25},{"name":"Hannan Shi","countryCode":"JP","stateCode":"27","latitude":34.33115,"longitude":135.23521},{"name":"Hannō","countryCode":"JP","stateCode":"11","latitude":35.85194,"longitude":139.31806},{"name":"Hannō-shi","countryCode":"JP","stateCode":"11","latitude":35.85567,"longitude":139.32777},{"name":"Hanyū","countryCode":"JP","stateCode":"11","latitude":36.16667,"longitude":139.53333},{"name":"Hanyū-shi","countryCode":"JP","stateCode":"11","latitude":36.17251,"longitude":139.55338},{"name":"Hara","countryCode":"JP","stateCode":"39","latitude":35.96444444,"longitude":138.2175},{"name":"Hasaki","countryCode":"JP","stateCode":"12","latitude":35.73333,"longitude":140.83333},{"name":"Hashima","countryCode":"JP","stateCode":"21","latitude":35.329,"longitude":136.68051},{"name":"Hashima-shi","countryCode":"JP","stateCode":"21","latitude":35.3074,"longitude":136.70161},{"name":"Hashimoto","countryCode":"JP","stateCode":"30","latitude":34.31667,"longitude":135.61667},{"name":"Hashimoto Shi","countryCode":"JP","stateCode":"30","latitude":34.32417,"longitude":135.61045},{"name":"Hasuda","countryCode":"JP","stateCode":"11","latitude":35.97113,"longitude":139.6491},{"name":"Hasuda-shi","countryCode":"JP","stateCode":"11","latitude":36.00147,"longitude":139.64981},{"name":"Hatogaya-honchō","countryCode":"JP","stateCode":"11","latitude":35.83314,"longitude":139.7425},{"name":"Hatsukaichi","countryCode":"JP","stateCode":"34","latitude":34.35,"longitude":132.33333},{"name":"Hatsukaichi-shi","countryCode":"JP","stateCode":"34","latitude":34.35,"longitude":132.3},{"name":"Hayama","countryCode":"JP","stateCode":"14","latitude":35.27651,"longitude":139.57733},{"name":"Heda","countryCode":"JP","stateCode":"22","latitude":34.96277,"longitude":138.78543},{"name":"Hekinan","countryCode":"JP","stateCode":"23","latitude":34.88333,"longitude":136.98333},{"name":"Hekinan-shi","countryCode":"JP","stateCode":"23","latitude":34.87955,"longitude":136.99155},{"name":"Hida","countryCode":"JP","stateCode":"21","latitude":36.24483,"longitude":137.17323},{"name":"Hida Shi","countryCode":"JP","stateCode":"21","latitude":36.33272,"longitude":137.20568},{"name":"Hidaka","countryCode":"JP","stateCode":"39","latitude":33.53472222,"longitude":133.37333333},{"name":"Hidaka-shi","countryCode":"JP","stateCode":"11","latitude":35.90859,"longitude":139.34346},{"name":"Higashi-murayama-shi","countryCode":"JP","stateCode":"13","latitude":35.75529,"longitude":139.46972},{"name":"Higashihiroshima Shi","countryCode":"JP","stateCode":"34","latitude":34.44755,"longitude":132.76116},{"name":"Higashikagawa Shi","countryCode":"JP","stateCode":"37","latitude":34.21158,"longitude":134.3335},{"name":"Higashikurume-shi","countryCode":"JP","stateCode":"13","latitude":35.75821,"longitude":139.52954},{"name":"Higashimatshushima Shi","countryCode":"JP","stateCode":"04","latitude":38.41089,"longitude":141.17717},{"name":"Higashimatsushima","countryCode":"JP","stateCode":"04","latitude":38.40886,"longitude":141.17901},{"name":"Higashimatsuyama Shi","countryCode":"JP","stateCode":"11","latitude":36.03183,"longitude":139.39138},{"name":"Higashimurayama","countryCode":"JP","stateCode":"13","latitude":35.75459,"longitude":139.46852},{"name":"Higashine","countryCode":"JP","stateCode":"06","latitude":38.43889,"longitude":140.40056},{"name":"Higashine Shi","countryCode":"JP","stateCode":"06","latitude":38.42559,"longitude":140.4667},{"name":"Higashiōmi-shi","countryCode":"JP","stateCode":"25","latitude":35.1089,"longitude":136.1792},{"name":"Higashiōsaka Shi","countryCode":"JP","stateCode":"27","latitude":34.67112,"longitude":135.6176},{"name":"Higashiyamato","countryCode":"JP","stateCode":"13","latitude":35.76298,"longitude":139.44575},{"name":"Higashiyamato-shi","countryCode":"JP","stateCode":"13","latitude":35.75031,"longitude":139.4266},{"name":"Hiji","countryCode":"JP","stateCode":"44","latitude":33.37081,"longitude":131.53025},{"name":"Hikari","countryCode":"JP","stateCode":"35","latitude":33.955,"longitude":131.95},{"name":"Hikari Shi","countryCode":"JP","stateCode":"35","latitude":33.98247,"longitude":131.97485},{"name":"Hiki-gun","countryCode":"JP","stateCode":"11","latitude":36.02757,"longitude":139.33415},{"name":"Hikone","countryCode":"JP","stateCode":"25","latitude":35.25,"longitude":136.25},{"name":"Hikone-shi","countryCode":"JP","stateCode":"25","latitude":35.23036,"longitude":136.2076},{"name":"Himeji","countryCode":"JP","stateCode":"28","latitude":34.81667,"longitude":134.7},{"name":"Himeji Shi","countryCode":"JP","stateCode":"28","latitude":34.90134,"longitude":134.66316},{"name":"Himi Shi","countryCode":"JP","stateCode":"16","latitude":36.87218,"longitude":136.94066},{"name":"Himimachi","countryCode":"JP","stateCode":"16","latitude":36.85609,"longitude":136.9885},{"name":"Hino","countryCode":"JP","stateCode":"13","latitude":35.67306,"longitude":139.40028},{"name":"Hino","countryCode":"JP","stateCode":"25","latitude":35,"longitude":136.25},{"name":"Hino-shi","countryCode":"JP","stateCode":"13","latitude":35.66333,"longitude":139.39865},{"name":"Hioki","countryCode":"JP","stateCode":"46","latitude":31.58333,"longitude":130.35},{"name":"Hioki Shi","countryCode":"JP","stateCode":"46","latitude":31.59929,"longitude":130.38208},{"name":"Hirado","countryCode":"JP","stateCode":"42","latitude":33.36853,"longitude":129.55247},{"name":"Hirado Shi","countryCode":"JP","stateCode":"42","latitude":33.31596,"longitude":129.48688},{"name":"Hirakata","countryCode":"JP","stateCode":"27","latitude":34.81352,"longitude":135.64914},{"name":"Hirakata Shi","countryCode":"JP","stateCode":"27","latitude":34.81762,"longitude":135.68171},{"name":"Hirakawa","countryCode":"JP","stateCode":"02","latitude":40.58728,"longitude":140.57107},{"name":"Hirakawa Shi","countryCode":"JP","stateCode":"02","latitude":40.51832,"longitude":140.70048},{"name":"Hirara","countryCode":"JP","stateCode":"47","latitude":24.80379,"longitude":125.30222},{"name":"Hiratachō","countryCode":"JP","stateCode":"32","latitude":35.43333,"longitude":132.81667},{"name":"Hiratsuka","countryCode":"JP","stateCode":"14","latitude":35.32785,"longitude":139.33735},{"name":"Hiratsuka Shi","countryCode":"JP","stateCode":"14","latitude":35.35099,"longitude":139.32013},{"name":"Hiraya","countryCode":"JP","stateCode":"39","latitude":35.32333333,"longitude":137.63027778},{"name":"Hirosaki","countryCode":"JP","stateCode":"02","latitude":40.59306,"longitude":140.4725},{"name":"Hirosaki Shi","countryCode":"JP","stateCode":"02","latitude":40.60512,"longitude":140.3846},{"name":"Hiroshima","countryCode":"JP","stateCode":"34","latitude":34.4,"longitude":132.45},{"name":"Hiroshima-shi","countryCode":"JP","stateCode":"34","latitude":34.47942,"longitude":132.45312},{"name":"Hisai-motomachi","countryCode":"JP","stateCode":"24","latitude":34.66667,"longitude":136.46667},{"name":"Hita","countryCode":"JP","stateCode":"44","latitude":33.3213,"longitude":130.94098},{"name":"Hita Shi","countryCode":"JP","stateCode":"44","latitude":33.24452,"longitude":130.95063},{"name":"Hitachi","countryCode":"JP","stateCode":"08","latitude":36.6,"longitude":140.65},{"name":"Hitachi-Naka","countryCode":"JP","stateCode":"08","latitude":36.39659,"longitude":140.53479},{"name":"Hitachi-ota","countryCode":"JP","stateCode":"08","latitude":36.5513,"longitude":140.52821},{"name":"Hitachi-shi","countryCode":"JP","stateCode":"08","latitude":36.62492,"longitude":140.61876},{"name":"Hitachinaka-shi","countryCode":"JP","stateCode":"08","latitude":36.39596,"longitude":140.55789},{"name":"Hitachiōmiya-shi","countryCode":"JP","stateCode":"08","latitude":36.61371,"longitude":140.3399},{"name":"Hitachiōta-shi","countryCode":"JP","stateCode":"08","latitude":36.64836,"longitude":140.50536},{"name":"Hitoyoshi","countryCode":"JP","stateCode":"43","latitude":32.21667,"longitude":130.75},{"name":"Hitoyoshi Shi","countryCode":"JP","stateCode":"43","latitude":32.17298,"longitude":130.74013},{"name":"Hobaramachi","countryCode":"JP","stateCode":"07","latitude":37.81667,"longitude":140.55},{"name":"Hōfu","countryCode":"JP","stateCode":"35","latitude":34.05,"longitude":131.56667},{"name":"Hofu Shi","countryCode":"JP","stateCode":"35","latitude":34.07287,"longitude":131.56808},{"name":"Hōjō","countryCode":"JP","stateCode":"38","latitude":33.97661,"longitude":132.77767},{"name":"Hokota-shi","countryCode":"JP","stateCode":"08","latitude":36.17337,"longitude":140.51993},{"name":"Hokuto","countryCode":"JP","stateCode":"01","latitude":41.81626,"longitude":140.63472},{"name":"Hokuto","countryCode":"JP","stateCode":"19","latitude":35.83458,"longitude":138.39606},{"name":"Hokuto-shi","countryCode":"JP","stateCode":"01","latitude":41.86411,"longitude":140.55424},{"name":"Hokuto-shi","countryCode":"JP","stateCode":"19","latitude":35.83717,"longitude":138.39375},{"name":"Honchō","countryCode":"JP","stateCode":"01","latitude":41.8944,"longitude":140.69386},{"name":"Honchō","countryCode":"JP","stateCode":"12","latitude":35.70129,"longitude":139.98648},{"name":"Hondomachi-hondo","countryCode":"JP","stateCode":"43","latitude":32.45993,"longitude":130.16713},{"name":"Honjō","countryCode":"JP","stateCode":"11","latitude":36.2378,"longitude":139.19023},{"name":"Honjō Shi","countryCode":"JP","stateCode":"11","latitude":36.19925,"longitude":139.14627},{"name":"Honmachi","countryCode":"JP","stateCode":"43","latitude":32.50439,"longitude":130.59952},{"name":"Hōryūji","countryCode":"JP","stateCode":"29","latitude":34.61234,"longitude":135.73754},{"name":"Hotaka","countryCode":"JP","stateCode":"20","latitude":36.3396,"longitude":137.88254},{"name":"Hyūga-shi","countryCode":"JP","stateCode":"45","latitude":32.3771,"longitude":131.52275},{"name":"Ibara","countryCode":"JP","stateCode":"33","latitude":34.6,"longitude":133.46667},{"name":"Ibara Shi","countryCode":"JP","stateCode":"33","latitude":34.65033,"longitude":133.47371},{"name":"Ibaraki","countryCode":"JP","stateCode":"27","latitude":34.81641,"longitude":135.56828},{"name":"Ibaraki Shi","countryCode":"JP","stateCode":"27","latitude":34.85588,"longitude":135.54998},{"name":"Ibusuki","countryCode":"JP","stateCode":"46","latitude":31.23333,"longitude":130.65},{"name":"Ibusuki Shi","countryCode":"JP","stateCode":"46","latitude":31.22962,"longitude":130.5806},{"name":"Ichihara","countryCode":"JP","stateCode":"12","latitude":35.51667,"longitude":140.08333},{"name":"Ichihara Shi","countryCode":"JP","stateCode":"12","latitude":35.42484,"longitude":140.13725},{"name":"Ichikawa Shi","countryCode":"JP","stateCode":"12","latitude":35.71865,"longitude":139.93294},{"name":"Ichikikushikino Shi","countryCode":"JP","stateCode":"46","latitude":31.73281,"longitude":130.28893},{"name":"Ichinohe","countryCode":"JP","stateCode":"03","latitude":40.21965,"longitude":141.28986},{"name":"Ichinomiya","countryCode":"JP","stateCode":"23","latitude":35.3,"longitude":136.8},{"name":"Ichinomiya-shi","countryCode":"JP","stateCode":"23","latitude":35.31037,"longitude":136.79237},{"name":"Ichinoseki","countryCode":"JP","stateCode":"03","latitude":38.91667,"longitude":141.13333},{"name":"Ichinoseki-shi","countryCode":"JP","stateCode":"03","latitude":38.91667,"longitude":141.13333},{"name":"Iga-shi","countryCode":"JP","stateCode":"24","latitude":34.76855,"longitude":136.13013},{"name":"Iida","countryCode":"JP","stateCode":"20","latitude":35.51965,"longitude":137.82074},{"name":"Iida","countryCode":"JP","stateCode":"39","latitude":35.51472222,"longitude":137.82194444},{"name":"Iida-shi","countryCode":"JP","stateCode":"20","latitude":35.42287,"longitude":137.89381},{"name":"Iijima","countryCode":"JP","stateCode":"39","latitude":35.67638889,"longitude":137.91944444},{"name":"Iiyama","countryCode":"JP","stateCode":"20","latitude":36.85,"longitude":138.36667},{"name":"Iiyama","countryCode":"JP","stateCode":"39","latitude":36.85166667,"longitude":138.36555556},{"name":"Iiyama Shi","countryCode":"JP","stateCode":"20","latitude":36.91249,"longitude":138.38345},{"name":"Iizuka","countryCode":"JP","stateCode":"40","latitude":33.63654,"longitude":130.68678},{"name":"Iizuka Shi","countryCode":"JP","stateCode":"40","latitude":33.61353,"longitude":130.66098},{"name":"Iizuna","countryCode":"JP","stateCode":"39","latitude":36.755,"longitude":138.23555556},{"name":"Ijūin","countryCode":"JP","stateCode":"46","latitude":31.61667,"longitude":130.4},{"name":"Ikeda","countryCode":"JP","stateCode":"27","latitude":34.82208,"longitude":135.4298},{"name":"Ikeda","countryCode":"JP","stateCode":"39","latitude":36.42138889,"longitude":137.87472222},{"name":"Ikeda Shi","countryCode":"JP","stateCode":"27","latitude":34.83443,"longitude":135.43825},{"name":"Ikedachō","countryCode":"JP","stateCode":"36","latitude":34.02849,"longitude":133.80616},{"name":"Iki Shi","countryCode":"JP","stateCode":"42","latitude":33.78554,"longitude":129.7167},{"name":"Ikoma","countryCode":"JP","stateCode":"29","latitude":34.68333,"longitude":135.7},{"name":"Ikoma-shi","countryCode":"JP","stateCode":"29","latitude":34.69187,"longitude":135.70057},{"name":"Ikusaka","countryCode":"JP","stateCode":"39","latitude":36.42527778,"longitude":137.9275},{"name":"Imabari-shi","countryCode":"JP","stateCode":"38","latitude":34.06667,"longitude":132.99791},{"name":"Imaichi","countryCode":"JP","stateCode":"09","latitude":36.71667,"longitude":139.68333},{"name":"Imari Shi","countryCode":"JP","stateCode":"41","latitude":33.30409,"longitude":129.88598},{"name":"Imarichō-kō","countryCode":"JP","stateCode":"41","latitude":33.27362,"longitude":129.87877},{"name":"Imizu Shi","countryCode":"JP","stateCode":"16","latitude":36.72939,"longitude":137.08784},{"name":"Ina","countryCode":"JP","stateCode":"20","latitude":35.82756,"longitude":137.95378},{"name":"Ina","countryCode":"JP","stateCode":"39","latitude":35.8275,"longitude":137.95388889},{"name":"Ina-shi","countryCode":"JP","stateCode":"20","latitude":35.79079,"longitude":138.07402},{"name":"Inabe","countryCode":"JP","stateCode":"24","latitude":35.11344,"longitude":136.57205},{"name":"Inabe-shi","countryCode":"JP","stateCode":"24","latitude":35.16061,"longitude":136.50788},{"name":"Inagi-shi","countryCode":"JP","stateCode":"13","latitude":35.6329,"longitude":139.49291},{"name":"Inashiki","countryCode":"JP","stateCode":"08","latitude":35.95633,"longitude":140.32356},{"name":"Inashiki-shi","countryCode":"JP","stateCode":"08","latitude":35.94563,"longitude":140.36889},{"name":"Inawashiro","countryCode":"JP","stateCode":"07","latitude":37.56667,"longitude":140.11667},{"name":"Inazawa","countryCode":"JP","stateCode":"23","latitude":35.25,"longitude":136.78333},{"name":"Inazawa-shi","countryCode":"JP","stateCode":"23","latitude":35.24814,"longitude":136.77979},{"name":"Innoshima","countryCode":"JP","stateCode":"34","latitude":34.28333,"longitude":133.18333},{"name":"Ino","countryCode":"JP","stateCode":"39","latitude":33.55,"longitude":133.43333333},{"name":"Inuyama","countryCode":"JP","stateCode":"23","latitude":35.37995,"longitude":136.94295},{"name":"Inuyama-shi","countryCode":"JP","stateCode":"23","latitude":35.36232,"longitude":136.98072},{"name":"Inzai-shi","countryCode":"JP","stateCode":"12","latitude":35.81207,"longitude":140.14098},{"name":"Iruma-shi","countryCode":"JP","stateCode":"11","latitude":35.81802,"longitude":139.36754},{"name":"Isa Shi","countryCode":"JP","stateCode":"46","latitude":32.05835,"longitude":130.60104},{"name":"Isahaya","countryCode":"JP","stateCode":"42","latitude":32.84111,"longitude":130.04306},{"name":"Isahaya-shi","countryCode":"JP","stateCode":"42","latitude":32.86912,"longitude":130.06369},{"name":"Isawa","countryCode":"JP","stateCode":"19","latitude":35.65,"longitude":138.63333},{"name":"Ise","countryCode":"JP","stateCode":"24","latitude":34.48333,"longitude":136.7},{"name":"Ise-shi","countryCode":"JP","stateCode":"24","latitude":34.4674,"longitude":136.71585},{"name":"Isehara","countryCode":"JP","stateCode":"14","latitude":35.39932,"longitude":139.31019},{"name":"Isehara Shi","countryCode":"JP","stateCode":"14","latitude":35.41011,"longitude":139.29203},{"name":"Isesaki","countryCode":"JP","stateCode":"10","latitude":36.31667,"longitude":139.2},{"name":"Isesaki Shi","countryCode":"JP","stateCode":"10","latitude":36.32126,"longitude":139.21823},{"name":"Ishigaki","countryCode":"JP","stateCode":"47","latitude":24.34478,"longitude":124.15717},{"name":"Ishigaki-shi","countryCode":"JP","stateCode":"47","latitude":24.39401,"longitude":124.20113},{"name":"Ishige","countryCode":"JP","stateCode":"08","latitude":36.11667,"longitude":139.96667},{"name":"Ishii","countryCode":"JP","stateCode":"36","latitude":34.06752,"longitude":134.44208},{"name":"Ishikari","countryCode":"JP","stateCode":"01","latitude":43.23972,"longitude":141.35389},{"name":"Ishikari-shi","countryCode":"JP","stateCode":"01","latitude":43.46596,"longitude":141.44298},{"name":"Ishikawa","countryCode":"JP","stateCode":"07","latitude":37.15,"longitude":140.45},{"name":"Ishikawa","countryCode":"JP","stateCode":"47","latitude":26.42333,"longitude":127.82139},{"name":"Ishiki","countryCode":"JP","stateCode":"23","latitude":34.8,"longitude":137.01667},{"name":"Ishinomaki","countryCode":"JP","stateCode":"04","latitude":38.41667,"longitude":141.3},{"name":"Ishinomaki Shi","countryCode":"JP","stateCode":"04","latitude":38.47918,"longitude":141.37226},{"name":"Ishioka","countryCode":"JP","stateCode":"08","latitude":36.18333,"longitude":140.26667},{"name":"Ishioka-shi","countryCode":"JP","stateCode":"08","latitude":36.22776,"longitude":140.21786},{"name":"Isumi","countryCode":"JP","stateCode":"12","latitude":35.23005,"longitude":140.40492},{"name":"Isumi Shi","countryCode":"JP","stateCode":"12","latitude":35.27777,"longitude":140.34335},{"name":"Itabashi-ku","countryCode":"JP","stateCode":"13","latitude":35.75118,"longitude":139.70927},{"name":"Itako","countryCode":"JP","stateCode":"08","latitude":35.93333,"longitude":140.55},{"name":"Itako-shi","countryCode":"JP","stateCode":"08","latitude":35.961,"longitude":140.5621},{"name":"Itami","countryCode":"JP","stateCode":"28","latitude":34.78427,"longitude":135.40126},{"name":"Itami Shi","countryCode":"JP","stateCode":"28","latitude":34.78675,"longitude":135.40562},{"name":"Itō","countryCode":"JP","stateCode":"22","latitude":34.96667,"longitude":139.08333},{"name":"Itō Shi","countryCode":"JP","stateCode":"22","latitude":34.93563,"longitude":139.08725},{"name":"Itoigawa","countryCode":"JP","stateCode":"15","latitude":37.03333,"longitude":137.85},{"name":"Itoigawa Shi","countryCode":"JP","stateCode":"15","latitude":36.96626,"longitude":137.89402},{"name":"Itoman","countryCode":"JP","stateCode":"47","latitude":26.12647,"longitude":127.66918},{"name":"Itoman Shi","countryCode":"JP","stateCode":"47","latitude":26.11795,"longitude":127.6871},{"name":"Itoshima-shi","countryCode":"JP","stateCode":"40","latitude":33.53317,"longitude":130.17975},{"name":"Itsukaichi","countryCode":"JP","stateCode":"13","latitude":35.72528,"longitude":139.21778},{"name":"Iwade","countryCode":"JP","stateCode":"30","latitude":34.25,"longitude":135.31667},{"name":"Iwade Shi","countryCode":"JP","stateCode":"30","latitude":34.28089,"longitude":135.3056},{"name":"Iwai","countryCode":"JP","stateCode":"08","latitude":36.05,"longitude":139.9},{"name":"Iwaki","countryCode":"JP","stateCode":"07","latitude":37.05,"longitude":140.88333},{"name":"Iwaki-shi","countryCode":"JP","stateCode":"07","latitude":37.08333,"longitude":140.83333},{"name":"Iwakuni Shi","countryCode":"JP","stateCode":"35","latitude":34.20608,"longitude":132.06286},{"name":"Iwakura","countryCode":"JP","stateCode":"23","latitude":35.28333,"longitude":136.86667},{"name":"Iwakura-shi","countryCode":"JP","stateCode":"23","latitude":35.27927,"longitude":136.86885},{"name":"Iwamizawa","countryCode":"JP","stateCode":"01","latitude":43.20028,"longitude":141.75972},{"name":"Iwamizawa-shi","countryCode":"JP","stateCode":"01","latitude":43.18086,"longitude":141.79744},{"name":"Iwanai","countryCode":"JP","stateCode":"01","latitude":42.97444,"longitude":140.50889},{"name":"Iwanuma","countryCode":"JP","stateCode":"04","latitude":38.10472,"longitude":140.85944},{"name":"Iwanuma-shi","countryCode":"JP","stateCode":"04","latitude":38.11667,"longitude":140.88333},{"name":"Iwase","countryCode":"JP","stateCode":"08","latitude":36.35,"longitude":140.1},{"name":"Iwata","countryCode":"JP","stateCode":"22","latitude":34.7,"longitude":137.85},{"name":"Iwata-shi","countryCode":"JP","stateCode":"22","latitude":34.74451,"longitude":137.85043},{"name":"Iwate-gun","countryCode":"JP","stateCode":"03","latitude":39.97238,"longitude":141.22719},{"name":"Iwatsuki","countryCode":"JP","stateCode":"11","latitude":35.96474,"longitude":139.69644},{"name":"Iyo","countryCode":"JP","stateCode":"38","latitude":33.75139,"longitude":132.70139},{"name":"Iyo-shi","countryCode":"JP","stateCode":"38","latitude":33.68493,"longitude":132.68909},{"name":"Izu","countryCode":"JP","stateCode":"22","latitude":34.97159,"longitude":138.94643},{"name":"Izu-shi","countryCode":"JP","stateCode":"22","latitude":34.92201,"longitude":138.92585},{"name":"Izumi","countryCode":"JP","stateCode":"27","latitude":34.48333,"longitude":135.43333},{"name":"Izumi","countryCode":"JP","stateCode":"46","latitude":32.08333,"longitude":130.36667},{"name":"Izumi Shi","countryCode":"JP","stateCode":"27","latitude":34.43135,"longitude":135.47164},{"name":"Izumi Shi","countryCode":"JP","stateCode":"46","latitude":32.06412,"longitude":130.36097},{"name":"Izumiōtsu","countryCode":"JP","stateCode":"27","latitude":34.5,"longitude":135.4},{"name":"Izumiōtsu Shi","countryCode":"JP","stateCode":"27","latitude":34.50647,"longitude":135.40462},{"name":"Izumisano","countryCode":"JP","stateCode":"27","latitude":34.41667,"longitude":135.31667},{"name":"Izumisano Shi","countryCode":"JP","stateCode":"27","latitude":34.37398,"longitude":135.33682},{"name":"Izumo","countryCode":"JP","stateCode":"32","latitude":35.36667,"longitude":132.76667},{"name":"Izumo Shi","countryCode":"JP","stateCode":"32","latitude":35.33858,"longitude":132.73903},{"name":"Izunokuni-shi","countryCode":"JP","stateCode":"22","latitude":35.03799,"longitude":138.97295},{"name":"Jōetsu","countryCode":"JP","stateCode":"15","latitude":37.14828,"longitude":138.23642},{"name":"Jōetsu Shi","countryCode":"JP","stateCode":"15","latitude":37.1201,"longitude":138.33752},{"name":"Jōsō-shi","countryCode":"JP","stateCode":"08","latitude":36.06409,"longitude":139.96397},{"name":"Jōyō Shi","countryCode":"JP","stateCode":"26","latitude":34.84566,"longitude":135.7976},{"name":"Kadoma","countryCode":"JP","stateCode":"27","latitude":34.7381,"longitude":135.57442},{"name":"Kadoma Shi","countryCode":"JP","stateCode":"27","latitude":34.73215,"longitude":135.59935},{"name":"Kaga Shi","countryCode":"JP","stateCode":"17","latitude":36.25503,"longitude":136.37963},{"name":"Kagoshima","countryCode":"JP","stateCode":"46","latitude":31.56667,"longitude":130.55},{"name":"Kagoshima Shi","countryCode":"JP","stateCode":"46","latitude":31.58003,"longitude":130.52806},{"name":"Kahoku Shi","countryCode":"JP","stateCode":"17","latitude":36.74365,"longitude":136.73273},{"name":"Kai-shi","countryCode":"JP","stateCode":"19","latitude":35.71627,"longitude":138.51871},{"name":"Kainan","countryCode":"JP","stateCode":"30","latitude":34.15166,"longitude":135.21398},{"name":"Kainan Shi","countryCode":"JP","stateCode":"30","latitude":34.14182,"longitude":135.224},{"name":"Kaizu-shi","countryCode":"JP","stateCode":"21","latitude":35.21381,"longitude":136.62443},{"name":"Kaizuka","countryCode":"JP","stateCode":"27","latitude":34.45,"longitude":135.35},{"name":"Kaizuka Shi","countryCode":"JP","stateCode":"27","latitude":34.40105,"longitude":135.3851},{"name":"Kajiki","countryCode":"JP","stateCode":"46","latitude":31.73333,"longitude":130.66667},{"name":"Kakamigahara-shi","countryCode":"JP","stateCode":"21","latitude":35.40283,"longitude":136.87829},{"name":"Kakegawa","countryCode":"JP","stateCode":"22","latitude":34.76667,"longitude":138.01667},{"name":"Kakegawa Shi","countryCode":"JP","stateCode":"22","latitude":34.77993,"longitude":138.01897},{"name":"Kakogawa Shi","countryCode":"JP","stateCode":"28","latitude":34.78472,"longitude":134.84897},{"name":"Kakogawachō-honmachi","countryCode":"JP","stateCode":"28","latitude":34.76943,"longitude":134.82905},{"name":"Kakuda","countryCode":"JP","stateCode":"04","latitude":37.97451,"longitude":140.77202},{"name":"Kakuda Shi","countryCode":"JP","stateCode":"04","latitude":37.98828,"longitude":140.77903},{"name":"Kakunodatemachi","countryCode":"JP","stateCode":"05","latitude":39.58926,"longitude":140.56724},{"name":"Kama Shi","countryCode":"JP","stateCode":"40","latitude":33.53663,"longitude":130.74028},{"name":"Kamagaya Shi","countryCode":"JP","stateCode":"12","latitude":35.77289,"longitude":139.99883},{"name":"Kamaishi","countryCode":"JP","stateCode":"03","latitude":39.27694,"longitude":141.86801},{"name":"Kamaishi-shi","countryCode":"JP","stateCode":"03","latitude":39.28748,"longitude":141.79854},{"name":"Kamakura","countryCode":"JP","stateCode":"14","latitude":35.30889,"longitude":139.55028},{"name":"Kamakura Shi","countryCode":"JP","stateCode":"14","latitude":35.33,"longitude":139.53798},{"name":"Kameda-honchō","countryCode":"JP","stateCode":"15","latitude":37.87214,"longitude":139.1099},{"name":"Kameoka","countryCode":"JP","stateCode":"26","latitude":35,"longitude":135.58333},{"name":"Kameoka-shi","countryCode":"JP","stateCode":"26","latitude":35.01021,"longitude":135.539},{"name":"Kameyama","countryCode":"JP","stateCode":"24","latitude":34.85,"longitude":136.45},{"name":"Kameyama Shi","countryCode":"JP","stateCode":"24","latitude":34.86866,"longitude":136.39345},{"name":"Kamiamakusa Shi","countryCode":"JP","stateCode":"43","latitude":32.4955,"longitude":130.40816},{"name":"Kamifukuoka","countryCode":"JP","stateCode":"11","latitude":35.87266,"longitude":139.51369},{"name":"Kamigyō-ku","countryCode":"JP","stateCode":"26","latitude":35.02954,"longitude":135.75666},{"name":"Kamiichi","countryCode":"JP","stateCode":"16","latitude":36.7,"longitude":137.36667},{"name":"Kamiiso","countryCode":"JP","stateCode":"01","latitude":41.82013,"longitude":140.64482},{"name":"Kamikawa","countryCode":"JP","stateCode":"01","latitude":43.84,"longitude":142.77111},{"name":"Kamimaruko","countryCode":"JP","stateCode":"20","latitude":36.31865,"longitude":138.27329},{"name":"Kaminokawa","countryCode":"JP","stateCode":"09","latitude":36.43333,"longitude":139.91667},{"name":"Kaminoyama","countryCode":"JP","stateCode":"06","latitude":38.15389,"longitude":140.27361},{"name":"Kaminoyama-shi","countryCode":"JP","stateCode":"06","latitude":38.13333,"longitude":140.33333},{"name":"Kamirenjaku","countryCode":"JP","stateCode":"13","latitude":35.69423,"longitude":139.55495},{"name":"Kamisu-shi","countryCode":"JP","stateCode":"08","latitude":35.85126,"longitude":140.71171},{"name":"Kamo","countryCode":"JP","stateCode":"15","latitude":37.66442,"longitude":139.03502},{"name":"Kamo Shi","countryCode":"JP","stateCode":"15","latitude":37.62209,"longitude":139.11068},{"name":"Kamogatachō-kamogata","countryCode":"JP","stateCode":"33","latitude":34.53745,"longitude":133.58967},{"name":"Kamogawa","countryCode":"JP","stateCode":"12","latitude":35.0969,"longitude":140.1003},{"name":"Kamogawa-shi","countryCode":"JP","stateCode":"12","latitude":35.1,"longitude":140.1},{"name":"Kamojimachō-jōgejima","countryCode":"JP","stateCode":"36","latitude":34.06803,"longitude":134.35033},{"name":"Kan’onji Shi","countryCode":"JP","stateCode":"37","latitude":34.08457,"longitude":133.67448},{"name":"Kan’onjichō","countryCode":"JP","stateCode":"37","latitude":34.1276,"longitude":133.64598},{"name":"Kanaya","countryCode":"JP","stateCode":"22","latitude":34.82022,"longitude":138.12775},{"name":"Kanazawa","countryCode":"JP","stateCode":"17","latitude":36.6,"longitude":136.61667},{"name":"Kanazawa-shi","countryCode":"JP","stateCode":"17","latitude":36.51919,"longitude":136.70836},{"name":"Kanda","countryCode":"JP","stateCode":"40","latitude":33.78333,"longitude":130.98333},{"name":"Kanekomachi","countryCode":"JP","stateCode":"10","latitude":36.41097,"longitude":138.99621},{"name":"Kani-shi","countryCode":"JP","stateCode":"21","latitude":35.40589,"longitude":137.06602},{"name":"Kanie","countryCode":"JP","stateCode":"23","latitude":35.13333,"longitude":136.8},{"name":"Kannabechō-yahiro","countryCode":"JP","stateCode":"34","latitude":34.55808,"longitude":133.41796},{"name":"Kanoya","countryCode":"JP","stateCode":"46","latitude":31.38333,"longitude":130.85},{"name":"Kanoya Shi","countryCode":"JP","stateCode":"46","latitude":31.42664,"longitude":130.86735},{"name":"Kanuma","countryCode":"JP","stateCode":"09","latitude":36.55,"longitude":139.73333},{"name":"Kanuma-shi","countryCode":"JP","stateCode":"09","latitude":36.5755,"longitude":139.64149},{"name":"Kanzaki Shi","countryCode":"JP","stateCode":"41","latitude":33.34446,"longitude":130.35883},{"name":"Karasuyama","countryCode":"JP","stateCode":"09","latitude":36.65,"longitude":140.15},{"name":"Karatsu","countryCode":"JP","stateCode":"41","latitude":33.4425,"longitude":129.96972},{"name":"Karatsu Shi","countryCode":"JP","stateCode":"41","latitude":33.41802,"longitude":129.99775},{"name":"Kariya","countryCode":"JP","stateCode":"23","latitude":34.98333,"longitude":136.98333},{"name":"Kariya","countryCode":"JP","stateCode":"28","latitude":34.75136,"longitude":134.38734},{"name":"Kariya-shi","countryCode":"JP","stateCode":"23","latitude":35.01098,"longitude":137.00166},{"name":"Karuizawa","countryCode":"JP","stateCode":"39","latitude":36.34833333,"longitude":138.59694444},{"name":"Kasai Shi","countryCode":"JP","stateCode":"28","latitude":34.92476,"longitude":134.85359},{"name":"Kasama","countryCode":"JP","stateCode":"08","latitude":36.38333,"longitude":140.26667},{"name":"Kasama-shi","countryCode":"JP","stateCode":"08","latitude":36.35651,"longitude":140.26935},{"name":"Kasamatsuchō","countryCode":"JP","stateCode":"21","latitude":35.36667,"longitude":136.76667},{"name":"Kasaoka","countryCode":"JP","stateCode":"33","latitude":34.50597,"longitude":133.50391},{"name":"Kasaoka Shi","countryCode":"JP","stateCode":"33","latitude":34.5152,"longitude":133.50618},{"name":"Kaseda-shirakame","countryCode":"JP","stateCode":"46","latitude":31.41667,"longitude":130.31667},{"name":"Kashiba-shi","countryCode":"JP","stateCode":"29","latitude":34.54107,"longitude":135.69918},{"name":"Kashihara","countryCode":"JP","stateCode":"27","latitude":34.58333,"longitude":135.61667},{"name":"Kashihara-shi","countryCode":"JP","stateCode":"29","latitude":34.50352,"longitude":135.78986},{"name":"Kashima","countryCode":"JP","stateCode":"41","latitude":33.10611,"longitude":130.09056},{"name":"Kashima Shi","countryCode":"JP","stateCode":"41","latitude":33.06203,"longitude":130.09396},{"name":"Kashima-shi","countryCode":"JP","stateCode":"08","latitude":35.96536,"longitude":140.64474},{"name":"Kashiwa","countryCode":"JP","stateCode":"12","latitude":35.86224,"longitude":139.97732},{"name":"Kashiwa Shi","countryCode":"JP","stateCode":"12","latitude":35.86017,"longitude":139.99386},{"name":"Kashiwara-shi","countryCode":"JP","stateCode":"27","latitude":34.5792,"longitude":135.62867},{"name":"Kashiwazaki","countryCode":"JP","stateCode":"15","latitude":37.36667,"longitude":138.55},{"name":"Kashiwazaki Shi","countryCode":"JP","stateCode":"15","latitude":37.29913,"longitude":138.58654},{"name":"Kasuga Shi","countryCode":"JP","stateCode":"40","latitude":33.52404,"longitude":130.45641},{"name":"Kasugai","countryCode":"JP","stateCode":"23","latitude":35.24762,"longitude":136.97229},{"name":"Kasugai-shi","countryCode":"JP","stateCode":"23","latitude":35.24762,"longitude":136.97226},{"name":"Kasukabe","countryCode":"JP","stateCode":"11","latitude":35.98308,"longitude":139.74966},{"name":"Kasukabe Shi","countryCode":"JP","stateCode":"11","latitude":35.9827,"longitude":139.77574},{"name":"Kasumigaura","countryCode":"JP","stateCode":"08","latitude":36.15326,"longitude":140.24635},{"name":"Kasumigaura-shi","countryCode":"JP","stateCode":"08","latitude":36.10937,"longitude":140.30205},{"name":"Katagami","countryCode":"JP","stateCode":"05","latitude":39.87869,"longitude":139.99767},{"name":"Katagami-shi","countryCode":"JP","stateCode":"05","latitude":39.87209,"longitude":140.0491},{"name":"Katano Shi","countryCode":"JP","stateCode":"27","latitude":34.77215,"longitude":135.68693},{"name":"Katō Shi","countryCode":"JP","stateCode":"28","latitude":34.92714,"longitude":135.02134},{"name":"Katori-shi","countryCode":"JP","stateCode":"12","latitude":35.88333,"longitude":140.51667},{"name":"Katsuragi","countryCode":"JP","stateCode":"29","latitude":34.48562,"longitude":135.69698},{"name":"Katsuragi Shi","countryCode":"JP","stateCode":"29","latitude":34.49682,"longitude":135.70464},{"name":"Katsuren-haebaru","countryCode":"JP","stateCode":"47","latitude":26.33294,"longitude":127.87403},{"name":"Katsushika Ku","countryCode":"JP","stateCode":"13","latitude":35.75324,"longitude":139.85567},{"name":"Katsuta","countryCode":"JP","stateCode":"08","latitude":36.38333,"longitude":140.53333},{"name":"Katsuura","countryCode":"JP","stateCode":"12","latitude":35.14621,"longitude":140.31507},{"name":"Katsuura Gun","countryCode":"JP","stateCode":"36","latitude":33.9138,"longitude":134.42641},{"name":"Katsuura-shi","countryCode":"JP","stateCode":"12","latitude":35.17535,"longitude":140.2676},{"name":"Katsuyama","countryCode":"JP","stateCode":"18","latitude":36.06173,"longitude":136.50101},{"name":"Katsuyama Shi","countryCode":"JP","stateCode":"18","latitude":36.0844,"longitude":136.52178},{"name":"Kawachi-nagano Shi","countryCode":"JP","stateCode":"27","latitude":34.40547,"longitude":135.56692},{"name":"Kawage","countryCode":"JP","stateCode":"24","latitude":34.80447,"longitude":136.54645},{"name":"Kawagoe","countryCode":"JP","stateCode":"11","latitude":35.90861,"longitude":139.48528},{"name":"Kawagoe-shi","countryCode":"JP","stateCode":"11","latitude":35.91149,"longitude":139.47924},{"name":"Kawaguchi","countryCode":"JP","stateCode":"11","latitude":35.80521,"longitude":139.71072},{"name":"Kawaguchi-shi","countryCode":"JP","stateCode":"11","latitude":35.83389,"longitude":139.73252},{"name":"Kawakami","countryCode":"JP","stateCode":"39","latitude":35.97555556,"longitude":138.57833333},{"name":"Kawanishi","countryCode":"JP","stateCode":"28","latitude":34.81667,"longitude":135.41667},{"name":"Kawanishi Shi","countryCode":"JP","stateCode":"28","latitude":34.87955,"longitude":135.40919},{"name":"Kawanoechō","countryCode":"JP","stateCode":"38","latitude":34.01654,"longitude":133.57844},{"name":"Kawasaki","countryCode":"JP","stateCode":"14","latitude":35.52056,"longitude":139.71722},{"name":"Kawasaki","countryCode":"JP","stateCode":"40","latitude":33.59993,"longitude":130.81495},{"name":"Kawasaki-shi","countryCode":"JP","stateCode":"14","latitude":35.56996,"longitude":139.62854},{"name":"Kazo","countryCode":"JP","stateCode":"11","latitude":36.11667,"longitude":139.6},{"name":"Kazo-shi","countryCode":"JP","stateCode":"11","latitude":36.1367,"longitude":139.61992},{"name":"Kazuno Shi","countryCode":"JP","stateCode":"05","latitude":40.21035,"longitude":140.8303},{"name":"Kesennuma","countryCode":"JP","stateCode":"04","latitude":38.90112,"longitude":141.57746},{"name":"Kesennuma Shi","countryCode":"JP","stateCode":"04","latitude":38.91377,"longitude":141.55711},{"name":"Kihoku-chō","countryCode":"JP","stateCode":"38","latitude":33.25592,"longitude":132.68343},{"name":"Kijimadaira","countryCode":"JP","stateCode":"39","latitude":36.85861111,"longitude":138.40666667},{"name":"Kikuchi","countryCode":"JP","stateCode":"43","latitude":32.98333,"longitude":130.81667},{"name":"Kikuchi Shi","countryCode":"JP","stateCode":"43","latitude":32.99107,"longitude":130.85523},{"name":"Kikugawa-shi","countryCode":"JP","stateCode":"22","latitude":34.75,"longitude":138.1},{"name":"Kimitsu","countryCode":"JP","stateCode":"12","latitude":35.35043,"longitude":139.87029},{"name":"Kinokawa Shi","countryCode":"JP","stateCode":"30","latitude":34.254,"longitude":135.39412},{"name":"Kirishima Shi","countryCode":"JP","stateCode":"46","latitude":31.80558,"longitude":130.78164},{"name":"Kiryū","countryCode":"JP","stateCode":"10","latitude":36.4,"longitude":139.33333},{"name":"Kiryū Shi","countryCode":"JP","stateCode":"10","latitude":36.45702,"longitude":139.30962},{"name":"Kisai","countryCode":"JP","stateCode":"11","latitude":36.1,"longitude":139.58333},{"name":"Kisarazu","countryCode":"JP","stateCode":"12","latitude":35.38329,"longitude":139.93254},{"name":"Kisarazu Shi","countryCode":"JP","stateCode":"12","latitude":35.36981,"longitude":139.98749},{"name":"Kishiwada","countryCode":"JP","stateCode":"27","latitude":34.46667,"longitude":135.36667},{"name":"Kishiwada Shi","countryCode":"JP","stateCode":"27","latitude":34.42747,"longitude":135.41605},{"name":"Kiso","countryCode":"JP","stateCode":"39","latitude":35.93638889,"longitude":137.78305556},{"name":"Kita-ku","countryCode":"JP","stateCode":"13","latitude":35.75264,"longitude":139.73348},{"name":"Kitaaiki","countryCode":"JP","stateCode":"39","latitude":36.05916667,"longitude":138.55111111},{"name":"Kitaakita-shi","countryCode":"JP","stateCode":"05","latitude":40.23446,"longitude":140.39978},{"name":"Kitagawa","countryCode":"JP","stateCode":"39","latitude":33.44777778,"longitude":134.04222222},{"name":"Kitahama","countryCode":"JP","stateCode":"25","latitude":35.16667,"longitude":135.91667},{"name":"Kitahiroshima","countryCode":"JP","stateCode":"01","latitude":42.97583,"longitude":141.56722},{"name":"Kitahiroshima-shi","countryCode":"JP","stateCode":"01","latitude":42.98581,"longitude":141.55678},{"name":"Kitaibaraki","countryCode":"JP","stateCode":"08","latitude":36.78671,"longitude":140.74901},{"name":"Kitaibaraki-shi","countryCode":"JP","stateCode":"08","latitude":36.83987,"longitude":140.68736},{"name":"Kitakami","countryCode":"JP","stateCode":"03","latitude":39.28333,"longitude":141.11667},{"name":"Kitakami-shi","countryCode":"JP","stateCode":"03","latitude":39.30765,"longitude":141.00795},{"name":"Kitakata","countryCode":"JP","stateCode":"07","latitude":37.65,"longitude":139.86667},{"name":"Kitakata-shi","countryCode":"JP","stateCode":"07","latitude":37.68333,"longitude":139.9},{"name":"Kitakyushu","countryCode":"JP","stateCode":"40","latitude":33.85181,"longitude":130.85034},{"name":"Kitami","countryCode":"JP","stateCode":"01","latitude":43.80306,"longitude":143.89083},{"name":"Kitamoto Shi","countryCode":"JP","stateCode":"11","latitude":36.02615,"longitude":139.53043},{"name":"Kitanagoya","countryCode":"JP","stateCode":"23","latitude":35.24702,"longitude":136.87832},{"name":"Kitanagoya-shi","countryCode":"JP","stateCode":"23","latitude":35.2464,"longitude":136.87293},{"name":"Kitsuki","countryCode":"JP","stateCode":"44","latitude":33.41998,"longitude":131.61837},{"name":"Kitsuki Shi","countryCode":"JP","stateCode":"44","latitude":33.44729,"longitude":131.5367},{"name":"Kiyose-shi","countryCode":"JP","stateCode":"13","latitude":35.78551,"longitude":139.52628},{"name":"Kiyosu-shi","countryCode":"JP","stateCode":"23","latitude":35.21325,"longitude":136.84771},{"name":"Kizugawa-shi","countryCode":"JP","stateCode":"26","latitude":34.73781,"longitude":135.82128},{"name":"Kobayashi","countryCode":"JP","stateCode":"45","latitude":31.98333,"longitude":130.98333},{"name":"Kobayashi Shi","countryCode":"JP","stateCode":"45","latitude":32.04556,"longitude":131.02762},{"name":"Kobe","countryCode":"JP","stateCode":"28","latitude":34.6913,"longitude":135.183},{"name":"Kōchi","countryCode":"JP","stateCode":"39","latitude":33.55888889,"longitude":133.53138889},{"name":"Kodaira-shi","countryCode":"JP","stateCode":"13","latitude":35.72738,"longitude":139.48173},{"name":"Kodamachō-kodamaminami","countryCode":"JP","stateCode":"11","latitude":36.18497,"longitude":139.13191},{"name":"Kōfu","countryCode":"JP","stateCode":"19","latitude":35.66667,"longitude":138.56667},{"name":"Kōfu-shi","countryCode":"JP","stateCode":"19","latitude":35.69606,"longitude":138.61261},{"name":"Koga","countryCode":"JP","stateCode":"08","latitude":36.18333,"longitude":139.71667},{"name":"Koga","countryCode":"JP","stateCode":"40","latitude":33.73333,"longitude":130.46667},{"name":"Koga-shi","countryCode":"JP","stateCode":"08","latitude":36.17975,"longitude":139.77534},{"name":"Koga-shi","countryCode":"JP","stateCode":"40","latitude":33.72139,"longitude":130.49947},{"name":"Koganei-shi","countryCode":"JP","stateCode":"13","latitude":35.70108,"longitude":139.51104},{"name":"Kogota","countryCode":"JP","stateCode":"04","latitude":38.55,"longitude":141.05},{"name":"Kōka-shi","countryCode":"JP","stateCode":"25","latitude":34.91667,"longitude":136.16667},{"name":"Kokubu-matsuki","countryCode":"JP","stateCode":"46","latitude":31.73333,"longitude":130.76667},{"name":"Kokubunji","countryCode":"JP","stateCode":"13","latitude":35.70222,"longitude":139.47556},{"name":"Kokubunji-shi","countryCode":"JP","stateCode":"13","latitude":35.70552,"longitude":139.46125},{"name":"Komae-shi","countryCode":"JP","stateCode":"13","latitude":35.63487,"longitude":139.57723},{"name":"Komagane","countryCode":"JP","stateCode":"20","latitude":35.71657,"longitude":137.93745},{"name":"Komagane-shi","countryCode":"JP","stateCode":"20","latitude":35.7277,"longitude":137.94783},{"name":"Komaki","countryCode":"JP","stateCode":"23","latitude":35.28333,"longitude":136.91667},{"name":"Komaki-shi","countryCode":"JP","stateCode":"23","latitude":35.29103,"longitude":136.91196},{"name":"Komatsu","countryCode":"JP","stateCode":"17","latitude":36.40263,"longitude":136.45088},{"name":"Komatsushima Shi","countryCode":"JP","stateCode":"36","latitude":33.98071,"longitude":134.59529},{"name":"Komatsushimachō","countryCode":"JP","stateCode":"36","latitude":34,"longitude":134.58333},{"name":"Komono","countryCode":"JP","stateCode":"24","latitude":35,"longitude":136.51667},{"name":"Komoro","countryCode":"JP","stateCode":"20","latitude":36.31667,"longitude":138.43333},{"name":"Komoro","countryCode":"JP","stateCode":"39","latitude":36.3275,"longitude":138.42583333},{"name":"Komoro Shi","countryCode":"JP","stateCode":"20","latitude":36.33905,"longitude":138.43503},{"name":"Kōnan","countryCode":"JP","stateCode":"23","latitude":35.33165,"longitude":136.87042},{"name":"Kōnan","countryCode":"JP","stateCode":"39","latitude":33.56416667,"longitude":133.70055556},{"name":"Konan-shi","countryCode":"JP","stateCode":"25","latitude":35.01667,"longitude":136.08333},{"name":"Kōnan-shi","countryCode":"JP","stateCode":"23","latitude":35.33137,"longitude":136.87077},{"name":"Kōnosu","countryCode":"JP","stateCode":"11","latitude":36.06868,"longitude":139.51684},{"name":"Konosu-Shi","countryCode":"JP","stateCode":"11","latitude":36.06634,"longitude":139.5201},{"name":"Kōriyama","countryCode":"JP","stateCode":"07","latitude":37.4,"longitude":140.38333},{"name":"Kōriyama Shi","countryCode":"JP","stateCode":"07","latitude":37.41277,"longitude":140.29507},{"name":"Kosai","countryCode":"JP","stateCode":"22","latitude":34.70053,"longitude":137.52253},{"name":"Kosai-shi","countryCode":"JP","stateCode":"22","latitude":34.73092,"longitude":137.51643},{"name":"Koseda","countryCode":"JP","stateCode":"46","latitude":30.38796,"longitude":130.64924},{"name":"Kōshi Shi","countryCode":"JP","stateCode":"43","latitude":32.89305,"longitude":130.76867},{"name":"Koshigaya Shi","countryCode":"JP","stateCode":"11","latitude":35.90108,"longitude":139.79023},{"name":"Koshima","countryCode":"JP","stateCode":"46","latitude":30.23461,"longitude":130.53517},{"name":"Kōshū-shi","countryCode":"JP","stateCode":"19","latitude":35.72649,"longitude":138.79178},{"name":"Kōtō-ku","countryCode":"JP","stateCode":"13","latitude":35.66667,"longitude":139.81667},{"name":"Kōya","countryCode":"JP","stateCode":"30","latitude":34.21294,"longitude":135.62244},{"name":"Kozakai-chō","countryCode":"JP","stateCode":"23","latitude":34.8,"longitude":137.35889},{"name":"Ktiami Shi","countryCode":"JP","stateCode":"01","latitude":43.8516,"longitude":143.7152},{"name":"Kudamatsu","countryCode":"JP","stateCode":"35","latitude":34,"longitude":131.86667},{"name":"Kudamatsu Shi","countryCode":"JP","stateCode":"35","latitude":34.03243,"longitude":131.88683},{"name":"Kuji","countryCode":"JP","stateCode":"03","latitude":40.18778,"longitude":141.76889},{"name":"Kuji-shi","countryCode":"JP","stateCode":"03","latitude":40.14364,"longitude":141.65918},{"name":"Kuki-shi","countryCode":"JP","stateCode":"11","latitude":36.07664,"longitude":139.64941},{"name":"Kukichūō","countryCode":"JP","stateCode":"11","latitude":36.06739,"longitude":139.67498},{"name":"Kumagaya Shi","countryCode":"JP","stateCode":"11","latitude":36.16028,"longitude":139.37256},{"name":"Kumamoto","countryCode":"JP","stateCode":"43","latitude":32.80589,"longitude":130.69181},{"name":"Kumamoto Shi","countryCode":"JP","stateCode":"43","latitude":32.79733,"longitude":130.69171},{"name":"Kumano","countryCode":"JP","stateCode":"24","latitude":33.90389,"longitude":136.12214},{"name":"Kumano-shi","countryCode":"JP","stateCode":"24","latitude":33.9229,"longitude":136.02646},{"name":"Kunisaki-shi","countryCode":"JP","stateCode":"44","latitude":33.56543,"longitude":131.73157},{"name":"Kunitachi-shi","countryCode":"JP","stateCode":"13","latitude":35.68634,"longitude":139.43878},{"name":"Kurashiki","countryCode":"JP","stateCode":"33","latitude":34.58333,"longitude":133.76667},{"name":"Kurashiki Shi","countryCode":"JP","stateCode":"33","latitude":34.55466,"longitude":133.74826},{"name":"Kurayoshi-shi","countryCode":"JP","stateCode":"31","latitude":35.3911,"longitude":133.74577},{"name":"Kure","countryCode":"JP","stateCode":"34","latitude":34.23222,"longitude":132.56658},{"name":"Kure-shi","countryCode":"JP","stateCode":"34","latitude":34.22448,"longitude":132.62914},{"name":"Kurihara","countryCode":"JP","stateCode":"04","latitude":38.75,"longitude":141},{"name":"Kurihara Shi","countryCode":"JP","stateCode":"04","latitude":38.80895,"longitude":140.94034},{"name":"Kurihashi","countryCode":"JP","stateCode":"11","latitude":36.13333,"longitude":139.7},{"name":"Kurio","countryCode":"JP","stateCode":"46","latitude":30.27123,"longitude":130.4236},{"name":"Kurobe-shi","countryCode":"JP","stateCode":"16","latitude":36.90123,"longitude":137.44955},{"name":"Kuroda","countryCode":"JP","stateCode":"23","latitude":35.35,"longitude":136.78333},{"name":"Kuroishi","countryCode":"JP","stateCode":"02","latitude":40.64581,"longitude":140.58354},{"name":"Kuroishi Shi","countryCode":"JP","stateCode":"02","latitude":40.61709,"longitude":140.70467},{"name":"Kuroiso","countryCode":"JP","stateCode":"09","latitude":36.96667,"longitude":140.05},{"name":"Kuroshio","countryCode":"JP","stateCode":"39","latitude":33.025,"longitude":133.01083333},{"name":"Kurume","countryCode":"JP","stateCode":"40","latitude":33.31667,"longitude":130.51667},{"name":"Kurume Shi","countryCode":"JP","stateCode":"40","latitude":33.30358,"longitude":130.56549},{"name":"Kusatsu","countryCode":"JP","stateCode":"25","latitude":35.01667,"longitude":135.96667},{"name":"Kusatsu-shi","countryCode":"JP","stateCode":"25","latitude":35.02758,"longitude":135.9384},{"name":"Kushikino","countryCode":"JP","stateCode":"46","latitude":31.71667,"longitude":130.26667},{"name":"Kushima","countryCode":"JP","stateCode":"45","latitude":31.48621,"longitude":131.2421},{"name":"Kushima Shi","countryCode":"JP","stateCode":"45","latitude":31.48571,"longitude":131.26485},{"name":"Kushiro","countryCode":"JP","stateCode":"01","latitude":42.975,"longitude":144.37472},{"name":"Kushiro Shi","countryCode":"JP","stateCode":"01","latitude":43.1591,"longitude":144.06647},{"name":"Kuwana","countryCode":"JP","stateCode":"24","latitude":35.05192,"longitude":136.66958},{"name":"Kuwana-shi","countryCode":"JP","stateCode":"24","latitude":35.06176,"longitude":136.68348},{"name":"Kyōtanabe Shi","countryCode":"JP","stateCode":"26","latitude":34.80779,"longitude":135.763},{"name":"Kyōtango-shi","countryCode":"JP","stateCode":"26","latitude":35.63089,"longitude":135.04785},{"name":"Kyoto","countryCode":"JP","stateCode":"26","latitude":35.02107,"longitude":135.75385},{"name":"Machida","countryCode":"JP","stateCode":"13","latitude":35.54028,"longitude":139.45083},{"name":"Machida-shi","countryCode":"JP","stateCode":"13","latitude":35.57626,"longitude":139.42998},{"name":"Maebaru-chūō","countryCode":"JP","stateCode":"40","latitude":33.55916,"longitude":130.20148},{"name":"Maebashi","countryCode":"JP","stateCode":"10","latitude":36.4,"longitude":139.08333},{"name":"Maebashi Shi","countryCode":"JP","stateCode":"10","latitude":36.41432,"longitude":139.1311},{"name":"Maibara","countryCode":"JP","stateCode":"25","latitude":35.31667,"longitude":136.28333},{"name":"Maibara-shi","countryCode":"JP","stateCode":"25","latitude":35.38457,"longitude":136.37741},{"name":"Maizuru","countryCode":"JP","stateCode":"26","latitude":35.45,"longitude":135.33333},{"name":"Maizuru-shi","countryCode":"JP","stateCode":"26","latitude":35.47009,"longitude":135.34003},{"name":"Makabe","countryCode":"JP","stateCode":"08","latitude":36.26667,"longitude":140.1},{"name":"Maki","countryCode":"JP","stateCode":"15","latitude":37.75,"longitude":138.88333},{"name":"Makinohara Shi","countryCode":"JP","stateCode":"22","latitude":34.73226,"longitude":138.18567},{"name":"Makubetsu","countryCode":"JP","stateCode":"01","latitude":45.37139,"longitude":141.82111},{"name":"Makurazaki","countryCode":"JP","stateCode":"46","latitude":31.26667,"longitude":130.31667},{"name":"Makurazaki Shi","countryCode":"JP","stateCode":"46","latitude":31.29139,"longitude":130.30681},{"name":"Maniwa-shi","countryCode":"JP","stateCode":"33","latitude":35.13549,"longitude":133.69358},{"name":"Marugame","countryCode":"JP","stateCode":"37","latitude":34.28333,"longitude":133.78333},{"name":"Marugame Shi","countryCode":"JP","stateCode":"37","latitude":34.2856,"longitude":133.81535},{"name":"Marumori","countryCode":"JP","stateCode":"04","latitude":37.91667,"longitude":140.76667},{"name":"Maruoka","countryCode":"JP","stateCode":"18","latitude":36.1534,"longitude":136.27029},{"name":"Masaki-chō","countryCode":"JP","stateCode":"38","latitude":33.78757,"longitude":132.71124},{"name":"Mashiko","countryCode":"JP","stateCode":"09","latitude":36.46667,"longitude":140.1},{"name":"Masuda","countryCode":"JP","stateCode":"32","latitude":34.66667,"longitude":131.85},{"name":"Masuda Shi","countryCode":"JP","stateCode":"32","latitude":34.62909,"longitude":131.9459},{"name":"Matsubara","countryCode":"JP","stateCode":"27","latitude":34.56667,"longitude":135.55},{"name":"Matsubara-shi","countryCode":"JP","stateCode":"27","latitude":34.57726,"longitude":135.55206},{"name":"Matsubase","countryCode":"JP","stateCode":"43","latitude":32.65,"longitude":130.66667},{"name":"Matsudo Shi","countryCode":"JP","stateCode":"12","latitude":35.79574,"longitude":139.92908},{"name":"Matsue","countryCode":"JP","stateCode":"32","latitude":35.48333,"longitude":133.05},{"name":"Matsue Shi","countryCode":"JP","stateCode":"32","latitude":35.47702,"longitude":133.05917},{"name":"Matsukawa","countryCode":"JP","stateCode":"39","latitude":35.59722222,"longitude":137.90972222},{"name":"Matsumoto","countryCode":"JP","stateCode":"20","latitude":36.23333,"longitude":137.96667},{"name":"Matsumoto","countryCode":"JP","stateCode":"39","latitude":36.23805556,"longitude":137.97194444},{"name":"Matsumoto Shi","countryCode":"JP","stateCode":"20","latitude":36.20418,"longitude":137.81419},{"name":"Matsushima","countryCode":"JP","stateCode":"04","latitude":38.37357,"longitude":141.06105},{"name":"Matsutō","countryCode":"JP","stateCode":"17","latitude":36.51667,"longitude":136.56667},{"name":"Matsuura","countryCode":"JP","stateCode":"42","latitude":33.34058,"longitude":129.69504},{"name":"Matsuura Shi","countryCode":"JP","stateCode":"42","latitude":33.35334,"longitude":129.73504},{"name":"Matsuyama-shi","countryCode":"JP","stateCode":"38","latitude":33.83568,"longitude":132.76224},{"name":"Matsuzaka-shi","countryCode":"JP","stateCode":"24","latitude":34.56667,"longitude":136.53333},{"name":"Meguro-ku","countryCode":"JP","stateCode":"13","latitude":35.64146,"longitude":139.69817},{"name":"Menuma","countryCode":"JP","stateCode":"11","latitude":36.22245,"longitude":139.38205},{"name":"Mibu","countryCode":"JP","stateCode":"09","latitude":36.41667,"longitude":139.8},{"name":"Midori","countryCode":"JP","stateCode":"10","latitude":36.44492,"longitude":139.28448},{"name":"Midori Shi","countryCode":"JP","stateCode":"10","latitude":36.53044,"longitude":139.34728},{"name":"Mihara","countryCode":"JP","stateCode":"34","latitude":34.4,"longitude":133.08333},{"name":"Mihara","countryCode":"JP","stateCode":"39","latitude":32.90611111,"longitude":132.84722222},{"name":"Mihara Shi","countryCode":"JP","stateCode":"34","latitude":34.45817,"longitude":133.00395},{"name":"Miharu","countryCode":"JP","stateCode":"07","latitude":37.43333,"longitude":140.48333},{"name":"Mikasa","countryCode":"JP","stateCode":"01","latitude":43.25581,"longitude":141.88818},{"name":"Mikasa-shi","countryCode":"JP","stateCode":"01","latitude":43.23976,"longitude":141.99273},{"name":"Miki","countryCode":"JP","stateCode":"28","latitude":34.8,"longitude":134.98333},{"name":"Miki Shi","countryCode":"JP","stateCode":"28","latitude":34.83553,"longitude":135.05822},{"name":"Mikuni","countryCode":"JP","stateCode":"18","latitude":36.21706,"longitude":136.15185},{"name":"Mima Shi","countryCode":"JP","stateCode":"36","latitude":34.01889,"longitude":134.14333},{"name":"Mimasaka-shi","countryCode":"JP","stateCode":"33","latitude":35.04419,"longitude":134.23052},{"name":"Minakuchichō-matoba","countryCode":"JP","stateCode":"25","latitude":34.96667,"longitude":136.16667},{"name":"Minamata","countryCode":"JP","stateCode":"43","latitude":32.21667,"longitude":130.4},{"name":"Minamata Shi","countryCode":"JP","stateCode":"43","latitude":32.17055,"longitude":130.46211},{"name":"Minami Alps-shi","countryCode":"JP","stateCode":"19","latitude":35.65065,"longitude":138.35413},{"name":"Minami-Sōma","countryCode":"JP","stateCode":"07","latitude":37.62908,"longitude":140.97868},{"name":"Minamiaiki","countryCode":"JP","stateCode":"39","latitude":36.03611111,"longitude":138.54694444},{"name":"Minamiashigara","countryCode":"JP","stateCode":"14","latitude":35.31947,"longitude":139.1096},{"name":"Minamiashigara Shi","countryCode":"JP","stateCode":"14","latitude":35.30991,"longitude":139.07016},{"name":"Minamiawaji Shi","countryCode":"JP","stateCode":"28","latitude":34.2753,"longitude":134.76465},{"name":"Minamibōsō Shi","countryCode":"JP","stateCode":"12","latitude":35.03657,"longitude":139.92847},{"name":"Minamikyushu Shi","countryCode":"JP","stateCode":"46","latitude":31.34038,"longitude":130.43677},{"name":"Minamimaki","countryCode":"JP","stateCode":"39","latitude":36.02083333,"longitude":138.49222222},{"name":"Minamiminowa","countryCode":"JP","stateCode":"39","latitude":35.87277778,"longitude":137.97527778},{"name":"Minamirinkan","countryCode":"JP","stateCode":"14","latitude":35.49527,"longitude":139.44279},{"name":"Minamisatsuma Shi","countryCode":"JP","stateCode":"46","latitude":31.38793,"longitude":130.26961},{"name":"Minamishimabara-shi","countryCode":"JP","stateCode":"42","latitude":32.67565,"longitude":130.25695},{"name":"Minamisōma Shi","countryCode":"JP","stateCode":"07","latitude":37.63108,"longitude":140.92852},{"name":"Minamiuonuma Shi","countryCode":"JP","stateCode":"15","latitude":37.05587,"longitude":138.93735},{"name":"Minato","countryCode":"JP","stateCode":"30","latitude":34.2152,"longitude":135.1501},{"name":"Minato-ku","countryCode":"JP","stateCode":"13","latitude":35.65,"longitude":139.73333},{"name":"Mine Shi","countryCode":"JP","stateCode":"35","latitude":34.21083,"longitude":131.2517},{"name":"Mino","countryCode":"JP","stateCode":"21","latitude":35.53333,"longitude":136.91667},{"name":"Mino","countryCode":"JP","stateCode":"27","latitude":34.82691,"longitude":135.47057},{"name":"Mino-shi","countryCode":"JP","stateCode":"21","latitude":35.57892,"longitude":136.9012},{"name":"Minokamo","countryCode":"JP","stateCode":"21","latitude":35.48199,"longitude":137.02166},{"name":"Minokamo-shi","countryCode":"JP","stateCode":"21","latitude":35.48386,"longitude":137.02658},{"name":"Minoo Shi","countryCode":"JP","stateCode":"27","latitude":34.8559,"longitude":135.47926},{"name":"Minowa","countryCode":"JP","stateCode":"39","latitude":35.915,"longitude":137.98194444},{"name":"Misato Shi","countryCode":"JP","stateCode":"11","latitude":35.83221,"longitude":139.87185},{"name":"Misawa","countryCode":"JP","stateCode":"02","latitude":40.68682,"longitude":141.38969},{"name":"Misawa Shi","countryCode":"JP","stateCode":"02","latitude":40.74647,"longitude":141.38124},{"name":"Mishima","countryCode":"JP","stateCode":"22","latitude":35.11667,"longitude":138.91667},{"name":"Mishima Shi","countryCode":"JP","stateCode":"22","latitude":35.1394,"longitude":138.94882},{"name":"Mishima-gun","countryCode":"JP","stateCode":"27","latitude":34.89887,"longitude":135.65325},{"name":"Mitaka-shi","countryCode":"JP","stateCode":"13","latitude":35.68351,"longitude":139.55963},{"name":"Mitake","countryCode":"JP","stateCode":"21","latitude":35.41667,"longitude":137.13333},{"name":"Mito","countryCode":"JP","stateCode":"08","latitude":36.35,"longitude":140.45},{"name":"Mito-shi","countryCode":"JP","stateCode":"08","latitude":36.37053,"longitude":140.43559},{"name":"Mitoyo Shi","countryCode":"JP","stateCode":"37","latitude":34.16176,"longitude":133.72282},{"name":"Mitsukaidō","countryCode":"JP","stateCode":"08","latitude":36.01667,"longitude":139.98333},{"name":"Mitsuke","countryCode":"JP","stateCode":"15","latitude":37.53333,"longitude":138.93333},{"name":"Mitsuke Shi","countryCode":"JP","stateCode":"15","latitude":37.52465,"longitude":138.93711},{"name":"Mitsushima","countryCode":"JP","stateCode":"39","latitude":35.275251,"longitude":137.852137},{"name":"Miura","countryCode":"JP","stateCode":"14","latitude":35.14,"longitude":139.61917},{"name":"Miura Shi","countryCode":"JP","stateCode":"14","latitude":35.16754,"longitude":139.64104},{"name":"Miyada","countryCode":"JP","stateCode":"39","latitude":35.76888889,"longitude":137.94422222},{"name":"Miyajima","countryCode":"JP","stateCode":"34","latitude":34.29907,"longitude":132.32186},{"name":"Miyaki-gun","countryCode":"JP","stateCode":"41","latitude":33.35298,"longitude":130.45711},{"name":"Miyako","countryCode":"JP","stateCode":"03","latitude":39.64691,"longitude":141.94057},{"name":"Miyako-shi","countryCode":"JP","stateCode":"03","latitude":39.65724,"longitude":141.85144},{"name":"Miyakojima Shi","countryCode":"JP","stateCode":"47","latitude":24.78574,"longitude":125.30132},{"name":"Miyakonojō","countryCode":"JP","stateCode":"45","latitude":31.73333,"longitude":131.06667},{"name":"Miyakonojō Shi","countryCode":"JP","stateCode":"45","latitude":31.8092,"longitude":131.07904},{"name":"Miyama Shi","countryCode":"JP","stateCode":"40","latitude":33.12369,"longitude":130.4954},{"name":"Miyanoura","countryCode":"JP","stateCode":"46","latitude":30.4269,"longitude":130.57151},{"name":"Miyata","countryCode":"JP","stateCode":"40","latitude":33.70811,"longitude":130.65297},{"name":"Miyawaka Shi","countryCode":"JP","stateCode":"40","latitude":33.71559,"longitude":130.61506},{"name":"Miyazaki","countryCode":"JP","stateCode":"45","latitude":31.91667,"longitude":131.41667},{"name":"Miyazaki-shi","countryCode":"JP","stateCode":"45","latitude":31.96192,"longitude":131.38455},{"name":"Miyazu","countryCode":"JP","stateCode":"26","latitude":35.53333,"longitude":135.18333},{"name":"Miyazu-shi","countryCode":"JP","stateCode":"26","latitude":35.55596,"longitude":135.17662},{"name":"Miyoshi","countryCode":"JP","stateCode":"34","latitude":34.8,"longitude":132.85},{"name":"Miyoshi Shi","countryCode":"JP","stateCode":"34","latitude":34.79201,"longitude":132.86435},{"name":"Miyoshi Shi","countryCode":"JP","stateCode":"36","latitude":33.93349,"longitude":133.85184},{"name":"Miyoshi-gun","countryCode":"JP","stateCode":"36","latitude":34.03647,"longitude":133.91818},{"name":"Miyoshi-shi","countryCode":"JP","stateCode":"23","latitude":35.0948,"longitude":137.0887},{"name":"Miyota","countryCode":"JP","stateCode":"39","latitude":36.32138889,"longitude":138.50888889},{"name":"Mizuho-shi","countryCode":"JP","stateCode":"21","latitude":35.39663,"longitude":136.67022},{"name":"Mizunami","countryCode":"JP","stateCode":"21","latitude":35.36667,"longitude":137.25},{"name":"Mizunami-shi","countryCode":"JP","stateCode":"21","latitude":35.38935,"longitude":137.2736},{"name":"Mizusawa","countryCode":"JP","stateCode":"03","latitude":39.13333,"longitude":141.13333},{"name":"Mobara","countryCode":"JP","stateCode":"12","latitude":35.42583,"longitude":140.29608},{"name":"Mobara Shi","countryCode":"JP","stateCode":"12","latitude":35.44981,"longitude":140.30163},{"name":"Mombetsu","countryCode":"JP","stateCode":"01","latitude":44.3525,"longitude":143.3525},{"name":"Monbetsu Shi","countryCode":"JP","stateCode":"01","latitude":44.20323,"longitude":143.29293},{"name":"Mooka","countryCode":"JP","stateCode":"09","latitude":36.43333,"longitude":140.01667},{"name":"Mooka-shi","countryCode":"JP","stateCode":"09","latitude":36.45,"longitude":140.05},{"name":"Mori","countryCode":"JP","stateCode":"22","latitude":34.83333,"longitude":137.93333},{"name":"Moriguchi","countryCode":"JP","stateCode":"27","latitude":34.73333,"longitude":135.56667},{"name":"Morioka","countryCode":"JP","stateCode":"03","latitude":39.7,"longitude":141.15},{"name":"Morioka-shi","countryCode":"JP","stateCode":"03","latitude":39.74546,"longitude":141.26915},{"name":"Moriya","countryCode":"JP","stateCode":"08","latitude":35.93333,"longitude":140},{"name":"Moriya-shi","countryCode":"JP","stateCode":"08","latitude":35.9514,"longitude":139.97539},{"name":"Moriyama","countryCode":"JP","stateCode":"25","latitude":35.06667,"longitude":135.98333},{"name":"Moriyama-shi","countryCode":"JP","stateCode":"25","latitude":35.08815,"longitude":135.96869},{"name":"Morohongō","countryCode":"JP","stateCode":"11","latitude":35.93556,"longitude":139.30444},{"name":"Motegi","countryCode":"JP","stateCode":"09","latitude":36.51667,"longitude":140.18333},{"name":"Motomachi","countryCode":"JP","stateCode":"01","latitude":43.82634,"longitude":144.09638},{"name":"Motomiya","countryCode":"JP","stateCode":"07","latitude":37.51391,"longitude":140.40063},{"name":"Motomiya-shi","countryCode":"JP","stateCode":"07","latitude":37.51218,"longitude":140.39841},{"name":"Motosu-shi","countryCode":"JP","stateCode":"21","latitude":35.65553,"longitude":136.61991},{"name":"Motoyama","countryCode":"JP","stateCode":"39","latitude":35.16402778,"longitude":136.96361111},{"name":"Muikamachi","countryCode":"JP","stateCode":"15","latitude":37.06667,"longitude":138.88333},{"name":"Mukō Shi","countryCode":"JP","stateCode":"26","latitude":34.94975,"longitude":135.70269},{"name":"Munakata-shi","countryCode":"JP","stateCode":"40","latitude":33.8,"longitude":130.55},{"name":"Murakami Shi","countryCode":"JP","stateCode":"15","latitude":38.31023,"longitude":139.61733},{"name":"Muramatsu","countryCode":"JP","stateCode":"15","latitude":37.69257,"longitude":139.17127},{"name":"Murayama","countryCode":"JP","stateCode":"06","latitude":38.46972,"longitude":140.41441},{"name":"Murayama Shi","countryCode":"JP","stateCode":"06","latitude":38.51671,"longitude":140.33518},{"name":"Muroran","countryCode":"JP","stateCode":"01","latitude":42.31722,"longitude":140.98806},{"name":"Muroran-shi","countryCode":"JP","stateCode":"01","latitude":42.36659,"longitude":140.98845},{"name":"Muroto","countryCode":"JP","stateCode":"39","latitude":33.29,"longitude":134.15194444},{"name":"Musashimurayama-shi","countryCode":"JP","stateCode":"13","latitude":35.75037,"longitude":139.38391},{"name":"Musashino","countryCode":"JP","stateCode":"13","latitude":35.70611,"longitude":139.55944},{"name":"Musashino-shi","countryCode":"JP","stateCode":"13","latitude":35.71771,"longitude":139.566},{"name":"Mutsu","countryCode":"JP","stateCode":"02","latitude":41.28944,"longitude":141.21694},{"name":"Mutsu-shi","countryCode":"JP","stateCode":"02","latitude":41.2909,"longitude":141.03327},{"name":"Myoko-shi","countryCode":"JP","stateCode":"15","latitude":37,"longitude":138.25},{"name":"Nabari","countryCode":"JP","stateCode":"24","latitude":34.61667,"longitude":136.08333},{"name":"Nabari-shi","countryCode":"JP","stateCode":"24","latitude":34.62643,"longitude":136.10825},{"name":"Nagahama","countryCode":"JP","stateCode":"25","latitude":35.38333,"longitude":136.26667},{"name":"Nagahama-shi","countryCode":"JP","stateCode":"25","latitude":35.42256,"longitude":136.26272},{"name":"Nagai","countryCode":"JP","stateCode":"06","latitude":38.10361,"longitude":140.035},{"name":"Nagai-shi","countryCode":"JP","stateCode":"06","latitude":38.16667,"longitude":140},{"name":"Nagakute-shi","countryCode":"JP","stateCode":"23","latitude":35.18335,"longitude":137.04895},{"name":"Nagano","countryCode":"JP","stateCode":"20","latitude":36.65,"longitude":138.18333},{"name":"Nagano","countryCode":"JP","stateCode":"39","latitude":36.64861111,"longitude":138.19277778},{"name":"Nagano Shi","countryCode":"JP","stateCode":"20","latitude":36.65257,"longitude":138.11694},{"name":"Nagaoka","countryCode":"JP","stateCode":"15","latitude":37.45,"longitude":138.85},{"name":"Nagaoka Shi","countryCode":"JP","stateCode":"15","latitude":37.44516,"longitude":138.85678},{"name":"Nagaokakyō Shi","countryCode":"JP","stateCode":"26","latitude":34.9284,"longitude":135.67881},{"name":"Nagareyama","countryCode":"JP","stateCode":"12","latitude":35.8563,"longitude":139.90266},{"name":"Nagareyama-shi","countryCode":"JP","stateCode":"12","latitude":35.85631,"longitude":139.90266},{"name":"Nagasaki","countryCode":"JP","stateCode":"42","latitude":32.75,"longitude":129.88333},{"name":"Nagasaki-shi","countryCode":"JP","stateCode":"42","latitude":32.78206,"longitude":129.82715},{"name":"Nagata","countryCode":"JP","stateCode":"46","latitude":30.39516,"longitude":130.42548},{"name":"Nagato","countryCode":"JP","stateCode":"35","latitude":34.38333,"longitude":131.2},{"name":"Nagato Shi","countryCode":"JP","stateCode":"35","latitude":34.3488,"longitude":131.14703},{"name":"Nagawa","countryCode":"JP","stateCode":"39","latitude":36.25611111,"longitude":138.26777778},{"name":"Nagiso","countryCode":"JP","stateCode":"39","latitude":35.60361111,"longitude":137.60888889},{"name":"Nago","countryCode":"JP","stateCode":"47","latitude":26.61502,"longitude":127.98543},{"name":"Nago Shi","countryCode":"JP","stateCode":"47","latitude":26.58507,"longitude":128.02466},{"name":"Nagoya","countryCode":"JP","stateCode":"23","latitude":35.18147,"longitude":136.90641},{"name":"Naha","countryCode":"JP","stateCode":"47","latitude":26.21667,"longitude":127.68333},{"name":"Naha Shi","countryCode":"JP","stateCode":"47","latitude":26.21077,"longitude":127.68645},{"name":"Nahari","countryCode":"JP","stateCode":"39","latitude":33.42416667,"longitude":134.02111111},{"name":"Naka","countryCode":"JP","stateCode":"08","latitude":36.05,"longitude":140.16667},{"name":"Naka-gun","countryCode":"JP","stateCode":"08","latitude":36.46934,"longitude":140.47943},{"name":"Nakagami-gun","countryCode":"JP","stateCode":"47","latitude":26.30917,"longitude":127.77722},{"name":"Nakagawa","countryCode":"JP","stateCode":"39","latitude":35.63444444,"longitude":137.94611111},{"name":"Nakajō","countryCode":"JP","stateCode":"39","latitude":36.61222222,"longitude":138.03652778},{"name":"Nakama","countryCode":"JP","stateCode":"40","latitude":33.81688,"longitude":130.70962},{"name":"Nakama Shi","countryCode":"JP","stateCode":"40","latitude":33.82081,"longitude":130.70862},{"name":"Nakamura","countryCode":"JP","stateCode":"39","latitude":32.99138889,"longitude":132.93375},{"name":"Nakano","countryCode":"JP","stateCode":"39","latitude":36.74194444,"longitude":138.36944444},{"name":"Nakano Shi","countryCode":"JP","stateCode":"20","latitude":36.7694,"longitude":138.34717},{"name":"Nakano-ku","countryCode":"JP","stateCode":"13","latitude":35.71091,"longitude":139.66248},{"name":"Nakanojōmachi","countryCode":"JP","stateCode":"10","latitude":36.58717,"longitude":138.84083},{"name":"Nakatosa","countryCode":"JP","stateCode":"39","latitude":33.3275,"longitude":133.22833333},{"name":"Nakatsu","countryCode":"JP","stateCode":"44","latitude":33.59811,"longitude":131.1883},{"name":"Nakatsu Shi","countryCode":"JP","stateCode":"44","latitude":33.46458,"longitude":131.12642},{"name":"Nakatsugawa","countryCode":"JP","stateCode":"21","latitude":35.48333,"longitude":137.5},{"name":"Nakatsugawa-shi","countryCode":"JP","stateCode":"21","latitude":35.56656,"longitude":137.47433},{"name":"Namegata","countryCode":"JP","stateCode":"08","latitude":36.00705,"longitude":140.49623},{"name":"Namegata-shi","countryCode":"JP","stateCode":"08","latitude":36.06526,"longitude":140.47173},{"name":"Namerikawa","countryCode":"JP","stateCode":"16","latitude":36.75965,"longitude":137.36215},{"name":"Namerikawa-shi","countryCode":"JP","stateCode":"16","latitude":36.74934,"longitude":137.38129},{"name":"Namie","countryCode":"JP","stateCode":"07","latitude":37.48333,"longitude":141},{"name":"Namioka","countryCode":"JP","stateCode":"02","latitude":40.71069,"longitude":140.59048},{"name":"Nanao Shi","countryCode":"JP","stateCode":"17","latitude":37.07844,"longitude":136.9286},{"name":"Nanjō","countryCode":"JP","stateCode":"47","latitude":26.14447,"longitude":127.76697},{"name":"Nanjō Shi","countryCode":"JP","stateCode":"47","latitude":26.16371,"longitude":127.77874},{"name":"Nankoku","countryCode":"JP","stateCode":"39","latitude":33.57555556,"longitude":133.64138889},{"name":"Nantan-shi","countryCode":"JP","stateCode":"26","latitude":35.2274,"longitude":135.55939},{"name":"Nanto Shi","countryCode":"JP","stateCode":"16","latitude":36.4526,"longitude":136.9143},{"name":"Nanto-shi","countryCode":"JP","stateCode":"16","latitude":36.56922,"longitude":136.91162},{"name":"Nanyō Shi","countryCode":"JP","stateCode":"06","latitude":38.10319,"longitude":140.15609},{"name":"Nara-shi","countryCode":"JP","stateCode":"29","latitude":34.68506,"longitude":135.80485},{"name":"Narashino-shi","countryCode":"JP","stateCode":"12","latitude":35.68091,"longitude":140.03418},{"name":"Narita","countryCode":"JP","stateCode":"12","latitude":35.78333,"longitude":140.31667},{"name":"Narita-shi","countryCode":"JP","stateCode":"12","latitude":35.81547,"longitude":140.35757},{"name":"Narutō","countryCode":"JP","stateCode":"12","latitude":35.6,"longitude":140.41667},{"name":"Naruto-shi","countryCode":"JP","stateCode":"36","latitude":34.17881,"longitude":134.61357},{"name":"Narutochō-mitsuishi","countryCode":"JP","stateCode":"36","latitude":34.19933,"longitude":134.60932},{"name":"Nasukarasuyama","countryCode":"JP","stateCode":"09","latitude":36.65233,"longitude":140.16084},{"name":"Nasukarasuyama-shi","countryCode":"JP","stateCode":"09","latitude":36.6627,"longitude":140.13405},{"name":"Nasushiobara-shi","countryCode":"JP","stateCode":"09","latitude":36.99085,"longitude":139.91052},{"name":"Natori Shi","countryCode":"JP","stateCode":"04","latitude":38.16729,"longitude":140.86666},{"name":"Nayoro","countryCode":"JP","stateCode":"01","latitude":44.35056,"longitude":142.45778},{"name":"Nayoro Shi","countryCode":"JP","stateCode":"01","latitude":44.33951,"longitude":142.45932},{"name":"Naze","countryCode":"JP","stateCode":"46","latitude":28.36667,"longitude":129.48333},{"name":"Neba","countryCode":"JP","stateCode":"39","latitude":35.25305556,"longitude":137.58111111},{"name":"Nemuro","countryCode":"JP","stateCode":"01","latitude":43.32361,"longitude":145.575},{"name":"Nemuro-shi","countryCode":"JP","stateCode":"01","latitude":43.33333,"longitude":145.61667},{"name":"Nerima-ku","countryCode":"JP","stateCode":"13","latitude":35.73551,"longitude":139.65168},{"name":"Neyagawa","countryCode":"JP","stateCode":"27","latitude":34.76615,"longitude":135.62759},{"name":"Neyagawa Shi","countryCode":"JP","stateCode":"27","latitude":34.76539,"longitude":135.62696},{"name":"Nichinan","countryCode":"JP","stateCode":"45","latitude":31.6,"longitude":131.36667},{"name":"Nichinan Shi","countryCode":"JP","stateCode":"45","latitude":31.63737,"longitude":131.33409},{"name":"Nihommatsu","countryCode":"JP","stateCode":"07","latitude":37.58333,"longitude":140.43333},{"name":"Nihonmatsu Shi","countryCode":"JP","stateCode":"07","latitude":37.58402,"longitude":140.49543},{"name":"Niigata","countryCode":"JP","stateCode":"15","latitude":37.88637,"longitude":139.00589},{"name":"Niigata Shi","countryCode":"JP","stateCode":"15","latitude":37.82738,"longitude":139.03303},{"name":"Niihama","countryCode":"JP","stateCode":"38","latitude":33.96047,"longitude":133.30522},{"name":"Niihama-shi","countryCode":"JP","stateCode":"38","latitude":33.9067,"longitude":133.3325},{"name":"Niimi","countryCode":"JP","stateCode":"33","latitude":34.98333,"longitude":133.46667},{"name":"Niimi Shi","countryCode":"JP","stateCode":"33","latitude":35.01571,"longitude":133.449},{"name":"Niitsu-honchō","countryCode":"JP","stateCode":"15","latitude":37.80024,"longitude":139.1224},{"name":"Niiza-shi","countryCode":"JP","stateCode":"11","latitude":35.79345,"longitude":139.56559},{"name":"Nikaho-shi","countryCode":"JP","stateCode":"05","latitude":39.19677,"longitude":139.97305},{"name":"Nikkō","countryCode":"JP","stateCode":"09","latitude":36.75,"longitude":139.61667},{"name":"Nikko-shi","countryCode":"JP","stateCode":"09","latitude":36.75,"longitude":139.7},{"name":"Ninohe","countryCode":"JP","stateCode":"03","latitude":40.29081,"longitude":141.31334},{"name":"Ninohe Shi","countryCode":"JP","stateCode":"03","latitude":40.23798,"longitude":141.19576},{"name":"Ninomiya","countryCode":"JP","stateCode":"14","latitude":35.3015,"longitude":139.25581},{"name":"Nirasaki","countryCode":"JP","stateCode":"19","latitude":35.7,"longitude":138.45},{"name":"Nirasaki-shi","countryCode":"JP","stateCode":"19","latitude":35.71772,"longitude":138.412},{"name":"Niseko Town","countryCode":"JP","stateCode":"01","latitude":42.77871,"longitude":140.66903},{"name":"Nishi-Tokyo-shi","countryCode":"JP","stateCode":"13","latitude":35.72526,"longitude":139.5383},{"name":"Nishifukuma","countryCode":"JP","stateCode":"40","latitude":33.76627,"longitude":130.47461},{"name":"Nishinomiya Shi","countryCode":"JP","stateCode":"28","latitude":34.78194,"longitude":135.30247},{"name":"Nishinomiya-hama","countryCode":"JP","stateCode":"28","latitude":34.71562,"longitude":135.33199},{"name":"Nishinoomote","countryCode":"JP","stateCode":"46","latitude":30.73333,"longitude":131},{"name":"Nishinoomote Shi","countryCode":"JP","stateCode":"46","latitude":30.70536,"longitude":131.01521},{"name":"Nishio","countryCode":"JP","stateCode":"23","latitude":34.86667,"longitude":137.05},{"name":"Nishio-shi","countryCode":"JP","stateCode":"23","latitude":34.86223,"longitude":137.05433},{"name":"Nishishinminato","countryCode":"JP","stateCode":"16","latitude":36.77957,"longitude":137.07576},{"name":"Nishitōkyō-shi","countryCode":"JP","stateCode":"13","latitude":35.73485,"longitude":139.54624},{"name":"Nishiwaki","countryCode":"JP","stateCode":"28","latitude":34.98419,"longitude":134.97407},{"name":"Nishiwaki-shi","countryCode":"JP","stateCode":"28","latitude":35.01098,"longitude":134.9965},{"name":"Nisshin-shi","countryCode":"JP","stateCode":"23","latitude":35.13114,"longitude":137.03934},{"name":"Niyodogawa","countryCode":"JP","stateCode":"39","latitude":33.57527778,"longitude":133.16833333},{"name":"Nobeoka","countryCode":"JP","stateCode":"45","latitude":32.58333,"longitude":131.66667},{"name":"Nobeoka-shi","countryCode":"JP","stateCode":"45","latitude":32.67238,"longitude":131.64311},{"name":"Noboribetsu","countryCode":"JP","stateCode":"01","latitude":42.45215,"longitude":141.17914},{"name":"Noboribetsu-shi","countryCode":"JP","stateCode":"01","latitude":42.46565,"longitude":141.07578},{"name":"Noda","countryCode":"JP","stateCode":"12","latitude":35.94897,"longitude":139.86793},{"name":"Noda-shi","countryCode":"JP","stateCode":"12","latitude":35.98516,"longitude":139.86215},{"name":"Nōgata","countryCode":"JP","stateCode":"40","latitude":33.74051,"longitude":130.72263},