[{"name":"Angkor Chey","countryCode":"KH","stateCode":"7","latitude":10.76667,"longitude":104.65},{"name":"Bakan","countryCode":"KH","stateCode":"15","latitude":12.78,"longitude":103.79},{"name":"Banlung","countryCode":"KH","stateCode":"16","latitude":13.73939,"longitude":106.98727},{"name":"Banteay Meas","countryCode":"KH","stateCode":"7","latitude":10.61667,"longitude":104.53333},{"name":"Baribour","countryCode":"KH","stateCode":"4","latitude":12.43,"longitude":104.47},{"name":"Battambang","countryCode":"KH","stateCode":"2","latitude":13.10271,"longitude":103.19822},{"name":"Cheung Prey","countryCode":"KH","stateCode":"3","latitude":12.1,"longitude":105.07},{"name":"Chhouk District","countryCode":"KH","stateCode":"7","latitude":10.81667,"longitude":104.45},{"name":"Kampong Bay","countryCode":"KH","stateCode":"7","latitude":10.59554,"longitude":104.17136},{"name":"Kampong Cham","countryCode":"KH","stateCode":"3","latitude":11.98,"longitude":105.445},{"name":"Kampong Chhnang","countryCode":"KH","stateCode":"4","latitude":12.26,"longitude":104.67},{"name":"Kampong Speu","countryCode":"KH","stateCode":"5","latitude":11.45332,"longitude":104.52085},{"name":"Kampong Tranch","countryCode":"KH","stateCode":"7","latitude":10.55,"longitude":104.46667},{"name":"Kampot","countryCode":"KH","stateCode":"7","latitude":10.61041,"longitude":104.18145},{"name":"Khan 7 Makara","countryCode":"KH","stateCode":"12","latitude":11.56254,"longitude":104.91405},{"name":"Khan Châmkar Mon","countryCode":"KH","stateCode":"12","latitude":11.5439,"longitude":104.92175},{"name":"Khan Dângkaô","countryCode":"KH","stateCode":"12","latitude":11.52457,"longitude":104.83944},{"name":"Khan Duŏn Pénh","countryCode":"KH","stateCode":"12","latitude":11.57561,"longitude":104.92025},{"name":"Khan Méan Chey","countryCode":"KH","stateCode":"12","latitude":11.51976,"longitude":104.95467},{"name":"Khan Russey Keo","countryCode":"KH","stateCode":"12","latitude":11.61946,"longitude":104.9099},{"name":"Khan Saen Sokh","countryCode":"KH","stateCode":"12","latitude":11.61289,"longitude":104.86078},{"name":"Khan Sala Krau","countryCode":"KH","stateCode":"24","latitude":12.97984,"longitude":102.63957},{"name":"Koh Kong","countryCode":"KH","stateCode":"9","latitude":11.61531,"longitude":102.9838},{"name":"Kracheh","countryCode":"KH","stateCode":"10","latitude":12.57,"longitude":106.2},{"name":"Krakor","countryCode":"KH","stateCode":"15","latitude":12.48,"longitude":104.19},{"name":"Kratié","countryCode":"KH","stateCode":"10","latitude":12.48811,"longitude":106.01879},{"name":"Krŏng Chbar Mon","countryCode":"KH","stateCode":"5","latitude":11.47091,"longitude":104.50655},{"name":"Krŏng Doun Kaev","countryCode":"KH","stateCode":"21","latitude":10.99459,"longitude":104.7955},{"name":"Krong Kep","countryCode":"KH","stateCode":"23","latitude":10.48291,"longitude":104.31672},{"name":"Krŏng Sênmônoŭrôm","countryCode":"KH","stateCode":"11","latitude":12.5048,"longitude":107.15525},{"name":"Krŏng Ta Khmau","countryCode":"KH","stateCode":"8","latitude":11.45474,"longitude":104.9435},{"name":"Lumphat","countryCode":"KH","stateCode":"16","latitude":13.49146,"longitude":106.98022},{"name":"Mongkol Borei","countryCode":"KH","stateCode":"1","latitude":13.45531,"longitude":102.99186},{"name":"Pailin","countryCode":"KH","stateCode":"24","latitude":12.84895,"longitude":102.60928},{"name":"Paoy Paet","countryCode":"KH","stateCode":"1","latitude":13.65805,"longitude":102.56365},{"name":"Phnom Penh","countryCode":"KH","stateCode":"12","latitude":11.56245,"longitude":104.91601},{"name":"Phumĭ Véal Srê","countryCode":"KH","stateCode":"21","latitude":10.98081,"longitude":104.77828},{"name":"Prey Veng","countryCode":"KH","stateCode":"14","latitude":11.48682,"longitude":105.32533},{"name":"Pursat","countryCode":"KH","stateCode":"15","latitude":12.53878,"longitude":103.9192},{"name":"Rolea B'ier","countryCode":"KH","stateCode":"4","latitude":12.21,"longitude":104.61},{"name":"Sampov Meas","countryCode":"KH","stateCode":"15","latitude":12.47055,"longitude":103.91817},{"name":"Samraong","countryCode":"KH","stateCode":"22","latitude":14.18175,"longitude":103.51761},{"name":"Sangkom Thmei","countryCode":"KH","stateCode":"13","latitude":13.47395,"longitude":104.77051},{"name":"Sen Monorom","countryCode":"KH","stateCode":"11","latitude":12.45583,"longitude":107.18811},{"name":"Siem Reap","countryCode":"KH","stateCode":"17","latitude":13.36179,"longitude":103.86056},{"name":"Sihanoukville","countryCode":"KH","stateCode":"18","latitude":10.60932,"longitude":103.52958},{"name":"Sisophon","countryCode":"KH","stateCode":"1","latitude":13.58588,"longitude":102.97369},{"name":"Smach Mean Chey","countryCode":"KH","stateCode":"9","latitude":11.54665,"longitude":103.03569},{"name":"Snuol","countryCode":"KH","stateCode":"10","latitude":12.19373,"longitude":106.47361},{"name":"Srae Ambel","countryCode":"KH","stateCode":"9","latitude":11.10968,"longitude":103.76226},{"name":"Srŏk Âk Phnŭm","countryCode":"KH","stateCode":"2","latitude":13.23621,"longitude":103.45894},{"name":"Srŏk Ândong Méas","countryCode":"KH","stateCode":"16","latitude":13.93352,"longitude":107.31155},{"name":"Srŏk Ângkôr Borei","countryCode":"KH","stateCode":"21","latitude":10.99291,"longitude":104.95177},{"name":"Srŏk Ângkôr Thum","countryCode":"KH","stateCode":"17","latitude":13.57881,"longitude":103.85645},{"name":"Srŏk Bâ Kêv","countryCode":"KH","stateCode":"16","latitude":13.70749,"longitude":107.19442},{"name":"Srŏk Ban Lŭng","countryCode":"KH","stateCode":"16","latitude":13.682,"longitude":107.03025},{"name":"Srŏk Banăn","countryCode":"KH","stateCode":"2","latitude":12.97067,"longitude":103.04742},{"name":"Srŏk Bântéay Âmpĭl","countryCode":"KH","stateCode":"22","latitude":14.1859,"longitude":103.25925},{"name":"Srŏk Basedth","countryCode":"KH","stateCode":"5","latitude":11.18432,"longitude":104.53584},{"name":"Srŏk Bathéay","countryCode":"KH","stateCode":"3","latitude":12.02986,"longitude":104.93171},{"name":"Srŏk Batum Sakôr","countryCode":"KH","stateCode":"9","latitude":11.11465,"longitude":103.38993},{"name":"Srŏk Bâvĭl","countryCode":"KH","stateCode":"2","latitude":13.23601,"longitude":102.8291},{"name":"Srŏk Borei Cholsar","countryCode":"KH","stateCode":"21","latitude":10.81414,"longitude":104.98994},{"name":"Srŏk Ch’êh Sên","countryCode":"KH","stateCode":"13","latitude":13.58215,"longitude":105.34533},{"name":"Srŏk Chhêb","countryCode":"KH","stateCode":"13","latitude":13.91077,"longitude":105.4618},{"name":"Srŏk Chol Kiri","countryCode":"KH","stateCode":"4","latitude":12.15861,"longitude":104.82287},{"name":"Srŏk Chŭm Kiri","countryCode":"KH","stateCode":"7","latitude":11.0054,"longitude":104.44207},{"name":"Srŏk Dâmnăk Châng’aeur","countryCode":"KH","stateCode":"23","latitude":10.53394,"longitude":104.34855},{"name":"Srŏk Dângtóng","countryCode":"KH","stateCode":"7","latitude":10.70733,"longitude":104.42229},{"name":"Srŏk Kaev Seima","countryCode":"KH","stateCode":"11","latitude":12.41722,"longitude":106.77025},{"name":"Srŏk Kâmpóng Léav","countryCode":"KH","stateCode":"14","latitude":11.5097,"longitude":105.3011},{"name":"Srŏk Kândiĕng","countryCode":"KH","stateCode":"15","latitude":12.71245,"longitude":104.02592},{"name":"Srŏk Khsăch Kândal","countryCode":"KH","stateCode":"8","latitude":11.69224,"longitude":105.03732},{"name":"Srŏk Kông Pĭsei","countryCode":"KH","stateCode":"5","latitude":11.31648,"longitude":104.65992},{"name":"Srŏk Koun Mom","countryCode":"KH","stateCode":"16","latitude":13.51772,"longitude":106.75142},{"name":"Srŏk Kulén","countryCode":"KH","stateCode":"13","latitude":13.78597,"longitude":104.61052},{"name":"Srŏk Malai","countryCode":"KH","stateCode":"1","latitude":13.49902,"longitude":102.60164},{"name":"Srŏk Mésang","countryCode":"KH","stateCode":"14","latitude":11.35528,"longitude":105.57235},{"name":"Srŏk Môndôl Seima","countryCode":"KH","stateCode":"9","latitude":11.81292,"longitude":103.01159},{"name":"Srŏk Ŏdŏngk","countryCode":"KH","stateCode":"5","latitude":11.66845,"longitude":104.61224},{"name":"Srŏk Ou Chum","countryCode":"KH","stateCode":"16","latitude":13.84069,"longitude":107.03469},{"name":"Srŏk Ou Ya Dav","countryCode":"KH","stateCode":"16","latitude":13.54328,"longitude":107.44636},{"name":"Srŏk Pech Chreada","countryCode":"KH","stateCode":"11","latitude":12.7278,"longitude":107.0948},{"name":"Srŏk Prasat Bakong","countryCode":"KH","stateCode":"17","latitude":13.21031,"longitude":103.97689},{"name":"Srŏk Preăh Sdéch","countryCode":"KH","stateCode":"14","latitude":11.0869,"longitude":105.37497},{"name":"Srŏk Rotanak Mondol","countryCode":"KH","stateCode":"2","latitude":12.84048,"longitude":102.887},{"name":"Srŏk Rôviĕng","countryCode":"KH","stateCode":"13","latitude":13.35105,"longitude":105.09956},{"name":"Srŏk Sameakki Mean Chey","countryCode":"KH","stateCode":"4","latitude":11.86788,"longitude":104.55549},{"name":"Srŏk Sâmraông","countryCode":"KH","stateCode":"22","latitude":14.25039,"longitude":103.62739},{"name":"Srŏk Srêsén","countryCode":"KH","stateCode":"19","latitude":13.6053,"longitude":106.35819},{"name":"Srok Stueng Hav","countryCode":"KH","stateCode":"18","latitude":10.85249,"longitude":103.74016},{"name":"Srŏk Svay Chék","countryCode":"KH","stateCode":"1","latitude":13.81305,"longitude":102.95269},{"name":"Srŏk Svay Chrŭm","countryCode":"KH","stateCode":"20","latitude":11.1116,"longitude":105.69814},{"name":"Srŏk Ta Vêng","countryCode":"KH","stateCode":"16","latitude":14.29192,"longitude":107.24031},{"name":"Srŏk Tbêng Méanchey","countryCode":"KH","stateCode":"13","latitude":13.78622,"longitude":105.01586},{"name":"Srŏk Trâpeăng Prasat","countryCode":"KH","stateCode":"22","latitude":14.25809,"longitude":104.30835},{"name":"Srok Tuek Chhou","countryCode":"KH","stateCode":"7","latitude":10.74557,"longitude":104.11013},{"name":"Srŏk Véal Vêng","countryCode":"KH","stateCode":"15","latitude":12.2423,"longitude":103.13444},{"name":"Stueng Traeng","countryCode":"KH","stateCode":"19","latitude":13.65,"longitude":106.07},{"name":"Stung Treng","countryCode":"KH","stateCode":"19","latitude":13.52586,"longitude":105.9683},{"name":"Svay Leu","countryCode":"KH","stateCode":"17","latitude":13.69168,"longitude":104.27446},{"name":"Svay Rieng","countryCode":"KH","stateCode":"20","latitude":11.08785,"longitude":105.79935},{"name":"Ta Khmau","countryCode":"KH","stateCode":"8","latitude":11.48333,"longitude":104.95},{"name":"Takeo","countryCode":"KH","stateCode":"21","latitude":10.99081,"longitude":104.78498},{"name":"Tbeng Meanchey","countryCode":"KH","stateCode":"13","latitude":13.80731,"longitude":104.98046},{"name":"Varin","countryCode":"KH","stateCode":"17","latitude":13.83574,"longitude":103.89968}]
