[{"name":"Adda-Douéni","countryCode":"KM","stateCode":"A","latitude":-12.2925,"longitude":44.49722},{"name":"Antsahé","countryCode":"KM","stateCode":"A","latitude":-12.35639,"longitude":44.5225},{"name":"Assimpao","countryCode":"KM","stateCode":"A","latitude":-12.23306,"longitude":44.31972},{"name":"Bahani","countryCode":"KM","stateCode":"G","latitude":-11.63972,"longitude":43.28417},{"name":"Bambadjani","countryCode":"KM","stateCode":"G","latitude":-11.47861,"longitude":43.37722},{"name":"Bambao","countryCode":"KM","stateCode":"A","latitude":-12.20325,"longitude":44.51638},{"name":"Bandajou","countryCode":"KM","stateCode":"A","latitude":-12.19167,"longitude":44.28694},{"name":"Barakani","countryCode":"KM","stateCode":"A","latitude":-12.13861,"longitude":44.43026},{"name":"Bimbini","countryCode":"KM","stateCode":"A","latitude":-12.18833,"longitude":44.23556},{"name":"Boungouéni","countryCode":"KM","stateCode":"A","latitude":-12.20556,"longitude":44.29944},{"name":"Bouni","countryCode":"KM","stateCode":"G","latitude":-11.48694,"longitude":43.38833},{"name":"Chandra","countryCode":"KM","stateCode":"A","latitude":-12.195,"longitude":44.46472},{"name":"Chezani","countryCode":"KM","stateCode":"G","latitude":-11.4314,"longitude":43.39625},{"name":"Chindini","countryCode":"KM","stateCode":"G","latitude":-11.92328,"longitude":43.49109},{"name":"Chironkamba","countryCode":"KM","stateCode":"A","latitude":-12.19111,"longitude":44.3525},{"name":"Chitrouni","countryCode":"KM","stateCode":"A","latitude":-12.18583,"longitude":44.33556},{"name":"Chouani","countryCode":"KM","stateCode":"G","latitude":-11.8233,"longitude":43.29429},{"name":"Daji","countryCode":"KM","stateCode":"A","latitude":-12.32583,"longitude":44.48861},{"name":"Dembéni","countryCode":"KM","stateCode":"G","latitude":-11.87361,"longitude":43.39778},{"name":"Djoyézi","countryCode":"KM","stateCode":"M","latitude":-12.30587,"longitude":43.77425},{"name":"Domoni","countryCode":"KM","stateCode":"A","latitude":-12.25694,"longitude":44.53194},{"name":"Douniani","countryCode":"KM","stateCode":"G","latitude":-11.42111,"longitude":43.28889},{"name":"Dzahadjou","countryCode":"KM","stateCode":"G","latitude":-11.85287,"longitude":43.34987},{"name":"Dziani","countryCode":"KM","stateCode":"A","latitude":-12.18333,"longitude":44.48333},{"name":"Fomboni","countryCode":"KM","stateCode":"M","latitude":-12.28759,"longitude":43.74344},{"name":"Foumbouni","countryCode":"KM","stateCode":"G","latitude":-11.86537,"longitude":43.49529},{"name":"Hajoho","countryCode":"KM","stateCode":"A","latitude":-12.12434,"longitude":44.48881},{"name":"Hantsindzi","countryCode":"KM","stateCode":"G","latitude":-11.43178,"longitude":43.41102},{"name":"Harembo","countryCode":"KM","stateCode":"A","latitude":-12.15108,"longitude":44.49828},{"name":"Héroumbili","countryCode":"KM","stateCode":"G","latitude":-11.54389,"longitude":43.37972},{"name":"Hoani","countryCode":"KM","stateCode":"M","latitude":-12.25083,"longitude":43.67472},{"name":"Itsandra","countryCode":"KM","stateCode":"G","latitude":-11.67111,"longitude":43.25472},{"name":"Itsandzéni","countryCode":"KM","stateCode":"G","latitude":-11.47278,"longitude":43.38444},{"name":"Ivouani","countryCode":"KM","stateCode":"G","latitude":-11.39157,"longitude":43.39454},{"name":"Kangani","countryCode":"KM","stateCode":"A","latitude":-12.32102,"longitude":44.4727},{"name":"Kavani","countryCode":"KM","stateCode":"A","latitude":-12.19194,"longitude":44.26944},{"name":"Koki","countryCode":"KM","stateCode":"A","latitude":-12.17139,"longitude":44.44167},{"name":"Koni-Djodjo","countryCode":"KM","stateCode":"A","latitude":-12.22972,"longitude":44.48167},{"name":"Koni-Ngani","countryCode":"KM","stateCode":"A","latitude":-12.21583,"longitude":44.48},{"name":"Koua","countryCode":"KM","stateCode":"G","latitude":-11.42083,"longitude":43.27639},{"name":"Kyo","countryCode":"KM","stateCode":"A","latitude":-12.33222,"longitude":44.51917},{"name":"Limbi","countryCode":"KM","stateCode":"A","latitude":-12.23944,"longitude":44.50528},{"name":"Lingoni","countryCode":"KM","stateCode":"A","latitude":-12.25583,"longitude":44.41833},{"name":"Madjeouéni","countryCode":"KM","stateCode":"G","latitude":-11.82167,"longitude":43.27806},{"name":"Magnassini-Nindri","countryCode":"KM","stateCode":"A","latitude":-12.27806,"longitude":44.41583},{"name":"Mandza","countryCode":"KM","stateCode":"G","latitude":-11.41806,"longitude":43.29528},{"name":"Maraharé","countryCode":"KM","stateCode":"A","latitude":-12.23083,"longitude":44.31333},{"name":"Mavingouni","countryCode":"KM","stateCode":"G","latitude":-11.71639,"longitude":43.2525},{"name":"Mbéni","countryCode":"KM","stateCode":"G","latitude":-11.50139,"longitude":43.3775},{"name":"Mirontsi","countryCode":"KM","stateCode":"A","latitude":-12.15667,"longitude":44.40806},{"name":"Mitsamiouli","countryCode":"KM","stateCode":"G","latitude":-11.38472,"longitude":43.28444},{"name":"Mitsoudjé","countryCode":"KM","stateCode":"G","latitude":-11.81209,"longitude":43.28043},{"name":"Mjamaoué","countryCode":"KM","stateCode":"A","latitude":-12.19361,"longitude":44.31},{"name":"Mjimandra","countryCode":"KM","stateCode":"A","latitude":-12.19167,"longitude":44.37028},{"name":"Mnoungou","countryCode":"KM","stateCode":"G","latitude":-11.51778,"longitude":43.37389},{"name":"Mohoro","countryCode":"KM","stateCode":"G","latitude":-11.82701,"longitude":43.45436},{"name":"Moroni","countryCode":"KM","stateCode":"G","latitude":-11.70216,"longitude":43.25506},{"name":"Moutsamoudou","countryCode":"KM","stateCode":"A","latitude":-12.16672,"longitude":44.39944},{"name":"Moya","countryCode":"KM","stateCode":"A","latitude":-12.30967,"longitude":44.43685},{"name":"Mramani","countryCode":"KM","stateCode":"A","latitude":-12.34639,"longitude":44.52861},{"name":"Mrémani","countryCode":"KM","stateCode":"A","latitude":-12.30833,"longitude":44.49861},{"name":"Mtakoudja","countryCode":"KM","stateCode":"M","latitude":-12.26111,"longitude":43.70361},{"name":"Mtsamdou","countryCode":"KM","stateCode":"G","latitude":-11.60694,"longitude":43.38056},{"name":"Mvouni","countryCode":"KM","stateCode":"G","latitude":-11.71611,"longitude":43.26472},{"name":"Nioumachoua","countryCode":"KM","stateCode":"M","latitude":-12.36139,"longitude":43.71528},{"name":"Nioumamilima","countryCode":"KM","stateCode":"G","latitude":-11.85461,"longitude":43.44607},{"name":"Ntsaouéni","countryCode":"KM","stateCode":"G","latitude":-11.46583,"longitude":43.26278},{"name":"Ntsoudjini","countryCode":"KM","stateCode":"G","latitude":-11.65972,"longitude":43.26139},{"name":"Ongoni","countryCode":"KM","stateCode":"A","latitude":-12.17028,"longitude":44.50694},{"name":"Ouanani","countryCode":"KM","stateCode":"M","latitude":-12.3375,"longitude":43.7975},{"name":"Ouani","countryCode":"KM","stateCode":"A","latitude":-12.13554,"longitude":44.42493},{"name":"Ouellah","countryCode":"KM","stateCode":"G","latitude":-11.39028,"longitude":43.33194},{"name":"Ouhozi","countryCode":"KM","stateCode":"G","latitude":-11.405,"longitude":43.28222},{"name":"Ourovéni","countryCode":"KM","stateCode":"G","latitude":-11.91375,"longitude":43.49804},{"name":"Oussivo","countryCode":"KM","stateCode":"G","latitude":-11.585,"longitude":43.26722},{"name":"Ouzini","countryCode":"KM","stateCode":"A","latitude":-12.26722,"longitude":44.47972},{"name":"Pajé","countryCode":"KM","stateCode":"A","latitude":-12.16972,"longitude":44.38806},{"name":"Patsi","countryCode":"KM","stateCode":"A","latitude":-12.15556,"longitude":44.43722},{"name":"Salimani","countryCode":"KM","stateCode":"G","latitude":-11.8115,"longitude":43.26823},{"name":"Séléa","countryCode":"KM","stateCode":"G","latitude":-11.78444,"longitude":43.26083},{"name":"Sima","countryCode":"KM","stateCode":"A","latitude":-12.19556,"longitude":44.27667},{"name":"Singani","countryCode":"KM","stateCode":"G","latitude":-11.84784,"longitude":43.31731},{"name":"Tsidjé","countryCode":"KM","stateCode":"G","latitude":-11.69806,"longitude":43.26194},{"name":"Tsimbeo","countryCode":"KM","stateCode":"A","latitude":-12.20583,"longitude":44.46472},{"name":"Vanadjou","countryCode":"KM","stateCode":"G","latitude":-11.6075,"longitude":43.27611},{"name":"Vanambouani","countryCode":"KM","stateCode":"G","latitude":-11.61139,"longitude":43.25306},{"name":"Vouani","countryCode":"KM","stateCode":"A","latitude":-12.24417,"longitude":44.37444},{"name":"Ziroudani","countryCode":"KM","stateCode":"M","latitude":-12.3325,"longitude":43.7775}]
