[{"name":"Anak","countryCode":"KP","stateCode":"06","latitude":38.51083,"longitude":125.49417},{"name":"Anbyŏn-ŭp","countryCode":"KP","stateCode":"07","latitude":39.0425,"longitude":127.52389},{"name":"Anju","countryCode":"KP","stateCode":"02","latitude":39.61778,"longitude":125.66472},{"name":"Aoji","countryCode":"KP","stateCode":"09","latitude":42.52448,"longitude":130.39718},{"name":"Ayang-ni","countryCode":"KP","stateCode":"05","latitude":38.24306,"longitude":125.78},{"name":"Chaeryŏng-ŭp","countryCode":"KP","stateCode":"05","latitude":38.39917,"longitude":125.61556},{"name":"Changgang-gun","countryCode":"KP","stateCode":"04","latitude":41.06333,"longitude":126.72556},{"name":"Changyŏn","countryCode":"KP","stateCode":"05","latitude":38.25083,"longitude":125.09611},{"name":"Chasŏng","countryCode":"KP","stateCode":"04","latitude":41.46083,"longitude":126.64139},{"name":"Chongjin","countryCode":"KP","stateCode":"09","latitude":41.79556,"longitude":129.77583},{"name":"Chŏngju","countryCode":"KP","stateCode":"03","latitude":39.69333,"longitude":125.21028},{"name":"Chŏngju-gun","countryCode":"KP","stateCode":"03","latitude":39.70944,"longitude":125.25278},{"name":"Chunghwa","countryCode":"KP","stateCode":"01","latitude":38.86389,"longitude":125.8},{"name":"Haeju","countryCode":"KP","stateCode":"05","latitude":38.04056,"longitude":125.71472},{"name":"Hamhŭng","countryCode":"KP","stateCode":"08","latitude":39.91833,"longitude":127.53639},{"name":"Hau-ri","countryCode":"KP","stateCode":"09","latitude":41.20056,"longitude":129.47028},{"name":"Hoemul-li","countryCode":"KP","stateCode":"09","latitude":41.43389,"longitude":129.67},{"name":"Hoeryŏng","countryCode":"KP","stateCode":"09","latitude":42.44113,"longitude":129.74601},{"name":"Hoeyang","countryCode":"KP","stateCode":"07","latitude":38.71028,"longitude":127.59833},{"name":"Hongwŏn","countryCode":"KP","stateCode":"08","latitude":40.02528,"longitude":127.95583},{"name":"Hŭkkyo-ri","countryCode":"KP","stateCode":"06","latitude":38.79861,"longitude":125.79194},{"name":"Hŭngnam","countryCode":"KP","stateCode":"08","latitude":39.83167,"longitude":127.61861},{"name":"Hwangju-ŭp","countryCode":"KP","stateCode":"06","latitude":38.67028,"longitude":125.77611},{"name":"Hyesan","countryCode":"KP","stateCode":"10","latitude":41.40167,"longitude":128.17778},{"name":"Hyesan-dong","countryCode":"KP","stateCode":"10","latitude":41.39756,"longitude":128.17873},{"name":"Iwŏn-ŭp","countryCode":"KP","stateCode":"08","latitude":40.32306,"longitude":128.65528},{"name":"Kaesŏng","countryCode":"KP","stateCode":"05","latitude":37.97083,"longitude":126.55444},{"name":"Kangdong-ŭp","countryCode":"KP","stateCode":"01","latitude":39.1425,"longitude":126.09611},{"name":"Kanggye","countryCode":"KP","stateCode":"04","latitude":40.96946,"longitude":126.58523},{"name":"Kapsan-ŭp","countryCode":"KP","stateCode":"10","latitude":41.09028,"longitude":128.29333},{"name":"Kilju","countryCode":"KP","stateCode":"09","latitude":40.96417,"longitude":129.32778},{"name":"Kimch’aek-si","countryCode":"KP","stateCode":"09","latitude":40.66889,"longitude":129.18972},{"name":"Koksan","countryCode":"KP","stateCode":"06","latitude":38.78194,"longitude":126.66639},{"name":"Komusan Il-tong","countryCode":"KP","stateCode":"09","latitude":42.10914,"longitude":129.69997},{"name":"Kosan","countryCode":"KP","stateCode":"07","latitude":38.85583,"longitude":127.41806},{"name":"Kowŏn-ŭp","countryCode":"KP","stateCode":"08","latitude":39.43806,"longitude":127.24306},{"name":"Kujang-ŭp","countryCode":"KP","stateCode":"03","latitude":39.86722,"longitude":126.03028},{"name":"Kusŏng","countryCode":"KP","stateCode":"03","latitude":39.98111,"longitude":125.24472},{"name":"Kwaksan","countryCode":"KP","stateCode":"03","latitude":39.6875,"longitude":125.08278},{"name":"Kyŏngsŏng","countryCode":"KP","stateCode":"09","latitude":41.58778,"longitude":129.60611},{"name":"Kyŏngwŏn","countryCode":"KP","stateCode":"09","latitude":42.81361,"longitude":130.15278},{"name":"Manp’o","countryCode":"KP","stateCode":"04","latitude":41.15472,"longitude":126.28944},{"name":"Musan-ŭp","countryCode":"KP","stateCode":"09","latitude":42.22609,"longitude":129.20776},{"name":"Namp’o","countryCode":"KP","stateCode":"02","latitude":38.7375,"longitude":125.40778},{"name":"Namyang-dong","countryCode":"KP","stateCode":"09","latitude":42.95,"longitude":129.86667},{"name":"Nanam","countryCode":"KP","stateCode":"09","latitude":41.71361,"longitude":129.68444},{"name":"Ongjin","countryCode":"KP","stateCode":"05","latitude":37.93472,"longitude":125.36194},{"name":"Onsŏng","countryCode":"KP","stateCode":"09","latitude":42.95722,"longitude":129.99333},{"name":"P’yŏngsŏng","countryCode":"KP","stateCode":"02","latitude":39.24639,"longitude":125.87194},{"name":"Panghyŏn-dong","countryCode":"KP","stateCode":"03","latitude":39.88722,"longitude":125.24139},{"name":"Pukchil-lodongjagu","countryCode":"KP","stateCode":"03","latitude":40.20194,"longitude":125.74833},{"name":"Puryŏng","countryCode":"KP","stateCode":"09","latitude":42.06056,"longitude":129.71167},{"name":"Pyŏksŏng-ŭp","countryCode":"KP","stateCode":"05","latitude":38.0475,"longitude":125.55667},{"name":"Pyongyang","countryCode":"KP","stateCode":"01","latitude":39.03385,"longitude":125.75432},{"name":"Sakchu-ŭp","countryCode":"KP","stateCode":"03","latitude":40.38944,"longitude":125.04667},{"name":"Samho-rodongjagu","countryCode":"KP","stateCode":"08","latitude":39.9475,"longitude":127.87111},{"name":"Sangsŏng-ni","countryCode":"KP","stateCode":"02","latitude":39.16944,"longitude":126.88556},{"name":"Sariwŏn","countryCode":"KP","stateCode":"06","latitude":38.50722,"longitude":125.75583},{"name":"Sil-li","countryCode":"KP","stateCode":"02","latitude":39.49472,"longitude":125.47361},{"name":"Sinanju","countryCode":"KP","stateCode":"02","latitude":39.59806,"longitude":125.60972},{"name":"Sinmak","countryCode":"KP","stateCode":"06","latitude":38.41667,"longitude":126.23333},{"name":"Sinsang-ni","countryCode":"KP","stateCode":"08","latitude":39.65028,"longitude":127.40583},{"name":"Sinŭiju","countryCode":"KP","stateCode":"03","latitude":40.10056,"longitude":124.39806},{"name":"Sŏnbong","countryCode":"KP","stateCode":"13","latitude":42.35118,"longitude":130.38307},{"name":"Songnim","countryCode":"KP","stateCode":"06","latitude":38.75417,"longitude":125.645},{"name":"Sunan","countryCode":"KP","stateCode":"01","latitude":39.19833,"longitude":125.69},{"name":"Sunch’ŏn","countryCode":"KP","stateCode":"02","latitude":39.43167,"longitude":125.93278},{"name":"Sŭngam-nodongjagu","countryCode":"KP","stateCode":"09","latitude":41.66972,"longitude":129.66889},{"name":"Sŭngho 1-tong","countryCode":"KP","stateCode":"01","latitude":38.99139,"longitude":125.97778},{"name":"Sŭngjibaegam","countryCode":"KP","stateCode":"10","latitude":41.24278,"longitude":128.79889},{"name":"T’ongch’ŏn-ŭp","countryCode":"KP","stateCode":"07","latitude":38.95389,"longitude":127.89167},{"name":"Ŭiju","countryCode":"KP","stateCode":"03","latitude":40.19944,"longitude":124.53167},{"name":"Ungsang-nodongjagu","countryCode":"KP","stateCode":"13","latitude":42.35778,"longitude":130.46222},{"name":"Wŏnsan","countryCode":"KP","stateCode":"07","latitude":39.15278,"longitude":127.44361},{"name":"Yŏmju-ŭp","countryCode":"KP","stateCode":"03","latitude":39.89333,"longitude":124.59806},{"name":"Yŏnan-ŭp","countryCode":"KP","stateCode":"05","latitude":37.90889,"longitude":126.16111},{"name":"Yŏngbyŏn","countryCode":"KP","stateCode":"03","latitude":39.81333,"longitude":125.80417},{"name":"Yonggang-ŭp","countryCode":"KP","stateCode":"02","latitude":38.85611,"longitude":125.42444},{"name":"Yŏnggwang-ŭp","countryCode":"KP","stateCode":"08","latitude":40.01833,"longitude":127.45472},{"name":"Yuktae-dong","countryCode":"KP","stateCode":"08","latitude":40.02472,"longitude":128.15972}]
