[{"name":"Active Hill","countryCode":"LC","stateCode":"02","latitude":14.0194,"longitude":-60.97767},{"name":"Agard Lands/Morne Dudon","countryCode":"LC","stateCode":"02","latitude":14.00768,"longitude":-60.96462},{"name":"Almondale","countryCode":"LC","stateCode":"02","latitude":14.01848,"longitude":-60.96162},{"name":"Annus","countryCode":"LC","stateCode":"07","latitude":13.77449,"longitude":-61.00511},{"name":"Anse Canot","countryCode":"LC","stateCode":"05","latitude":13.90871,"longitude":-60.9044},{"name":"Anse Chastanet","countryCode":"LC","stateCode":"10","latitude":13.86426,"longitude":-61.07016},{"name":"Anse Cochon","countryCode":"LC","stateCode":"12","latitude":13.92261,"longitude":-61.0525},{"name":"Anse Galet","countryCode":"LC","stateCode":"12","latitude":13.93221,"longitude":-61.0429},{"name":"Anse Ger","countryCode":"LC","stateCode":"08","latitude":13.79567,"longitude":-60.91567},{"name":"Anse La Raye","countryCode":"LC","stateCode":"01","latitude":13.94619,"longitude":-61.03879},{"name":"Anse La Verdue","countryCode":"LC","stateCode":"12","latitude":13.90964,"longitude":-61.04755},{"name":"Athens","countryCode":"LC","stateCode":"05","latitude":13.90574,"longitude":-60.89184},{"name":"Au Leon","countryCode":"LC","stateCode":"05","latitude":13.95245,"longitude":-60.90456},{"name":"Au Tabor","countryCode":"LC","stateCode":"01","latitude":13.9454,"longitude":-61.04112},{"name":"Au Tabor Hill","countryCode":"LC","stateCode":"01","latitude":13.94457,"longitude":-61.03559},{"name":"Augier","countryCode":"LC","stateCode":"11","latitude":13.76669,"longitude":-60.98063},{"name":"Aurendel Hill","countryCode":"LC","stateCode":"02","latitude":14.00069,"longitude":-60.9867},{"name":"Babonneau Proper","countryCode":"LC","stateCode":"02","latitude":14.00535,"longitude":-60.9464},{"name":"Bagatelle","countryCode":"LC","stateCode":"02","latitude":13.99797,"longitude":-60.98156},{"name":"Balata","countryCode":"LC","stateCode":"02","latitude":14.01471,"longitude":-60.95167},{"name":"Balca","countryCode":"LC","stateCode":"07","latitude":13.77117,"longitude":-61.02389},{"name":"Balca/En Leur Ba","countryCode":"LC","stateCode":"07","latitude":13.77638,"longitude":-61.01931},{"name":"Balembouche","countryCode":"LC","stateCode":"07","latitude":13.75992,"longitude":-61.0284},{"name":"Banannes Bay","countryCode":"LC","stateCode":"02","latitude":14.01087,"longitude":-61.00135},{"name":"Banse","countryCode":"LC","stateCode":"07","latitude":13.79211,"longitude":-60.99282},{"name":"Banse La Grace","countryCode":"LC","stateCode":"07","latitude":13.7815,"longitude":-60.9984},{"name":"Bara Bara","countryCode":"LC","stateCode":"05","latitude":13.95911,"longitude":-60.93414},{"name":"Barnard Hill","countryCode":"LC","stateCode":"02","latitude":14.01423,"longitude":-60.98924},{"name":"Barons Drive/Coin De L'Anse","countryCode":"LC","stateCode":"10","latitude":13.85138,"longitude":-61.05939},{"name":"Barre Denis","countryCode":"LC","stateCode":"02","latitude":13.96809,"longitude":-60.99073},{"name":"Barre Duchaussee","countryCode":"LC","stateCode":"02","latitude":13.9619,"longitude":-60.99678},{"name":"Barre St.Joseph","countryCode":"LC","stateCode":"02","latitude":13.97247,"longitude":-61.01829},{"name":"Bazile","countryCode":"LC","stateCode":"05","latitude":13.91082,"longitude":-60.9243},{"name":"Beane Field","countryCode":"LC","stateCode":"11","latitude":13.73976,"longitude":-60.94741},{"name":"Beasejour/Myers Bridge","countryCode":"LC","stateCode":"10","latitude":13.82147,"longitude":-61.03396},{"name":"Beauchamp","countryCode":"LC","stateCode":"08","latitude":13.81778,"longitude":-60.91528},{"name":"Beausejour","countryCode":"LC","stateCode":"06","latitude":14.07647,"longitude":-60.9378},{"name":"Beausejour","countryCode":"LC","stateCode":"11","latitude":13.75229,"longitude":-60.95519},{"name":"Beausejour/Fostin'S Development","countryCode":"LC","stateCode":"06","latitude":14.07445,"longitude":-60.92929},{"name":"Beausejour/Ndc","countryCode":"LC","stateCode":"06","latitude":14.07733,"longitude":-60.92683},{"name":"Belair","countryCode":"LC","stateCode":"02","latitude":13.95283,"longitude":-60.99747},{"name":"Bella Rosa","countryCode":"LC","stateCode":"02","latitude":14.00777,"longitude":-60.99628},{"name":"Bella Rosa","countryCode":"LC","stateCode":"06","latitude":14.07711,"longitude":-60.94568},{"name":"Belle Plaine","countryCode":"LC","stateCode":"10","latitude":13.827,"longitude":-61.03127},{"name":"Belle Vue","countryCode":"LC","stateCode":"03","latitude":13.8051,"longitude":-61.03615},{"name":"Belle Vue","countryCode":"LC","stateCode":"06","latitude":14.0847,"longitude":-60.94342},{"name":"Belle Vue","countryCode":"LC","stateCode":"11","latitude":13.79218,"longitude":-60.95379},{"name":"Belle Vue Estate","countryCode":"LC","stateCode":"06","latitude":14.0884,"longitude":-60.94613},{"name":"Bellefond","countryCode":"LC","stateCode":"10","latitude":13.82753,"longitude":-61.04269},{"name":"Belmont","countryCode":"LC","stateCode":"05","latitude":13.95044,"longitude":-60.93276},{"name":"Belvedere","countryCode":"LC","stateCode":"10","latitude":13.8344,"longitude":-61.01771},{"name":"Belvedere","countryCode":"LC","stateCode":"12","latitude":13.89122,"longitude":-61.0555},{"name":"Bexon","countryCode":"LC","stateCode":"02","latitude":13.96077,"longitude":-60.97497},{"name":"Bisee","countryCode":"LC","stateCode":"02","latitude":14.02429,"longitude":-60.97445},{"name":"Bishop'S Gap","countryCode":"LC","stateCode":"02","latitude":14.00019,"longitude":-60.98498},{"name":"Bissee","countryCode":"LC","stateCode":"02","latitude":14.02255,"longitude":-60.97489},{"name":"Black Bay","countryCode":"LC","stateCode":"11","latitude":13.7433,"longitude":-60.98272},{"name":"Black Mallet","countryCode":"LC","stateCode":"02","latitude":14.00457,"longitude":-60.98811},{"name":"Blanchard","countryCode":"LC","stateCode":"08","latitude":13.80616,"longitude":-60.9463},{"name":"Bocage","countryCode":"LC","stateCode":"02","latitude":14.00199,"longitude":-60.96954},{"name":"Boguis","countryCode":"LC","stateCode":"06","latitude":14.01548,"longitude":-60.92089},{"name":"Boguis/Desa Blond","countryCode":"LC","stateCode":"06","latitude":14.01057,"longitude":-60.92565},{"name":"Bois Catchet","countryCode":"LC","stateCode":"02","latitude":14.00399,"longitude":-60.99437},{"name":"Bois D'Inde","countryCode":"LC","stateCode":"01","latitude":13.94148,"longitude":-61.00966},{"name":"Bois D'Inde","countryCode":"LC","stateCode":"10","latitude":13.8365,"longitude":-61.03491},{"name":"Bois D'Orange","countryCode":"LC","stateCode":"06","latitude":14.05803,"longitude":-60.95992},{"name":"Bois D'Ornange/Trouya","countryCode":"LC","stateCode":"06","latitude":14.06198,"longitude":-60.96914},{"name":"Bois Dinde","countryCode":"LC","stateCode":"03","latitude":13.80463,"longitude":-61.04952},{"name":"Bois Joli","countryCode":"LC","stateCode":"05","latitude":13.9202,"longitude":-60.91409},{"name":"Bois Patat","countryCode":"LC","stateCode":"02","latitude":14.00892,"longitude":-60.98214},{"name":"Bongalo","countryCode":"LC","stateCode":"07","latitude":13.76666,"longitude":-61.02991},{"name":"Bonneterre","countryCode":"LC","stateCode":"06","latitude":14.06994,"longitude":-60.94146},{"name":"Bonneterre Gardens","countryCode":"LC","stateCode":"06","latitude":14.06737,"longitude":-60.93393},{"name":"Bordelais","countryCode":"LC","stateCode":"05","latitude":13.89552,"longitude":-60.90092},{"name":"Bosquet D'Or","countryCode":"LC","stateCode":"05","latitude":13.92886,"longitude":-60.91127},{"name":"Bouton","countryCode":"LC","stateCode":"10","latitude":13.87936,"longitude":-61.06449},{"name":"Bruceville/Shanty Town","countryCode":"LC","stateCode":"11","latitude":13.72558,"longitude":-60.94907},{"name":"Cabiche/Babonneau","countryCode":"LC","stateCode":"02","latitude":14.00583,"longitude":-60.95432},{"name":"Cacoa","countryCode":"LC","stateCode":"11","latitude":13.77889,"longitude":-60.93862},{"name":"Cacoa/Babonneau","countryCode":"LC","stateCode":"02","latitude":13.98875,"longitude":-60.95113},{"name":"Caffiere","countryCode":"LC","stateCode":"03","latitude":13.78409,"longitude":-61.03554},{"name":"Caico/Millet","countryCode":"LC","stateCode":"01","latitude":13.91948,"longitude":-60.99264},{"name":"Calvary","countryCode":"LC","stateCode":"02","latitude":14.01391,"longitude":-60.98664},{"name":"Calvary/Calvaire","countryCode":"LC","stateCode":"10","latitude":13.85035,"longitude":-61.0562},{"name":"Canaries","countryCode":"LC","stateCode":"01","latitude":13.90224,"longitude":-61.06459},{"name":"Canelles","countryCode":"LC","stateCode":"08","latitude":13.78515,"longitude":-60.91789},{"name":"Cantonement","countryCode":"LC","stateCode":"11","latitude":13.75665,"longitude":-60.97662},{"name":"Cap Estate","countryCode":"LC","stateCode":"06","latitude":14.0941,"longitude":-60.93592},{"name":"Cap Estate/Becune Point","countryCode":"LC","stateCode":"06","latitude":14.0927,"longitude":-60.95161},{"name":"Cap Estate/Caribbean Park","countryCode":"LC","stateCode":"06","latitude":14.10019,"longitude":-60.92446},{"name":"Cap Estate/Golf Park","countryCode":"LC","stateCode":"06","latitude":14.09998,"longitude":-60.93705},{"name":"Cap Estate/Lower Saline Point","countryCode":"LC","stateCode":"06","latitude":14.10515,"longitude":-60.9431},{"name":"Cap Estate/Mon Du Cap","countryCode":"LC","stateCode":"06","latitude":14.10554,"longitude":-60.93758},{"name":"Cap Estate/Ranch Site","countryCode":"LC","stateCode":"06","latitude":14.10437,"longitude":-60.9336},{"name":"Cap Estate/Saddlec Back","countryCode":"LC","stateCode":"06","latitude":14.10023,"longitude":-60.94246},{"name":"Cap Estate/Upper Saline Point","countryCode":"LC","stateCode":"06","latitude":14.1074,"longitude":-60.94487},{"name":"Capital Hill","countryCode":"LC","stateCode":"02","latitude":13.99307,"longitude":-60.99097},{"name":"Carellie","countryCode":"LC","stateCode":"02","latitude":14.01889,"longitude":-60.96851},{"name":"Carierre","countryCode":"LC","stateCode":"11","latitude":13.78514,"longitude":-60.96721},{"name":"Cas En Bas","countryCode":"LC","stateCode":"06","latitude":14.08328,"longitude":-60.93209},{"name":"Castries","countryCode":"LC","stateCode":"02","latitude":13.9957,"longitude":-61.00614},{"name":"Catin","countryCode":"LC","stateCode":"11","latitude":13.77694,"longitude":-60.97973},{"name":"Caye Manje'","countryCode":"LC","stateCode":"06","latitude":14.06629,"longitude":-60.9356},{"name":"Cazuca","countryCode":"LC","stateCode":"08","latitude":13.80002,"longitude":-60.90481},{"name":"Cedars","countryCode":"LC","stateCode":"02","latitude":14.00601,"longitude":-60.98232},{"name":"Cedars/Chu Tigre","countryCode":"LC","stateCode":"03","latitude":13.76995,"longitude":-61.04716},{"name":"Cenac","countryCode":"LC","stateCode":"10","latitude":13.87207,"longitude":-61.04243},{"name":"Chalon","countryCode":"LC","stateCode":"12","latitude":13.92018,"longitude":-61.04412},{"name":"Champen Estate","countryCode":"LC","stateCode":"01","latitude":13.93575,"longitude":-61.02991},{"name":"Chase Gardens","countryCode":"LC","stateCode":"02","latitude":14.01481,"longitude":-60.97395},{"name":"Chassin/Babonneau","countryCode":"LC","stateCode":"02","latitude":13.991,"longitude":-60.92187},{"name":"Chateau Belair","countryCode":"LC","stateCode":"10","latitude":13.8183,"longitude":-61.0535},{"name":"Chique/Blanchard","countryCode":"LC","stateCode":"08","latitude":13.8012,"longitude":-60.9497},{"name":"Choiseul","countryCode":"LC","stateCode":"03","latitude":13.77273,"longitude":-61.04931},{"name":"Choppin Ridge/Sarot","countryCode":"LC","stateCode":"02","latitude":13.95597,"longitude":-60.98624},{"name":"Christian Hill","countryCode":"LC","stateCode":"03","latitude":13.77354,"longitude":-61.04694},{"name":"Ciceron","countryCode":"LC","stateCode":"02","latitude":13.99296,"longitude":-61.00878},{"name":"City","countryCode":"LC","stateCode":"02","latitude":14.00946,"longitude":-60.99027},{"name":"City Gate/La Clery","countryCode":"LC","stateCode":"02","latitude":14.02124,"longitude":-60.98149},{"name":"Cocoa Dan","countryCode":"LC","stateCode":"11","latitude":13.73087,"longitude":-60.97195},{"name":"Colombette","countryCode":"LC","stateCode":"10","latitude":13.86861,"longitude":-61.0499},{"name":"Compar","countryCode":"LC","stateCode":"10","latitude":13.83586,"longitude":-61.05934},{"name":"Conway/Waterfront","countryCode":"LC","stateCode":"02","latitude":14.01389,"longitude":-60.99055},{"name":"Coolie Town","countryCode":"LC","stateCode":"02","latitude":13.95684,"longitude":-61.01437},{"name":"Coolie Town","countryCode":"LC","stateCode":"08","latitude":13.85429,"longitude":-60.9138},{"name":"Coolie Town","countryCode":"LC","stateCode":"11","latitude":13.76911,"longitude":-60.9668},{"name":"Corinth","countryCode":"LC","stateCode":"06","latitude":14.0471,"longitude":-60.96046},{"name":"Corinth Estate","countryCode":"LC","stateCode":"06","latitude":14.04336,"longitude":-60.95388},{"name":"Corinth/La Bel Lair","countryCode":"LC","stateCode":"06","latitude":14.04469,"longitude":-60.94484},{"name":"Coubaril","countryCode":"LC","stateCode":"02","latitude":14.00223,"longitude":-61.00919},{"name":"Cresslands","countryCode":"LC","stateCode":"10","latitude":13.85999,"longitude":-61.04032},{"name":"Crownlands/Marc","countryCode":"LC","stateCode":"02","latitude":13.95174,"longitude":-60.9715},{"name":"Cul De Sac","countryCode":"LC","stateCode":"02","latitude":13.98084,"longitude":-61.00645},{"name":"Daban","countryCode":"LC","stateCode":"07","latitude":13.8049,"longitude":-61.00435},{"name":"Dacretin","countryCode":"LC","stateCode":"03","latitude":13.79617,"longitude":-61.03574},{"name":"Darling Road","countryCode":"LC","stateCode":"02","latitude":14.01355,"longitude":-60.98779},{"name":"Dauphin","countryCode":"LC","stateCode":"06","latitude":14.05647,"longitude":-60.90188},{"name":"De Mailly","countryCode":"LC","stateCode":"11","latitude":13.79649,"longitude":-60.94938},{"name":"Debreuil","countryCode":"LC","stateCode":"03","latitude":13.79033,"longitude":-61.02585},{"name":"Deglos","countryCode":"LC","stateCode":"02","latitude":13.97727,"longitude":-60.97329},{"name":"Delaide","countryCode":"LC","stateCode":"05","latitude":13.92993,"longitude":-60.90584},{"name":"Delcer","countryCode":"LC","stateCode":"03","latitude":13.80121,"longitude":-61.05892},{"name":"Delomel","countryCode":"LC","stateCode":"08","latitude":13.80338,"longitude":-60.92927},{"name":"Dennery","countryCode":"LC","stateCode":"05","latitude":13.91409,"longitude":-60.89132},{"name":"Dennery By Pass","countryCode":"LC","stateCode":"05","latitude":13.91164,"longitude":-60.89454},{"name":"Dennery By Pass/Green Mountain","countryCode":"LC","stateCode":"05","latitude":13.91094,"longitude":-60.8981},{"name":"Dennery By Pass/Rocky Lane","countryCode":"LC","stateCode":"05","latitude":13.91443,"longitude":-60.90017},{"name":"Dennery By Pass/White Rock Gardens","countryCode":"LC","stateCode":"05","latitude":13.91424,"longitude":-60.89333},{"name":"Dennery Village","countryCode":"LC","stateCode":"05","latitude":13.91099,"longitude":-60.89122},{"name":"Derierre Bois","countryCode":"LC","stateCode":"11","latitude":13.76807,"longitude":-60.97725},{"name":"Derierre Fort/Old Victoria Road","countryCode":"LC","stateCode":"02","latitude":13.99474,"longitude":-60.98513},{"name":"Derierre Morne","countryCode":"LC","stateCode":"11","latitude":13.74126,"longitude":-60.96057},{"name":"Derniere Riviere","countryCode":"LC","stateCode":"05","latitude":13.95679,"longitude":-60.92578},{"name":"Derniere Riviere/Fond Maricient","countryCode":"LC","stateCode":"05","latitude":13.9513,"longitude":-60.92218},{"name":"Derniere Riviere/Mardi Gras/Morne Caca Cochon","countryCode":"LC","stateCode":"05","latitude":13.96288,"longitude":-60.92029},{"name":"Derniere Riviere/Morne Panache","countryCode":"LC","stateCode":"05","latitude":13.95252,"longitude":-60.92919},{"name":"Derriere Lagoon","countryCode":"LC","stateCode":"01","latitude":13.94168,"longitude":-61.01891},{"name":"Derriere Morne","countryCode":"LC","stateCode":"03","latitude":13.80916,"longitude":-61.05101},{"name":"Des Barras","countryCode":"LC","stateCode":"06","latitude":13.99949,"longitude":-60.90166},{"name":"Des Barras/Cacolie","countryCode":"LC","stateCode":"06","latitude":14.01687,"longitude":-60.90097},{"name":"Des Blanchard","countryCode":"LC","stateCode":"08","latitude":13.81155,"longitude":-60.93423},{"name":"Despinoze","countryCode":"LC","stateCode":"05","latitude":13.94971,"longitude":-60.91182},{"name":"Desrameaux","countryCode":"LC","stateCode":"06","latitude":14.03681,"longitude":-60.92697},{"name":"Desruisseaux","countryCode":"LC","stateCode":"08","latitude":13.7964,"longitude":-60.9354},{"name":"Deville","countryCode":"LC","stateCode":"10","latitude":13.81372,"longitude":-61.05049},{"name":"Diamond/Diamond Estate","countryCode":"LC","stateCode":"10","latitude":13.85168,"longitude":-61.04352},{"name":"Docamel/La Resource","countryCode":"LC","stateCode":"11","latitude":13.74202,"longitude":-60.95604},{"name":"Dubonnaire","countryCode":"LC","stateCode":"05","latitude":13.92808,"longitude":-60.92336},{"name":"Dubrassay","countryCode":"LC","stateCode":"02","latitude":13.98382,"longitude":-60.97154},{"name":"Dugard","countryCode":"LC","stateCode":"03","latitude":13.80386,"longitude":-61.02831},{"name":"Dugard","countryCode":"LC","stateCode":"08","latitude":13.8109,"longitude":-60.91415},{"name":"Dupre","countryCode":"LC","stateCode":"03","latitude":13.79435,"longitude":-61.02947},{"name":"Durandeau","countryCode":"LC","stateCode":"01","latitude":13.92277,"longitude":-60.99512},{"name":"Eau Piquant/St Urbain","countryCode":"LC","stateCode":"11","latitude":13.76025,"longitude":-60.94012},{"name":"En Bamboo","countryCode":"LC","stateCode":"11","latitude":13.78155,"longitude":-60.94763},{"name":"En Pois Doux/Babonneau","countryCode":"LC","stateCode":"02","latitude":13.98853,"longitude":-60.94099},{"name":"Enbar Pwin","countryCode":"LC","stateCode":"01","latitude":13.91175,"longitude":-60.99266},{"name":"Entrepot","countryCode":"LC","stateCode":"02","latitude":13.99978,"longitude":-60.97953},{"name":"Escap","countryCode":"LC","stateCode":"08","latitude":13.83031,"longitude":-60.89673},{"name":"Esperance","countryCode":"LC","stateCode":"03","latitude":13.80775,"longitude":-61.05331},{"name":"Esperance","countryCode":"LC","stateCode":"10","latitude":13.84562,"longitude":-61.03713},{"name":"Esperance","countryCode":"LC","stateCode":"11","latitude":13.78854,"longitude":-60.96108},{"name":"Etangs","countryCode":"LC","stateCode":"10","latitude":13.81902,"longitude":-61.04056},{"name":"Faux A Chaud","countryCode":"LC","stateCode":"02","latitude":14.00878,"longitude":-60.99558},{"name":"Ferrand","countryCode":"LC","stateCode":"02","latitude":13.98684,"longitude":-60.98494},{"name":"Floissac/Marc","countryCode":"LC","stateCode":"02","latitude":13.96283,"longitude":-60.9588},{"name":"Fond Assau/Babonneau","countryCode":"LC","stateCode":"02","latitude":13.99491,"longitude":-60.93626},{"name":"Fond Berange","countryCode":"LC","stateCode":"07","latitude":13.78238,"longitude":-61.00346},{"name":"Fond Bernier","countryCode":"LC","stateCode":"10","latitude":13.85845,"longitude":-61.05949},{"name":"Fond Cacoa","countryCode":"LC","stateCode":"10","latitude":13.85442,"longitude":-61.05077},{"name":"Fond Canie","countryCode":"LC","stateCode":"02","latitude":13.99195,"longitude":-60.95954},{"name":"Fond Capeche","countryCode":"LC","stateCode":"11","latitude":13.77449,"longitude":-60.94835},{"name":"Fond D'Lor/Dugard","countryCode":"LC","stateCode":"08","latitude":13.81069,"longitude":-60.92119},{"name":"Fond Doux","countryCode":"LC","stateCode":"10","latitude":13.82096,"longitude":-61.04952},{"name":"Fond Estate","countryCode":"LC","stateCode":"08","latitude":13.84243,"longitude":-60.91862},{"name":"Fond Gens Libre","countryCode":"LC","stateCode":"10","latitude":13.80791,"longitude":-61.06259},{"name":"Fond Sabot","countryCode":"LC","stateCode":"11","latitude":13.77659,"longitude":-60.95546},{"name":"Fond/Desruisseaux","countryCode":"LC","stateCode":"08","latitude":13.79421,"longitude":-60.94128},{"name":"Forestiere","countryCode":"LC","stateCode":"02","latitude":13.97775,"longitude":-60.95766},{"name":"Franciou","countryCode":"LC","stateCode":"03","latitude":13.804,"longitude":-61.05448},{"name":"Gadette","countryCode":"LC","stateCode":"05","latitude":13.95937,"longitude":-60.91029},{"name":"Garrand","countryCode":"LC","stateCode":"06","latitude":14.00424,"longitude":-60.9327},{"name":"Gayabois","countryCode":"LC","stateCode":"07","latitude":13.78643,"longitude":-61.01835},{"name":"Gentil","countryCode":"LC","stateCode":"07","latitude":13.76816,"longitude":-60.98877},{"name":"George Charles Boulevard","countryCode":"LC","stateCode":"02","latitude":14.00499,"longitude":-60.98673},{"name":"Getrine","countryCode":"LC","stateCode":"07","latitude":13.78192,"longitude":-61.00741},{"name":"Girard","countryCode":"LC","stateCode":"02","latitude":14.00004,"longitude":-60.9596},{"name":"Giraud","countryCode":"LC","stateCode":"07","latitude":13.79254,"longitude":-61.00843},{"name":"Goergeville","countryCode":"LC","stateCode":"02","latitude":14.01311,"longitude":-60.98446},{"name":"Gomier","countryCode":"LC","stateCode":"08","latitude":13.81485,"longitude":-60.95252},{"name":"Goodlands","countryCode":"LC","stateCode":"02","latitude":13.99121,"longitude":-60.9984},{"name":"Gouette","countryCode":"LC","stateCode":"08","latitude":13.8065,"longitude":-60.93964},{"name":"Grace","countryCode":"LC","stateCode":"11","latitude":13.77678,"longitude":-60.96637},{"name":"Grand Riviere","countryCode":"LC","stateCode":"06","latitude":14.03546,"longitude":-60.95152},{"name":"Grande Ravine","countryCode":"LC","stateCode":"05","latitude":13.94263,"longitude":-60.93404},{"name":"Grande Riviere","countryCode":"LC","stateCode":"05","latitude":13.93306,"longitude":-60.93239},{"name":"Grande Riviere/Assou Canal","countryCode":"LC","stateCode":"06","latitude":14.03975,"longitude":-60.95121},{"name":"Grande Riviere/Des Branch","countryCode":"LC","stateCode":"05","latitude":13.93383,"longitude":-60.93499},{"name":"Grande Riviere/En Leur Morne/Discompere","countryCode":"LC","stateCode":"05","latitude":13.93223,"longitude":-60.93461},{"name":"Grande Riviere/Funier","countryCode":"LC","stateCode":"05","latitude":13.9324,"longitude":-60.93305},{"name":"Grande Riviere/Ingle Woods","countryCode":"LC","stateCode":"06","latitude":14.03091,"longitude":-60.95592},{"name":"Grande Riviere/Morne Caca Cochon","countryCode":"LC","stateCode":"05","latitude":13.9296,"longitude":-60.93794},{"name":"Grande Riviere/Morne Serpent","countryCode":"LC","stateCode":"06","latitude":14.03509,"longitude":-60.9606},{"name":"Grande Riviere/Norbert","countryCode":"LC","stateCode":"06","latitude":14.04317,"longitude":-60.94933},{"name":"Grande Riviere/Piat","countryCode":"LC","stateCode":"06","latitude":14.03926,"longitude":-60.94361},{"name":"Grande Riviere/White Rock","countryCode":"LC","stateCode":"06","latitude":14.03618,"longitude":-60.95556},{"name":"Grass Street","countryCode":"LC","stateCode":"02","latitude":14.00706,"longitude":-60.98763},{"name":"Green Gold","countryCode":"LC","stateCode":"02","latitude":13.99603,"longitude":-60.95284},{"name":"Gros Islet","countryCode":"LC","stateCode":"06","latitude":14.06667,"longitude":-60.95},{"name":"Gros Islet Town","countryCode":"LC","stateCode":"06","latitude":14.0808,"longitude":-60.95312},{"name":"Gros Islet/Edge Water","countryCode":"LC","stateCode":"06","latitude":14.07912,"longitude":-60.94973},{"name":"Guesneau","countryCode":"LC","stateCode":"02","latitude":13.99084,"longitude":-60.96486},{"name":"H'Erelle","countryCode":"LC","stateCode":"07","latitude":13.75599,"longitude":-60.98698},{"name":"Hewanorra Orchard","countryCode":"LC","stateCode":"11","latitude":13.74486,"longitude":-60.97284},{"name":"Hill 20/Babonneau","countryCode":"LC","stateCode":"02","latitude":13.99941,"longitude":-60.94988},{"name":"Hillcrest Gardens","countryCode":"LC","stateCode":"02","latitude":14.01115,"longitude":-60.97083},{"name":"Honeymoon Beach","countryCode":"LC","stateCode":"08","latitude":13.77746,"longitude":-60.90493},{"name":"Hope Estate","countryCode":"LC","stateCode":"11","latitude":13.76477,"longitude":-60.95831},{"name":"Hospital Road","countryCode":"LC","stateCode":"02","latitude":14.00914,"longitude":-60.99906},{"name":"Independence City","countryCode":"LC","stateCode":"02","latitude":14.00199,"longitude":-60.97879},{"name":"Industrial Estate","countryCode":"LC","stateCode":"11","latitude":13.74096,"longitude":-60.97393},{"name":"Industry","countryCode":"LC","stateCode":"03","latitude":13.79127,"longitude":-61.05992},{"name":"Jacmel","countryCode":"LC","stateCode":"01","latitude":13.94796,"longitude":-61.01297},{"name":"Jalousie","countryCode":"LC","stateCode":"10","latitude":13.82811,"longitude":-61.05891},{"name":"Jean Baptiste","countryCode":"LC","stateCode":"01","latitude":13.94704,"longitude":-61.01578},{"name":"John Compton Highway","countryCode":"LC","stateCode":"02","latitude":14.01909,"longitude":-60.9911},{"name":"Joyeux","countryCode":"LC","stateCode":"11","latitude":13.78313,"longitude":-60.96068},{"name":"Kennedy Highway/Laborie Bypass","countryCode":"LC","stateCode":"07","latitude":13.7538,"longitude":-60.99594},{"name":"L'Anse Road","countryCode":"LC","stateCode":"02","latitude":14.01875,"longitude":-60.98799},{"name":"L'Eau Mineau","countryCode":"LC","stateCode":"08","latitude":13.80672,"longitude":-60.92103},{"name":"L'Hermitage","countryCode":"LC","stateCode":"06","latitude":14.06521,"longitude":-60.93967},{"name":"La Carierre","countryCode":"LC","stateCode":"02","latitude":14.01806,"longitude":-60.98723},{"name":"La Caye","countryCode":"LC","stateCode":"05","latitude":13.9329,"longitude":-60.90434},{"name":"La Clery","countryCode":"LC","stateCode":"02","latitude":14.01846,"longitude":-60.98422},{"name":"La Courville","countryCode":"LC","stateCode":"08","latitude":13.81056,"longitude":-60.92766},{"name":"La Croix Chabourgh","countryCode":"LC","stateCode":"06","latitude":14.01147,"longitude":-60.94025},{"name":"La Croix Maingot","countryCode":"LC","stateCode":"02","latitude":13.96569,"longitude":-61.00582},{"name":"La Fargue","countryCode":"LC","stateCode":"03","latitude":13.77197,"longitude":-61.04124},{"name":"La Guerre","countryCode":"LC","stateCode":"06","latitude":14.02191,"longitude":-60.92491},{"name":"La Guerre/Chicken Back Street","countryCode":"LC","stateCode":"06","latitude":14.02387,"longitude":-60.93108},{"name":"La Haut","countryCode":"LC","stateCode":"07","latitude":13.79207,"longitude":-61.00014},{"name":"La Haut","countryCode":"LC","stateCode":"10","latitude":13.86276,"longitude":-61.05584},{"name":"La Pansee","countryCode":"LC","stateCode":"02","latitude":14.01368,"longitude":-60.98187},{"name":"La Pearle","countryCode":"LC","stateCode":"10","latitude":13.8574,"longitude":-61.0476},{"name":"La Pelle","countryCode":"LC","stateCode":"05","latitude":13.94096,"longitude":-60.90569},{"name":"La Perle","countryCode":"LC","stateCode":"07","latitude":13.76483,"longitude":-61.02088},{"name":"La Pointe","countryCode":"LC","stateCode":"03","latitude":13.79443,"longitude":-61.06497},{"name":"La Pointe","countryCode":"LC","stateCode":"05","latitude":13.91525,"longitude":-60.8883},{"name":"La Pointe","countryCode":"LC","stateCode":"08","latitude":13.84593,"longitude":-60.89332},{"name":"La Resource","countryCode":"LC","stateCode":"11","latitude":13.74799,"longitude":-60.96237},{"name":"La Ressource","countryCode":"LC","stateCode":"05","latitude":13.94293,"longitude":-60.91585},{"name":"La Retraite","countryCode":"LC","stateCode":"11","latitude":13.75944,"longitude":-60.96632},{"name":"La Tille","countryCode":"LC","stateCode":"08","latitude":13.82744,"longitude":-60.91716},{"name":"La Toc","countryCode":"LC","stateCode":"02","latitude":14.00824,"longitude":-61.00404},{"name":"La Tourney/Cedar Heights","countryCode":"LC","stateCode":"11","latitude":13.74114,"longitude":-60.96517},{"name":"La Trielle","countryCode":"LC","stateCode":"01","latitude":13.94014,"longitude":-60.99729},{"name":"Labayee","countryCode":"LC","stateCode":"02","latitude":13.94044,"longitude":-60.97316},{"name":"Laborie","countryCode":"LC","stateCode":"07","latitude":13.75,"longitude":-60.98333},{"name":"Lamaze","countryCode":"LC","stateCode":"03","latitude":13.80649,"longitude":-61.01906},{"name":"Lastic Hill","countryCode":"LC","stateCode":"02","latitude":14.00755,"longitude":-60.98321},{"name":"Le Riche","countryCode":"LC","stateCode":"03","latitude":13.78365,"longitude":-61.04815},{"name":"Lenny Hill","countryCode":"LC","stateCode":"10","latitude":13.85059,"longitude":-61.05906},{"name":"Leslie Land","countryCode":"LC","stateCode":"02","latitude":14.00752,"longitude":-60.98674},{"name":"Lezy","countryCode":"LC","stateCode":"08","latitude":13.80372,"longitude":-60.93906},{"name":"Lombard","countryCode":"LC","stateCode":"08","latitude":13.85772,"longitude":-60.9151},{"name":"Londonderry","countryCode":"LC","stateCode":"07","latitude":13.77623,"longitude":-61.01362},{"name":"Lumiere","countryCode":"LC","stateCode":"05","latitude":13.93928,"longitude":-60.88889},{"name":"Macdomel","countryCode":"LC","stateCode":"07","latitude":13.77497,"longitude":-60.98508},{"name":"Maganier","countryCode":"LC","stateCode":"11","latitude":13.7945,"longitude":-60.98513},{"name":"Mahaut","countryCode":"LC","stateCode":"08","latitude":13.84391,"longitude":-60.95397},{"name":"Mailly Motete","countryCode":"LC","stateCode":"03","latitude":13.81788,"longitude":-61.02772},{"name":"Malgretoute","countryCode":"LC","stateCode":"08","latitude":13.84199,"longitude":-60.90411},{"name":"Malgretoute","countryCode":"LC","stateCode":"10","latitude":13.84233,"longitude":-61.05998},{"name":"Mamiku","countryCode":"LC","stateCode":"08","latitude":13.86744,"longitude":-60.90184},{"name":"Marc","countryCode":"LC","stateCode":"02","latitude":13.95688,"longitude":-60.95724},{"name":"Marchand","countryCode":"LC","stateCode":"02","latitude":14.00415,"longitude":-60.98532},{"name":"Marigot","countryCode":"LC","stateCode":"02","latitude":13.96212,"longitude":-61.02205},{"name":"Marisule","countryCode":"LC","stateCode":"06","latitude":14.04621,"longitude":-60.97063},{"name":"Marisule/Bon Air","countryCode":"LC","stateCode":"06","latitude":14.05062,"longitude":-60.97124},{"name":"Marisule/East Winds","countryCode":"LC","stateCode":"06","latitude":14.05407,"longitude":-60.96849},{"name":"Marisule/La Brellotte","countryCode":"LC","stateCode":"06","latitude":14.0571,"longitude":-60.97183},{"name":"Marisule/Top Of The World","countryCode":"LC","stateCode":"06","latitude":14.04385,"longitude":-60.96885},{"name":"Marquis Estate","countryCode":"LC","stateCode":"06","latitude":14.0296,"longitude":-60.90732},{"name":"Martin","countryCode":"LC","stateCode":"03","latitude":13.78941,"longitude":-61.04542},{"name":"Massacre","countryCode":"LC","stateCode":"01","latitude":13.94872,"longitude":-61.03544},{"name":"Massade","countryCode":"LC","stateCode":"06","latitude":14.08292,"longitude":-60.94946},{"name":"Maynard Hill","countryCode":"LC","stateCode":"02","latitude":14.00314,"longitude":-60.98966},{"name":"Miami/Bexon","countryCode":"LC","stateCode":"02","latitude":13.92295,"longitude":-60.96945},{"name":"Micoud","countryCode":"LC","stateCode":"08","latitude":13.81667,"longitude":-60.9},{"name":"Migny","countryCode":"LC","stateCode":"10","latitude":13.84166,"longitude":-61.01808},{"name":"Millet","countryCode":"LC","stateCode":"01","latitude":13.90985,"longitude":-60.98884},{"name":"Mocha","countryCode":"LC","stateCode":"10","latitude":13.83117,"longitude":-61.02503},{"name":"Mon Repos","countryCode":"LC","stateCode":"08","latitude":13.85865,"longitude":-60.89591},{"name":"Monchy","countryCode":"LC","stateCode":"06","latitude":14.05502,"longitude":-60.92623},{"name":"Monchy/Careffe","countryCode":"LC","stateCode":"06","latitude":14.0593,"longitude":-60.95069},{"name":"Monchy/Cletus Village","countryCode":"LC","stateCode":"06","latitude":14.05137,"longitude":-60.9238},{"name":"Monchy/La Borne","countryCode":"LC","stateCode":"06","latitude":14.04628,"longitude":-60.91961},{"name":"Monchy/La Borne/Sans Souci","countryCode":"LC","stateCode":"06","latitude":14.04504,"longitude":-60.89961},{"name":"Monchy/La Retraite","countryCode":"LC","stateCode":"06","latitude":14.06421,"longitude":-60.94564},{"name":"Monchy/Lafeuillee","countryCode":"LC","stateCode":"06","latitude":14.0595,"longitude":-60.94086},{"name":"Monchy/Lawi Fwen","countryCode":"LC","stateCode":"06","latitude":14.05802,"longitude":-60.92906},{"name":"Monchy/Malgretoute","countryCode":"LC","stateCode":"06","latitude":14.04108,"longitude":-60.91912},{"name":"Monchy/Moulin A Vent","countryCode":"LC","stateCode":"06","latitude":14.06283,"longitude":-60.95025},{"name":"Monchy/Ravine Macock","countryCode":"LC","stateCode":"06","latitude":14.04789,"longitude":-60.92511},{"name":"Monchy/Riviere Mitan","countryCode":"LC","stateCode":"06","latitude":14.04987,"longitude":-60.94029},{"name":"Monchy/Ti Dauphin","countryCode":"LC","stateCode":"06","latitude":14.04081,"longitude":-60.93225},{"name":"Monchy/Vieux Sucreic","countryCode":"LC","stateCode":"06","latitude":14.04996,"longitude":-60.94992},{"name":"Monchy/Vieux Sucreic/Bois D'Inde","countryCode":"LC","stateCode":"06","latitude":14.05613,"longitude":-60.95151},{"name":"Monchy/Vieux Sucreic/Careffe","countryCode":"LC","stateCode":"06","latitude":14.05652,"longitude":-60.94948},{"name":"Mongiraud","countryCode":"LC","stateCode":"06","latitude":14.06287,"longitude":-60.95722},{"name":"Mongouge","countryCode":"LC","stateCode":"03","latitude":13.80301,"longitude":-61.04524},{"name":"Monier","countryCode":"LC","stateCode":"06","latitude":14.02951,"longitude":-60.94098},{"name":"Monkey Town Ciceron","countryCode":"LC","stateCode":"02","latitude":13.98885,"longitude":-61.00615},{"name":"Monzie","countryCode":"LC","stateCode":"03","latitude":13.80669,"longitude":-61.02297},{"name":"Moreau","countryCode":"LC","stateCode":"08","latitude":13.82676,"longitude":-60.94238},{"name":"Morne Assau/Babonneau","countryCode":"LC","stateCode":"02","latitude":13.99079,"longitude":-60.93241},{"name":"Morne Bonin","countryCode":"LC","stateCode":"10","latitude":13.83174,"longitude":-61.03285},{"name":"Morne Cayenne","countryCode":"LC","stateCode":"11","latitude":13.78349,"longitude":-60.95506},{"name":"Morne Ciseaux","countryCode":"LC","stateCode":"01","latitude":13.93597,"longitude":-61.0033},{"name":"Morne Citon","countryCode":"LC","stateCode":"06","latitude":14.03004,"longitude":-60.92813},{"name":"Morne D'Or","countryCode":"LC","stateCode":"01","latitude":13.94931,"longitude":-61.00601},{"name":"Morne Dudon","countryCode":"LC","stateCode":"02","latitude":14.01194,"longitude":-60.96378},{"name":"Morne Gomier","countryCode":"LC","stateCode":"07","latitude":13.76552,"longitude":-60.99524},{"name":"Morne Jacques","countryCode":"LC","stateCode":"03","latitude":13.81162,"longitude":-61.03165},{"name":"Morne La Croix","countryCode":"LC","stateCode":"10","latitude":13.81762,"longitude":-61.06146},{"name":"Morne Lastic/Desruisseaux","countryCode":"LC","stateCode":"10","latitude":13.86628,"longitude":-61.05894},{"name":"Morne Le Blanc","countryCode":"LC","stateCode":"07","latitude":13.75868,"longitude":-60.99913},{"name":"Morne Panache","countryCode":"LC","stateCode":"05","latitude":13.92167,"longitude":-60.93654},{"name":"Morne Road","countryCode":"LC","stateCode":"02","latitude":14.00544,"longitude":-60.99693},{"name":"Morne Rouge/Marc","countryCode":"LC","stateCode":"02","latitude":13.95838,"longitude":-60.96972},{"name":"Morne Sion","countryCode":"LC","stateCode":"03","latitude":13.79246,"longitude":-61.05467},{"name":"Morne Vert","countryCode":"LC","stateCode":"11","latitude":13.77899,"longitude":-60.97617},{"name":"Morne Vient","countryCode":"LC","stateCode":"08","latitude":13.80646,"longitude":-60.95241},{"name":"Motete","countryCode":"LC","stateCode":"03","latitude":13.81325,"longitude":-61.0232},{"name":"Moule A Chique","countryCode":"LC","stateCode":"11","latitude":13.71458,"longitude":-60.94835},{"name":"Mount Pleasant","countryCode":"LC","stateCode":"02","latitude":14.01494,"longitude":-60.98576},{"name":"Myette Gardens","countryCode":"LC","stateCode":"08","latitude":13.81862,"longitude":-60.9044},{"name":"New Development","countryCode":"LC","stateCode":"10","latitude":13.86176,"longitude":-61.04791},{"name":"New Field/Fiette","countryCode":"LC","stateCode":"03","latitude":13.78815,"longitude":-61.05216},{"name":"New Village","countryCode":"LC","stateCode":"02","latitude":14.01104,"longitude":-60.98456},{"name":"New Village","countryCode":"LC","stateCode":"08","latitude":13.82446,"longitude":-60.89864},{"name":"Obrier","countryCode":"LC","stateCode":"11","latitude":13.76831,"longitude":-60.97313},{"name":"Odsan","countryCode":"LC","stateCode":"02","latitude":13.97479,"longitude":-60.98319},{"name":"Olibo","countryCode":"LC","stateCode":"07","latitude":13.77628,"longitude":-60.99931},{"name":"Paix Bouche","countryCode":"LC","stateCode":"06","latitude":14.01755,"longitude":-60.93852},{"name":"Paix Bouche","countryCode":"LC","stateCode":"08","latitude":13.81556,"longitude":-60.94073},{"name":"Palmiste","countryCode":"LC","stateCode":"10","latitude":13.85843,"longitude":-61.05575},{"name":"Palmiste Estate","countryCode":"LC","stateCode":"08","latitude":13.85377,"longitude":-60.96007},{"name":"Parc Estate","countryCode":"LC","stateCode":"07","latitude":13.79639,"longitude":-61.01613},{"name":"Parker'S Hill","countryCode":"LC","stateCode":"02","latitude":14.00378,"longitude":-60.99049},{"name":"Patience","countryCode":"LC","stateCode":"08","latitude":13.85,"longitude":-60.90874},{"name":"Patterson'S Gap","countryCode":"LC","stateCode":"02","latitude":14.00655,"longitude":-60.98473},{"name":"Pavee","countryCode":"LC","stateCode":"02","latitude":14.00282,"longitude":-60.99191},{"name":"Peart'S Gap","countryCode":"LC","stateCode":"02","latitude":14.01035,"longitude":-60.98598},{"name":"Perou","countryCode":"LC","stateCode":"02","latitude":13.9596,"longitude":-61.00726},{"name":"Piaye","countryCode":"LC","stateCode":"07","latitude":13.75628,"longitude":-61.02279},{"name":"Pierrot","countryCode":"LC","stateCode":"11","latitude":13.76857,"longitude":-60.94381},{"name":"Pigeon Island","countryCode":"LC","stateCode":"06","latitude":14.08965,"longitude":-60.95724},{"name":"Planard","countryCode":"LC","stateCode":"08","latitude":13.80521,"longitude":-60.9154},{"name":"Plat Pays","countryCode":"LC","stateCode":"10","latitude":13.84085,"longitude":-61.05571},{"name":"Plateau","countryCode":"LC","stateCode":"06","latitude":14.02612,"longitude":-60.93474},{"name":"Plut","countryCode":"LC","stateCode":"11","latitude":13.77417,"longitude":-60.96076},{"name":"Pointe Seraphine","countryCode":"LC","stateCode":"02","latitude":14.01575,"longitude":-60.99305},{"name":"Pomme","countryCode":"LC","stateCode":"11","latitude":13.75792,"longitude":-60.98147},{"name":"Ponyon","countryCode":"LC","stateCode":"03","latitude":13.79639,"longitude":-61.0436},{"name":"Praslin","countryCode":"LC","stateCode":"08","latitude":13.87545,"longitude":-60.89717},{"name":"Quarte Chemins","countryCode":"LC","stateCode":"02","latitude":13.99136,"longitude":-60.9763},{"name":"Rabot","countryCode":"LC","stateCode":"10","latitude":13.8338,"longitude":-61.0454},{"name":"Rameau","countryCode":"LC","stateCode":"08","latitude":13.83055,"longitude":-60.92375},{"name":"Raveneau","countryCode":"LC","stateCode":"03","latitude":13.81018,"longitude":-61.04642},{"name":"Ravine Chabot","countryCode":"LC","stateCode":"02","latitude":14.00051,"longitude":-60.97617},{"name":"Ravine Claire","countryCode":"LC","stateCode":"10","latitude":13.85262,"longitude":-61.02892},{"name":"Ravine Poisson","countryCode":"LC","stateCode":"02","latitude":13.93156,"longitude":-60.96849},{"name":"Ravine Touterelle","countryCode":"LC","stateCode":"02","latitude":14.00325,"longitude":-60.98806},{"name":"Reduit","countryCode":"LC","stateCode":"06","latitude":14.06829,"longitude":-60.96145},{"name":"Reduit Orchard","countryCode":"LC","stateCode":"06","latitude":14.06594,"longitude":-60.9534},{"name":"Reduit Park","countryCode":"LC","stateCode":"06","latitude":14.06622,"longitude":-60.9556},{"name":"Resinard/Babonneau","countryCode":"LC","stateCode":"02","latitude":14.00289,"longitude":-60.942},{"name":"Reunion","countryCode":"LC","stateCode":"03","latitude":13.77861,"longitude":-61.04531},{"name":"Riche Fond","countryCode":"LC","stateCode":"05","latitude":13.93644,"longitude":-60.92026},{"name":"Riche Fond/La Belle Vie","countryCode":"LC","stateCode":"05","latitude":13.93782,"longitude":-60.92908},{"name":"Riche Fond/New Village","countryCode":"LC","stateCode":"05","latitude":13.93648,"longitude":-60.92394},{"name":"River Doree","countryCode":"LC","stateCode":"03","latitude":13.76769,"longitude":-61.03646},{"name":"Riverside Road","countryCode":"LC","stateCode":"12","latitude":13.89408,"longitude":-61.04989},{"name":"Roblot","countryCode":"LC","stateCode":"03","latitude":13.80323,"longitude":-61.02297},{"name":"Rock Hall","countryCode":"LC","stateCode":"02","latitude":14.00009,"longitude":-60.98928},{"name":"Rodney Bay","countryCode":"LC","stateCode":"06","latitude":14.07292,"longitude":-60.95443},{"name":"Rodney Heights","countryCode":"LC","stateCode":"06","latitude":14.06731,"longitude":-60.94906},{"name":"Rose Hill","countryCode":"LC","stateCode":"02","latitude":14.00816,"longitude":-60.9856},{"name":"Roseau Valley","countryCode":"LC","stateCode":"01","latitude":13.95317,"longitude":-61.02676},{"name":"Ruby Estate","countryCode":"LC","stateCode":"10","latitude":13.85812,"longitude":-61.04983},{"name":"Saint Marie Road","countryCode":"LC","stateCode":"08","latitude":13.85444,"longitude":-60.91803},{"name":"Saltibus","countryCode":"LC","stateCode":"07","latitude":13.81211,"longitude":-61.00982},{"name":"San Soucis","countryCode":"LC","stateCode":"02","latitude":14.01695,"longitude":-60.98985},{"name":"Sand De Feu","countryCode":"LC","stateCode":"02","latitude":13.92781,"longitude":-60.98026},{"name":"Saphire","countryCode":"LC","stateCode":"07","latitude":13.7567,"longitude":-61.01209},{"name":"Sarot","countryCode":"LC","stateCode":"02","latitude":13.94212,"longitude":-60.98489},{"name":"Saut","countryCode":"LC","stateCode":"08","latitude":13.81272,"longitude":-60.94375},{"name":"Sauzay","countryCode":"LC","stateCode":"03","latitude":13.77743,"longitude":-61.03368},{"name":"Savannes","countryCode":"LC","stateCode":"08","latitude":13.77098,"longitude":-60.92017},{"name":"Savannesgeorge/Constitution","countryCode":"LC","stateCode":"03","latitude":13.77855,"longitude":-61.05139},{"name":"Soufrière","countryCode":"LC","stateCode":"10","latitude":13.85616,"longitude":-61.0566},{"name":"Soufriere Estate","countryCode":"LC","stateCode":"10","latitude":13.85174,"longitude":-61.0542},{"name":"St Helen Estate","countryCode":"LC","stateCode":"08","latitude":13.78735,"longitude":-60.90726},{"name":"St Jude'S Highway","countryCode":"LC","stateCode":"11","latitude":13.75867,"longitude":-60.9736},{"name":"St Lawrence","countryCode":"LC","stateCode":"01","latitude":13.93852,"longitude":-61.02503},{"name":"St Lawrence Estate","countryCode":"LC","stateCode":"01","latitude":13.94236,"longitude":-61.04248},{"name":"St Phillip","countryCode":"LC","stateCode":"10","latitude":13.84432,"longitude":-61.02766},{"name":"St. Joseph Estate","countryCode":"LC","stateCode":"05","latitude":13.90066,"longitude":-60.91444},{"name":"Stonefield","countryCode":"LC","stateCode":"10","latitude":13.84513,"longitude":-61.0599},{"name":"Sulphur Springs","countryCode":"LC","stateCode":"10","latitude":13.84002,"longitude":-61.04512},{"name":"Summersdale","countryCode":"LC","stateCode":"02","latitude":14.02582,"longitude":-60.97644},{"name":"Sunbilt","countryCode":"LC","stateCode":"02","latitude":14.00561,"longitude":-60.97922},{"name":"Sunny Acres","countryCode":"LC","stateCode":"02","latitude":14.0281,"longitude":-60.97361},{"name":"Talvern","countryCode":"LC","stateCode":"02","latitude":13.99578,"longitude":-60.9441},{"name":"Tapion","countryCode":"LC","stateCode":"02","latitude":14.01383,"longitude":-61.00489},{"name":"Tete Chemin","countryCode":"LC","stateCode":"01","latitude":13.89092,"longitude":-60.99785},{"name":"Tete Morne","countryCode":"LC","stateCode":"07","latitude":13.7616,"longitude":-61.03397},{"name":"Tete Morne/Morne Andrew","countryCode":"LC","stateCode":"11","latitude":13.77114,"longitude":-60.95194},{"name":"Thamazo","countryCode":"LC","stateCode":"05","latitude":13.93245,"longitude":-60.94786},{"name":"The Morne","countryCode":"LC","stateCode":"02","latitude":13.99778,"longitude":-60.9962},{"name":"Theodrine","countryCode":"LC","stateCode":"12","latitude":13.92878,"longitude":-61.04972},{"name":"Ti Boug","countryCode":"LC","stateCode":"10","latitude":13.83744,"longitude":-61.0246},{"name":"Ti Colon","countryCode":"LC","stateCode":"02","latitude":13.97071,"longitude":-61.00229},{"name":"Ti Delcer","countryCode":"LC","stateCode":"10","latitude":13.83386,"longitude":-61.0641},{"name":"Ti Riviere","countryCode":"LC","stateCode":"08","latitude":13.83006,"longitude":-60.93774},{"name":"Ti Rocher","countryCode":"LC","stateCode":"02","latitude":13.9949,"longitude":-60.9711},{"name":"Ti Rocher","countryCode":"LC","stateCode":"08","latitude":13.81734,"longitude":-60.92858},{"name":"Toraille","countryCode":"LC","stateCode":"10","latitude":13.85704,"longitude":-61.03296},{"name":"Town","countryCode":"LC","stateCode":"10","latitude":13.85491,"longitude":-61.05764},{"name":"Town","countryCode":"LC","stateCode":"11","latitude":13.72835,"longitude":-60.95408},{"name":"Trois Piton","countryCode":"LC","stateCode":"02","latitude":13.9889,"longitude":-60.97259},{"name":"Trou Cochan/Marc","countryCode":"LC","stateCode":"02","latitude":13.9422,"longitude":-60.96199},{"name":"Trou Florent/Marc","countryCode":"LC","stateCode":"02","latitude":13.94525,"longitude":-60.95382},{"name":"Trou Rouge","countryCode":"LC","stateCode":"02","latitude":14.00602,"longitude":-60.9895},{"name":"Troumassee","countryCode":"LC","stateCode":"08","latitude":13.80892,"longitude":-60.90341},{"name":"Union","countryCode":"LC","stateCode":"06","latitude":14.02907,"longitude":-60.9648},{"name":"Union Terrace","countryCode":"LC","stateCode":"06","latitude":14.02654,"longitude":-60.9571},{"name":"Union Vale","countryCode":"LC","stateCode":"10","latitude":13.81103,"longitude":-61.05686},{"name":"Union/Ti Morne","countryCode":"LC","stateCode":"06","latitude":14.02283,"longitude":-60.95272},{"name":"Vanard","countryCode":"LC","stateCode":"01","latitude":13.93558,"longitude":-60.99363},{"name":"Venus","countryCode":"LC","stateCode":"01","latitude":13.91558,"longitude":-61.01676},{"name":"Victoria","countryCode":"LC","stateCode":"03","latitude":13.81116,"longitude":-61.03963},{"name":"Vide Bouteille","countryCode":"LC","stateCode":"02","latitude":14.02439,"longitude":-60.98066},{"name":"Vieux Fort","countryCode":"LC","stateCode":"11","latitude":13.71667,"longitude":-60.95},{"name":"Vieux Fort/Laborie Highway","countryCode":"LC","stateCode":"11","latitude":13.73197,"longitude":-60.95477},{"name":"Vige'","countryCode":"LC","stateCode":"11","latitude":13.78692,"longitude":-60.9355},{"name":"Vigie","countryCode":"LC","stateCode":"02","latitude":14.02053,"longitude":-60.99611},{"name":"Village","countryCode":"LC","stateCode":"01","latitude":13.93939,"longitude":-61.0415},{"name":"Village","countryCode":"LC","stateCode":"03","latitude":13.77464,"longitude":-61.0502},{"name":"Village","countryCode":"LC","stateCode":"07","latitude":13.74927,"longitude":-60.99375},{"name":"Village","countryCode":"LC","stateCode":"08","latitude":13.81904,"longitude":-60.89692},{"name":"Village","countryCode":"LC","stateCode":"12","latitude":13.90526,"longitude":-61.06108},{"name":"Village/Petite Bourgh","countryCode":"LC","stateCode":"01","latitude":13.93801,"longitude":-61.04184},{"name":"Volet","countryCode":"LC","stateCode":"08","latitude":13.82626,"longitude":-60.90789},{"name":"Warwick/Daban","countryCode":"LC","stateCode":"07","latitude":13.81084,"longitude":-61.00047},{"name":"Waterworks","countryCode":"LC","stateCode":"02","latitude":14.00498,"longitude":-60.97635},{"name":"Westall Group/The Mangue","countryCode":"LC","stateCode":"11","latitude":13.72707,"longitude":-60.95312},{"name":"Wilton'S Yard/Grave Yard","countryCode":"LC","stateCode":"02","latitude":14.00968,"longitude":-60.98639},{"name":"Yorke Hill","countryCode":"LC","stateCode":"02","latitude":14.01694,"longitude":-60.97919},{"name":"Zenon","countryCode":"LC","stateCode":"10","latitude":13.85953,"longitude":-61.03394}]
