[{"name":"Akurana","countryCode":"LK","stateCode":"21","latitude":7.365,"longitude":80.617222},{"name":"Alawatugoda","countryCode":"LK","stateCode":"21","latitude":7.41048962,"longitude":80.60918933},{"name":"Ambalangoda","countryCode":"LK","stateCode":"3","latitude":6.2355,"longitude":80.0538},{"name":"Ambatenna","countryCode":"LK","stateCode":"21","latitude":7.35252855,"longitude":80.61378113},{"name":"Ampara","countryCode":"LK","stateCode":"5","latitude":7.29754,"longitude":81.68202},{"name":"Ampara District","countryCode":"LK","stateCode":"5","latitude":7.0833,"longitude":81.75},{"name":"Anuradhapura","countryCode":"LK","stateCode":"7","latitude":8.31223,"longitude":80.41306},{"name":"Anuradhapura District","countryCode":"LK","stateCode":"7","latitude":8.33333,"longitude":80.5},{"name":"Badulla","countryCode":"LK","stateCode":"8","latitude":6.9802,"longitude":81.0577},{"name":"Badulla District","countryCode":"LK","stateCode":"8","latitude":6.98472,"longitude":81.05639},{"name":"Battaramulla South","countryCode":"LK","stateCode":"1","latitude":6.8964,"longitude":79.9181},{"name":"Batticaloa","countryCode":"LK","stateCode":"5","latitude":7.7102,"longitude":81.6924},{"name":"Batticaloa District","countryCode":"LK","stateCode":"5","latitude":7.75,"longitude":81.4997},{"name":"Bentota","countryCode":"LK","stateCode":"3","latitude":6.42598,"longitude":79.99575},{"name":"Beruwala","countryCode":"LK","stateCode":"1","latitude":6.4788,"longitude":79.9828},{"name":"Chilaw","countryCode":"LK","stateCode":"6","latitude":7.57583,"longitude":79.79528},{"name":"Colombo","countryCode":"LK","stateCode":"1","latitude":6.93548,"longitude":79.84868},{"name":"Colombo District","countryCode":"LK","stateCode":"1","latitude":6.8664,"longitude":80.0166},{"name":"Dambulla","countryCode":"LK","stateCode":"2","latitude":7.86,"longitude":80.65167},{"name":"Daskara","countryCode":"LK","stateCode":"21","latitude":7.20902217,"longitude":80.57764643},{"name":"Daulagala","countryCode":"LK","stateCode":"21","latitude":7.22882494,"longitude":80.57756073},{"name":"Dehiwala-Mount Lavinia","countryCode":"LK","stateCode":"11","latitude":6.84019,"longitude":79.87116},{"name":"Delthota","countryCode":"LK","stateCode":"21","latitude":7.18491721,"longitude":80.70488697},{"name":"Devinuwara","countryCode":"LK","stateCode":"3","latitude":5.92825,"longitude":80.5888},{"name":"Doluwa","countryCode":"LK","stateCode":"21","latitude":7.18518536,"longitude":80.6057345},{"name":"Ella Town","countryCode":"LK","stateCode":"8","latitude":6.8756,"longitude":81.0463},{"name":"Eravur Town","countryCode":"LK","stateCode":"5","latitude":7.7782,"longitude":81.6038},{"name":"Galagedara","countryCode":"LK","stateCode":"21","latitude":7.368333,"longitude":80.5275},{"name":"Galhinna","countryCode":"LK","stateCode":"21","latitude":7.416142,"longitude":80.568842},{"name":"Galle","countryCode":"LK","stateCode":"3","latitude":6.0461,"longitude":80.2103},{"name":"Galle District","countryCode":"LK","stateCode":"3","latitude":6.25,"longitude":80.25},{"name":"Gampaha","countryCode":"LK","stateCode":"1","latitude":7.0897,"longitude":79.9925},{"name":"Gampaha District","countryCode":"LK","stateCode":"1","latitude":7.1333,"longitude":80},{"name":"Gampola","countryCode":"LK","stateCode":"21","latitude":7.1643,"longitude":80.5696},{"name":"Ganga Ihala Korale","countryCode":"LK","stateCode":"21","latitude":7.11455516,"longitude":80.5144881},{"name":"Hambantota District","countryCode":"LK","stateCode":"3","latitude":6.2544,"longitude":81.1111},{"name":"Hanguranketa","countryCode":"LK","stateCode":"21","latitude":7.166667,"longitude":80.783333},{"name":"Hanwella Ihala","countryCode":"LK","stateCode":"1","latitude":6.9012,"longitude":80.0852},{"name":"Hapugastalawa","countryCode":"LK","stateCode":"21","latitude":7.05872498,"longitude":80.57137014},{"name":"Haputale","countryCode":"LK","stateCode":"8","latitude":6.76566,"longitude":80.95104},{"name":"Harispattuwa","countryCode":"LK","stateCode":"21","latitude":7.33016007,"longitude":80.58765149},{"name":"Hatharaliyadda","countryCode":"LK","stateCode":"21","latitude":7.33032982,"longitude":80.47875881},{"name":"Hatton","countryCode":"LK","stateCode":"2","latitude":6.8916,"longitude":80.5955},{"name":"Hendala","countryCode":"LK","stateCode":"1","latitude":6.9909,"longitude":79.883},{"name":"Hikkaduwa","countryCode":"LK","stateCode":"3","latitude":6.1407,"longitude":80.1012},{"name":"Homagama","countryCode":"LK","stateCode":"11","latitude":6.84879896,"longitude":80.004673},{"name":"Horana South","countryCode":"LK","stateCode":"1","latitude":6.7159,"longitude":80.0626},{"name":"Horawala Junction","countryCode":"LK","stateCode":"1","latitude":6.48088,"longitude":80.12708},{"name":"Ja Ela","countryCode":"LK","stateCode":"1","latitude":7.0744,"longitude":79.8919},{"name":"Jaffna","countryCode":"LK","stateCode":"4","latitude":9.66845,"longitude":80.00742},{"name":"Jaffna District","countryCode":"LK","stateCode":"4","latitude":9.75,"longitude":80.08333},{"name":"Kadugannawa","countryCode":"LK","stateCode":"21","latitude":7.2547,"longitude":80.5242},{"name":"Kaduwela","countryCode":"LK","stateCode":"11","latitude":6.9310626,"longitude":79.9794422},{"name":"Kalmunai","countryCode":"LK","stateCode":"5","latitude":7.40902,"longitude":81.83472},{"name":"Kalutara","countryCode":"LK","stateCode":"1","latitude":6.5831,"longitude":79.9593},{"name":"Kandana","countryCode":"LK","stateCode":"1","latitude":7.048,"longitude":79.8937},{"name":"Kandy","countryCode":"LK","stateCode":"2","latitude":7.2906,"longitude":80.6336},{"name":"Kandy District","countryCode":"LK","stateCode":"2","latitude":7.3044,"longitude":80.7073},{"name":"Kandy Four Gravets","countryCode":"LK","stateCode":"21","latitude":7.28318748,"longitude":80.63527585},{"name":"Kataragama","countryCode":"LK","stateCode":"8","latitude":6.4134,"longitude":81.3346},{"name":"Katugastota","countryCode":"LK","stateCode":"21","latitude":7.333333,"longitude":80.616667},{"name":"Katunayaka","countryCode":"LK","stateCode":"1","latitude":7.16992,"longitude":79.88837},{"name":"Kegalle","countryCode":"LK","stateCode":"9","latitude":7.2523,"longitude":80.3436},{"name":"Kegalle District","countryCode":"LK","stateCode":"9","latitude":7.1167,"longitude":80.3333},{"name":"Kelaniya","countryCode":"LK","stateCode":"1","latitude":6.9553,"longitude":79.922},{"name":"Kesbewa","countryCode":"LK","stateCode":"11","latitude":6.78425894,"longitude":79.94665276},{"name":"Kilinochchi","countryCode":"LK","stateCode":"4","latitude":9.3961,"longitude":80.3982},{"name":"Kilinochchi District","countryCode":"LK","stateCode":"4","latitude":9.39487,"longitude":80.40894},{"name":"Koggala","countryCode":"LK","stateCode":"3","latitude":5.9886,"longitude":80.3286},{"name":"Kolonnawa","countryCode":"LK","stateCode":"11","latitude":6.92893463,"longitude":79.89495168},{"name":"Kotikawatta","countryCode":"LK","stateCode":"1","latitude":6.9269,"longitude":79.9095},{"name":"Kotte","countryCode":"LK","stateCode":"11","latitude":6.88932048,"longitude":79.90359501},{"name":"Kuliyapitiya","countryCode":"LK","stateCode":"6","latitude":7.4688,"longitude":80.0401},{"name":"Kundasale","countryCode":"LK","stateCode":"21","latitude":7.30391594,"longitude":80.71230408},{"name":"Kurunegala","countryCode":"LK","stateCode":"6","latitude":7.4839,"longitude":80.3683},{"name":"Kurunegala District","countryCode":"LK","stateCode":"6","latitude":7.75,"longitude":80.25},{"name":"Madawala","countryCode":"LK","stateCode":"21","latitude":7.328331,"longitude":80.673552},{"name":"Maharagama","countryCode":"LK","stateCode":"11","latitude":6.84954886,"longitude":79.92507313},{"name":"Matale","countryCode":"LK","stateCode":"2","latitude":7.4698,"longitude":80.6217},{"name":"Matale District","countryCode":"LK","stateCode":"2","latitude":7.6598,"longitude":80.7073},{"name":"Matara","countryCode":"LK","stateCode":"3","latitude":5.94851,"longitude":80.53528},{"name":"Matara District","countryCode":"LK","stateCode":"3","latitude":6.1329,"longitude":80.528},{"name":"Medadumbara","countryCode":"LK","stateCode":"21","latitude":7.30425996,"longitude":80.77519844},{"name":"Menikdiwela","countryCode":"LK","stateCode":"21","latitude":7.083333,"longitude":80.733333},{"name":"Mihintale","countryCode":"LK","stateCode":"7","latitude":8.3593,"longitude":80.5103},{"name":"Minipe","countryCode":"LK","stateCode":"21","latitude":7.22638754,"longitude":81.00116732},{"name":"Minuwangoda","countryCode":"LK","stateCode":"1","latitude":7.1663,"longitude":79.9533},{"name":"Mirissa city","countryCode":"LK","stateCode":"3","latitude":5.94655,"longitude":80.45831},{"name":"Monaragala","countryCode":"LK","stateCode":"8","latitude":6.8714,"longitude":81.3487},{"name":"Moneragala District","countryCode":"LK","stateCode":"8","latitude":6.66667,"longitude":81.33333},{"name":"Moratuwa","countryCode":"LK","stateCode":"11","latitude":6.78149272,"longitude":79.88347117},{"name":"Mulleriyawa","countryCode":"LK","stateCode":"1","latitude":6.933,"longitude":79.9297},{"name":"Nawalapitiya","countryCode":"LK","stateCode":"21","latitude":7.03696481,"longitude":80.51626688},{"name":"Negombo","countryCode":"LK","stateCode":"1","latitude":7.2083,"longitude":79.8358},{"name":"Nuwara Eliya","countryCode":"LK","stateCode":"2","latitude":6.97078,"longitude":80.78286},{"name":"Nuwara Eliya District","countryCode":"LK","stateCode":"2","latitude":6.9785,"longitude":80.7133},{"name":"Padukka","countryCode":"LK","stateCode":"11","latitude":6.8479468,"longitude":80.10153292},{"name":"Pallekele","countryCode":"LK","stateCode":"21","latitude":7.283333,"longitude":80.7},{"name":"Panadura","countryCode":"LK","stateCode":"1","latitude":6.7132,"longitude":79.9026},{"name":"Panvila","countryCode":"LK","stateCode":"21","latitude":7.4092975,"longitude":80.73966228},{"name":"Pasbage Korale","countryCode":"LK","stateCode":"21","latitude":7.0151045,"longitude":80.54078073},{"name":"Pathadumbara","countryCode":"LK","stateCode":"21","latitude":7.34931196,"longitude":80.66303689},{"name":"Pathahewaheta","countryCode":"LK","stateCode":"21","latitude":7.23139207,"longitude":80.70848937},{"name":"Peliyagoda","countryCode":"LK","stateCode":"1","latitude":6.9685,"longitude":79.8836},{"name":"Peradeniya","countryCode":"LK","stateCode":"21","latitude":7.266667,"longitude":80.6},{"name":"Pilimathalawa","countryCode":"LK","stateCode":"21","latitude":7.27,"longitude":80.57},{"name":"Pita Kotte","countryCode":"LK","stateCode":"1","latitude":6.8905,"longitude":79.9015},{"name":"Point Pedro","countryCode":"LK","stateCode":"4","latitude":9.81667,"longitude":80.23333},{"name":"Polonnaruwa","countryCode":"LK","stateCode":"7","latitude":7.93965,"longitude":81.00274},{"name":"Polonnaruwa District","countryCode":"LK","stateCode":"7","latitude":8,"longitude":81},{"name":"Poojapitiya","countryCode":"LK","stateCode":"21","latitude":7.38093796,"longitude":80.58913708},{"name":"Pussellawa","countryCode":"LK","stateCode":"21","latitude":7.105333,"longitude":80.636667},{"name":"Puttalam","countryCode":"LK","stateCode":"6","latitude":8.0362,"longitude":79.8283},{"name":"Puttalam District","countryCode":"LK","stateCode":"6","latitude":8.0454,"longitude":79.9319},{"name":"Ratmalana","countryCode":"LK","stateCode":"11","latitude":6.82105987,"longitude":79.88023083},{"name":"Ratnapura","countryCode":"LK","stateCode":"9","latitude":6.6858,"longitude":80.4036},{"name":"Ratnapura District","countryCode":"LK","stateCode":"9","latitude":6.5831,"longitude":80.5833},{"name":"Seethawaka","countryCode":"LK","stateCode":"11","latitude":6.92959912,"longitude":80.14979867},{"name":"Sigiriya","countryCode":"LK","stateCode":"2","latitude":7.94946,"longitude":80.75037},{"name":"Sri Jayewardenepura Kotte","countryCode":"LK","stateCode":"1","latitude":6.88297,"longitude":79.90708},{"name":"Talatuoya","countryCode":"LK","stateCode":"21","latitude":7.25,"longitude":80.683333},{"name":"Talawakele","countryCode":"LK","stateCode":"2","latitude":6.9371,"longitude":80.6581},{"name":"Talpe","countryCode":"LK","stateCode":"3","latitude":5.9999,"longitude":80.2787},{"name":"Tangalle","countryCode":"LK","stateCode":"3","latitude":6.02338,"longitude":80.79738},{"name":"Teldeniya","countryCode":"LK","stateCode":"21","latitude":7.3,"longitude":80.766667},{"name":"Thimbirigasyaya","countryCode":"LK","stateCode":"11","latitude":6.90214217,"longitude":79.86957578},{"name":"Thumpane","countryCode":"LK","stateCode":"21","latitude":7.36616728,"longitude":80.51587048},{"name":"Trincomalee","countryCode":"LK","stateCode":"5","latitude":8.5778,"longitude":81.2289},{"name":"Trincomalee District","countryCode":"LK","stateCode":"5","latitude":8.58333,"longitude":81.08333},{"name":"Udadumbara","countryCode":"LK","stateCode":"21","latitude":7.35,"longitude":80.833333},{"name":"Udapalatha","countryCode":"LK","stateCode":"21","latitude":7.11515526,"longitude":80.6024834},{"name":"Ududumbara","countryCode":"LK","stateCode":"21","latitude":7.31434839,"longitude":80.87707756},{"name":"Udunuwara","countryCode":"LK","stateCode":"21","latitude":7.22777866,"longitude":80.55894578},{"name":"Ulapane","countryCode":"LK","stateCode":"21","latitude":7.102778,"longitude":80.561111},{"name":"Unawatuna","countryCode":"LK","stateCode":"3","latitude":6.0212,"longitude":80.2503},{"name":"Vakarai","countryCode":"LK","stateCode":"5","latitude":8.13333,"longitude":81.43333},{"name":"Valvedditturai","countryCode":"LK","stateCode":"4","latitude":9.81667,"longitude":80.16667},{"name":"Vavuniya","countryCode":"LK","stateCode":"4","latitude":8.7514,"longitude":80.4971},{"name":"Vavuniya District","countryCode":"LK","stateCode":"4","latitude":8.86134,"longitude":80.47576},{"name":"Watadeniya","countryCode":"LK","stateCode":"21","latitude":7.195011,"longitude":80.552494},{"name":"Wattala","countryCode":"LK","stateCode":"1","latitude":6.98918,"longitude":79.89167},{"name":"Wattegama","countryCode":"LK","stateCode":"21","latitude":7.350278,"longitude":80.6825},{"name":"Welamboda","countryCode":"LK","stateCode":"21","latitude":7.2,"longitude":80.55},{"name":"Weligama","countryCode":"LK","stateCode":"3","latitude":5.97501,"longitude":80.42968},{"name":"Welisara","countryCode":"LK","stateCode":"1","latitude":7.0281,"longitude":79.9014},{"name":"Wellawaya","countryCode":"LK","stateCode":"8","latitude":6.73694,"longitude":81.10279},{"name":"Yatinuwara","countryCode":"LK","stateCode":"21","latitude":7.28584509,"longitude":80.53516168}]
