[{"name":"Akademija (Kaunas)","countryCode":"LT","stateCode":"15","latitude":54.8964,"longitude":23.82411},{"name":"Akmenė","countryCode":"LT","stateCode":"43","latitude":56.25,"longitude":22.75},{"name":"Aleksotas","countryCode":"LT","stateCode":"15","latitude":54.88037,"longitude":23.90842},{"name":"Alytus","countryCode":"LT","stateCode":"02","latitude":54.39635,"longitude":24.04142},{"name":"Anyksciai","countryCode":"LT","stateCode":"UT","latitude":55.52557,"longitude":25.10264},{"name":"Ariogala","countryCode":"LT","stateCode":"15","latitude":55.262,"longitude":23.477},{"name":"Aukstadvaris","countryCode":"LT","stateCode":"57","latitude":54.57946,"longitude":24.52683},{"name":"Baltoji Vokė","countryCode":"LT","stateCode":"57","latitude":54.60002,"longitude":25.19318},{"name":"Birštonas","countryCode":"LT","stateCode":"15","latitude":54.61667,"longitude":24.03333},{"name":"Birzai","countryCode":"LT","stateCode":"33","latitude":56.2,"longitude":24.75},{"name":"Būgai","countryCode":"LT","stateCode":"TA","latitude":55.41387,"longitude":22.60894},{"name":"Dainava (Kaunas)","countryCode":"LT","stateCode":"15","latitude":54.91525,"longitude":23.96831},{"name":"Daugai","countryCode":"LT","stateCode":"02","latitude":54.36667,"longitude":24.33333},{"name":"Druskininkai","countryCode":"LT","stateCode":"02","latitude":54.01573,"longitude":23.98703},{"name":"Dūkštas","countryCode":"LT","stateCode":"UT","latitude":55.522,"longitude":26.321},{"name":"Eiguliai","countryCode":"LT","stateCode":"15","latitude":54.93133,"longitude":23.93243},{"name":"Eišiškės","countryCode":"LT","stateCode":"57","latitude":54.17414,"longitude":24.99917},{"name":"Elektrėnai","countryCode":"LT","stateCode":"57","latitude":54.78544,"longitude":24.66302},{"name":"Ežerėlis","countryCode":"LT","stateCode":"15","latitude":54.88315,"longitude":23.60396},{"name":"Fabijoniškės","countryCode":"LT","stateCode":"57","latitude":54.73333,"longitude":25.24167},{"name":"Gargždai","countryCode":"LT","stateCode":"21","latitude":55.70951,"longitude":21.39441},{"name":"Garliava","countryCode":"LT","stateCode":"15","latitude":54.82139,"longitude":23.8713},{"name":"Gelgaudiškis","countryCode":"LT","stateCode":"25","latitude":55.07688,"longitude":22.97699},{"name":"Grigiškės","countryCode":"LT","stateCode":"57","latitude":54.68333,"longitude":25.08333},{"name":"Ignalina","countryCode":"LT","stateCode":"UT","latitude":55.35,"longitude":26.16667},{"name":"Jieznas","countryCode":"LT","stateCode":"15","latitude":54.59937,"longitude":24.17593},{"name":"Jonava","countryCode":"LT","stateCode":"15","latitude":55.08333,"longitude":24.28333},{"name":"Joniškis","countryCode":"LT","stateCode":"43","latitude":56.23333,"longitude":23.61667},{"name":"Juodupė","countryCode":"LT","stateCode":"33","latitude":56.087,"longitude":25.607},{"name":"Jurbarkas","countryCode":"LT","stateCode":"TA","latitude":55.10859,"longitude":22.79885},{"name":"Justiniškės","countryCode":"LT","stateCode":"57","latitude":54.71664,"longitude":25.2174},{"name":"Kaišiadorys","countryCode":"LT","stateCode":"15","latitude":54.86667,"longitude":24.45},{"name":"Kalvarija","countryCode":"LT","stateCode":"25","latitude":54.417,"longitude":23.223},{"name":"Kalvarija Municipality","countryCode":"LT","stateCode":"25","latitude":54.41468,"longitude":23.22484},{"name":"Karmėlava","countryCode":"LT","stateCode":"15","latitude":54.97055,"longitude":24.06182},{"name":"Kaunas","countryCode":"LT","stateCode":"15","latitude":54.90272,"longitude":23.90961},{"name":"Kazlų Rūda","countryCode":"LT","stateCode":"25","latitude":54.749,"longitude":23.49},{"name":"Kazlų Rūda Municipality","countryCode":"LT","stateCode":"25","latitude":54.74751,"longitude":23.49272},{"name":"Kėdainiai","countryCode":"LT","stateCode":"15","latitude":55.28333,"longitude":23.96667},{"name":"Kelmė","countryCode":"LT","stateCode":"43","latitude":55.63333,"longitude":22.93333},{"name":"Klaipėda","countryCode":"LT","stateCode":"21","latitude":55.71667,"longitude":21.11667},{"name":"Kretinga","countryCode":"LT","stateCode":"21","latitude":55.8888,"longitude":21.24448},{"name":"Kudirkos Naumiestis","countryCode":"LT","stateCode":"25","latitude":54.77353,"longitude":22.86138},{"name":"Kulautuva","countryCode":"LT","stateCode":"15","latitude":54.94212,"longitude":23.64218},{"name":"Kupiskis","countryCode":"LT","stateCode":"33","latitude":55.84027,"longitude":24.97976},{"name":"Kuršėnai","countryCode":"LT","stateCode":"43","latitude":56.00318,"longitude":22.93662},{"name":"Kybartai","countryCode":"LT","stateCode":"25","latitude":54.63858,"longitude":22.76316},{"name":"Lazdijai","countryCode":"LT","stateCode":"02","latitude":54.23333,"longitude":23.51667},{"name":"Lazdynai","countryCode":"LT","stateCode":"57","latitude":54.66815,"longitude":25.20684},{"name":"Lentvaris","countryCode":"LT","stateCode":"57","latitude":54.64364,"longitude":25.05162},{"name":"Linkuva","countryCode":"LT","stateCode":"43","latitude":56.08596,"longitude":23.97061},{"name":"Marijampolė","countryCode":"LT","stateCode":"25","latitude":54.55991,"longitude":23.35412},{"name":"Marijampolė Municipality","countryCode":"LT","stateCode":"25","latitude":54.56667,"longitude":23.35},{"name":"Mastaiciai","countryCode":"LT","stateCode":"15","latitude":54.81998,"longitude":23.84462},{"name":"Mazeikiai","countryCode":"LT","stateCode":"51","latitude":56.31667,"longitude":22.33333},{"name":"Moletai","countryCode":"LT","stateCode":"UT","latitude":55.23333,"longitude":25.41667},{"name":"Naujamiestis","countryCode":"LT","stateCode":"57","latitude":54.67951,"longitude":25.26855},{"name":"Naujoji Akmene","countryCode":"LT","stateCode":"43","latitude":56.31667,"longitude":22.9},{"name":"Nemenčinė","countryCode":"LT","stateCode":"57","latitude":54.84776,"longitude":25.46992},{"name":"Neringa","countryCode":"LT","stateCode":"21","latitude":55.36667,"longitude":21.06667},{"name":"Nida","countryCode":"LT","stateCode":"21","latitude":55.3086,"longitude":20.99651},{"name":"Obeliai","countryCode":"LT","stateCode":"33","latitude":55.96895,"longitude":25.15648},{"name":"Pabradė","countryCode":"LT","stateCode":"57","latitude":54.981,"longitude":25.761},{"name":"Pagėgiai","countryCode":"LT","stateCode":"TA","latitude":55.134,"longitude":21.90446},{"name":"Pakruojis","countryCode":"LT","stateCode":"43","latitude":55.96667,"longitude":23.86667},{"name":"Palanga","countryCode":"LT","stateCode":"21","latitude":55.9175,"longitude":21.06861},{"name":"Panevėžys","countryCode":"LT","stateCode":"33","latitude":55.73333,"longitude":24.35},{"name":"Panevėžys City","countryCode":"LT","stateCode":"33","latitude":55.736,"longitude":24.34347},{"name":"Panevėžys District Municipality","countryCode":"LT","stateCode":"33","latitude":55.73301,"longitude":24.37609},{"name":"Pašilaičiai","countryCode":"LT","stateCode":"57","latitude":54.73429,"longitude":25.21912},{"name":"Pasvalys","countryCode":"LT","stateCode":"33","latitude":56.06667,"longitude":24.4},{"name":"Pilaitė","countryCode":"LT","stateCode":"57","latitude":54.69981,"longitude":25.18393},{"name":"Plateliai","countryCode":"LT","stateCode":"51","latitude":56.04657,"longitude":21.81615},{"name":"Plunge","countryCode":"LT","stateCode":"51","latitude":55.91139,"longitude":21.84417},{"name":"Priekulė","countryCode":"LT","stateCode":"21","latitude":55.55427,"longitude":21.31903},{"name":"Prienai","countryCode":"LT","stateCode":"15","latitude":54.63333,"longitude":23.95},{"name":"Radviliskis","countryCode":"LT","stateCode":"43","latitude":55.81667,"longitude":23.53333},{"name":"Ramučiai","countryCode":"LT","stateCode":"15","latitude":54.9483,"longitude":24.0305},{"name":"Ramygala","countryCode":"LT","stateCode":"33","latitude":55.514,"longitude":24.3},{"name":"Raseiniai","countryCode":"LT","stateCode":"15","latitude":55.36667,"longitude":23.11667},{"name":"Rasos","countryCode":"LT","stateCode":"57","latitude":54.67877,"longitude":25.31173},{"name":"Rietavas","countryCode":"LT","stateCode":"51","latitude":55.72375,"longitude":21.93266},{"name":"Rokiškis","countryCode":"LT","stateCode":"33","latitude":55.96667,"longitude":25.58333},{"name":"Rūdiškės","countryCode":"LT","stateCode":"57","latitude":54.51609,"longitude":24.83084},{"name":"Rusnė","countryCode":"LT","stateCode":"21","latitude":55.2982,"longitude":21.3712},{"name":"Sakiai","countryCode":"LT","stateCode":"25","latitude":54.95,"longitude":23.05},{"name":"Salantai","countryCode":"LT","stateCode":"21","latitude":56.0565,"longitude":21.5689},{"name":"Šalčininkai","countryCode":"LT","stateCode":"57","latitude":54.3,"longitude":25.38333},{"name":"Sargėnai","countryCode":"LT","stateCode":"15","latitude":54.94933,"longitude":23.88316},{"name":"Seda","countryCode":"LT","stateCode":"51","latitude":56.16854,"longitude":22.09071},{"name":"Šeduva","countryCode":"LT","stateCode":"43","latitude":55.7493,"longitude":23.7561},{"name":"Senieji Trakai","countryCode":"LT","stateCode":"57","latitude":54.609,"longitude":24.98},{"name":"Šeškinė","countryCode":"LT","stateCode":"57","latitude":54.70972,"longitude":25.25053},{"name":"Šiauliai","countryCode":"LT","stateCode":"43","latitude":55.93333,"longitude":23.31667},{"name":"Šilainiai","countryCode":"LT","stateCode":"15","latitude":54.92911,"longitude":23.88599},{"name":"Šilalė","countryCode":"LT","stateCode":"TA","latitude":55.46667,"longitude":22.2},{"name":"Silute","countryCode":"LT","stateCode":"21","latitude":55.34889,"longitude":21.48306},{"name":"Simnas","countryCode":"LT","stateCode":"02","latitude":54.382,"longitude":23.646},{"name":"Sirvintos","countryCode":"LT","stateCode":"57","latitude":55.05,"longitude":24.95},{"name":"Skaidiškės","countryCode":"LT","stateCode":"57","latitude":54.61398,"longitude":25.39573},{"name":"Skuodas","countryCode":"LT","stateCode":"21","latitude":56.26667,"longitude":21.53333},{"name":"Švenčionėliai","countryCode":"LT","stateCode":"57","latitude":55.16163,"longitude":26.00177},{"name":"Svencionys","countryCode":"LT","stateCode":"57","latitude":55.15,"longitude":26.16667},{"name":"Šventoji","countryCode":"LT","stateCode":"21","latitude":56.0261,"longitude":21.08411},{"name":"Taurage","countryCode":"LT","stateCode":"TA","latitude":55.25222,"longitude":22.28972},{"name":"Telsiai","countryCode":"LT","stateCode":"51","latitude":55.98139,"longitude":22.24722},{"name":"Trakai","countryCode":"LT","stateCode":"57","latitude":54.63783,"longitude":24.93433},{"name":"Tytuvėnėliai","countryCode":"LT","stateCode":"43","latitude":55.62345,"longitude":23.17162},{"name":"Ukmerge","countryCode":"LT","stateCode":"57","latitude":55.25,"longitude":24.75},{"name":"Utena","countryCode":"LT","stateCode":"UT","latitude":55.49764,"longitude":25.59918},{"name":"Vabalninkas","countryCode":"LT","stateCode":"33","latitude":55.98151,"longitude":24.74828},{"name":"Varėna","countryCode":"LT","stateCode":"02","latitude":54.21667,"longitude":24.56667},{"name":"Varniai","countryCode":"LT","stateCode":"51","latitude":55.74435,"longitude":22.37251},{"name":"Veisiejai","countryCode":"LT","stateCode":"02","latitude":54.1011,"longitude":23.69614},{"name":"Venta","countryCode":"LT","stateCode":"43","latitude":56.19162,"longitude":22.69528},{"name":"Viekšniai","countryCode":"LT","stateCode":"51","latitude":56.23598,"longitude":22.51667},{"name":"Vievis","countryCode":"LT","stateCode":"57","latitude":54.76667,"longitude":24.8},{"name":"Vilkaviskis","countryCode":"LT","stateCode":"25","latitude":54.65167,"longitude":23.03222},{"name":"Vilkaviškis District Municipality","countryCode":"LT","stateCode":"25","latitude":54.65,"longitude":23.03333},{"name":"Vilkija","countryCode":"LT","stateCode":"15","latitude":55.04609,"longitude":23.58552},{"name":"Vilkpėdė","countryCode":"LT","stateCode":"57","latitude":54.66969,"longitude":25.2477},{"name":"Vilnius","countryCode":"LT","stateCode":"57","latitude":54.68916,"longitude":25.2798},{"name":"Vilnius District Municipality","countryCode":"LT","stateCode":"57","latitude":54.73333,"longitude":25.38333},{"name":"Virbalis","countryCode":"LT","stateCode":"25","latitude":54.62858,"longitude":22.82272},{"name":"Visaginas","countryCode":"LT","stateCode":"UT","latitude":55.6,"longitude":26.41667},{"name":"Žagarė","countryCode":"LT","stateCode":"43","latitude":56.36149,"longitude":23.25094},{"name":"Zarasai","countryCode":"LT","stateCode":"UT","latitude":55.73333,"longitude":26.25},{"name":"Žemaičių Naumiestis","countryCode":"LT","stateCode":"21","latitude":55.35941,"longitude":21.70364},{"name":"Žiežmariai","countryCode":"LT","stateCode":"15","latitude":54.80725,"longitude":24.44073}]
