[{"name":"Andrijevica","countryCode":"ME","stateCode":"01","latitude":42.73389,"longitude":19.79194},{"name":"Bar","countryCode":"ME","stateCode":"02","latitude":42.09306,"longitude":19.10028},{"name":"Berane","countryCode":"ME","stateCode":"03","latitude":42.8425,"longitude":19.87333},{"name":"Bijelo Polje","countryCode":"ME","stateCode":"04","latitude":43.03834,"longitude":19.74758},{"name":"Budva","countryCode":"ME","stateCode":"05","latitude":42.28639,"longitude":18.84},{"name":"Cetinje","countryCode":"ME","stateCode":"06","latitude":42.39063,"longitude":18.91417},{"name":"Danilovgrad","countryCode":"ME","stateCode":"07","latitude":42.55384,"longitude":19.14608},{"name":"Dobrota","countryCode":"ME","stateCode":"10","latitude":42.45417,"longitude":18.76833},{"name":"Golubovci","countryCode":"ME","stateCode":"16","latitude":42.335,"longitude":19.23111},{"name":"Goričani","countryCode":"ME","stateCode":"16","latitude":42.33222,"longitude":19.21194},{"name":"Gusinje","countryCode":"ME","stateCode":"22","latitude":42.56194,"longitude":19.83389},{"name":"Kolašin","countryCode":"ME","stateCode":"09","latitude":42.82229,"longitude":19.51653},{"name":"Kotor","countryCode":"ME","stateCode":"10","latitude":42.42067,"longitude":18.76825},{"name":"Mataguži","countryCode":"ME","stateCode":"16","latitude":42.32361,"longitude":19.27278},{"name":"Mojanovići","countryCode":"ME","stateCode":"16","latitude":42.34167,"longitude":19.22139},{"name":"Mojkovac","countryCode":"ME","stateCode":"11","latitude":42.96044,"longitude":19.5833},{"name":"Nikšić","countryCode":"ME","stateCode":"12","latitude":42.7731,"longitude":18.94446},{"name":"Petrovac na Moru","countryCode":"ME","stateCode":"05","latitude":42.20556,"longitude":18.9425},{"name":"Plav","countryCode":"ME","stateCode":"13","latitude":42.59694,"longitude":19.94556},{"name":"Pljevlja","countryCode":"ME","stateCode":"14","latitude":43.3567,"longitude":19.35843},{"name":"Plužine","countryCode":"ME","stateCode":"15","latitude":43.15278,"longitude":18.83944},{"name":"Podgorica","countryCode":"ME","stateCode":"16","latitude":42.44111,"longitude":19.26361},{"name":"Prčanj","countryCode":"ME","stateCode":"10","latitude":42.4575,"longitude":18.74222},{"name":"Risan","countryCode":"ME","stateCode":"10","latitude":42.515,"longitude":18.69556},{"name":"Rožaje","countryCode":"ME","stateCode":"17","latitude":42.83299,"longitude":20.16652},{"name":"Šavnik","countryCode":"ME","stateCode":"18","latitude":42.95639,"longitude":19.09667},{"name":"Spuž","countryCode":"ME","stateCode":"07","latitude":42.515,"longitude":19.195},{"name":"Stari Bar","countryCode":"ME","stateCode":"02","latitude":42.097,"longitude":19.136},{"name":"Šušanj","countryCode":"ME","stateCode":"02","latitude":42.11556,"longitude":19.08833},{"name":"Sutomore","countryCode":"ME","stateCode":"02","latitude":42.14278,"longitude":19.04667},{"name":"Tivat","countryCode":"ME","stateCode":"19","latitude":42.43639,"longitude":18.69611},{"name":"Tuzi","countryCode":"ME","stateCode":"16","latitude":42.36556,"longitude":19.33139},{"name":"Ulcinj","countryCode":"ME","stateCode":"20","latitude":41.92936,"longitude":19.22436},{"name":"Žabljak","countryCode":"ME","stateCode":"21","latitude":43.15423,"longitude":19.12325}]
