[{"name":"Batinci","countryCode":"MK","stateCode":"74","latitude":41.91909,"longitude":21.47978},{"name":"Bedinje","countryCode":"MK","stateCode":"47","latitude":42.14167,"longitude":21.69639},{"name":"Belčišta","countryCode":"MK","stateCode":"22","latitude":41.30278,"longitude":20.83028},{"name":"Beranci","countryCode":"MK","stateCode":"53","latitude":41.15969,"longitude":21.35963},{"name":"Berovo","countryCode":"MK","stateCode":"03","latitude":41.70306,"longitude":22.85778},{"name":"Bistrica","countryCode":"MK","stateCode":"04","latitude":40.97892,"longitude":21.3658},{"name":"Bitola","countryCode":"MK","stateCode":"04","latitude":41.03143,"longitude":21.33474},{"name":"Blatec","countryCode":"MK","stateCode":"14","latitude":41.83668,"longitude":22.57909},{"name":"Bogdanci","countryCode":"MK","stateCode":"05","latitude":41.20306,"longitude":22.57556},{"name":"Bogomila","countryCode":"MK","stateCode":"80","latitude":41.59306,"longitude":21.47167},{"name":"Bogovinje","countryCode":"MK","stateCode":"06","latitude":41.92361,"longitude":20.91361},{"name":"Bojane","countryCode":"MK","stateCode":"85","latitude":42.00009,"longitude":21.19265},{"name":"Bosilovo","countryCode":"MK","stateCode":"07","latitude":41.44056,"longitude":22.72778},{"name":"Brvenica","countryCode":"MK","stateCode":"08","latitude":41.96722,"longitude":20.98083},{"name":"Bučin","countryCode":"MK","stateCode":"46","latitude":41.27377,"longitude":21.31692},{"name":"Bukovik","countryCode":"MK","stateCode":"68","latitude":41.96833,"longitude":21.23694},{"name":"Butel","countryCode":"MK","stateCode":"09","latitude":42.03083,"longitude":21.44667},{"name":"Čair","countryCode":"MK","stateCode":"79","latitude":42.01528,"longitude":21.44111},{"name":"Capari","countryCode":"MK","stateCode":"04","latitude":41.05656,"longitude":21.17884},{"name":"Čaška","countryCode":"MK","stateCode":"80","latitude":41.65056,"longitude":21.66222},{"name":"Cegrane","countryCode":"MK","stateCode":"19","latitude":41.83889,"longitude":20.97583},{"name":"Čelopek","countryCode":"MK","stateCode":"08","latitude":41.93167,"longitude":21.01333},{"name":"Centar Župa","countryCode":"MK","stateCode":"78","latitude":41.47849,"longitude":20.55945},{"name":"Češinovo","countryCode":"MK","stateCode":"81","latitude":41.87148,"longitude":22.28961},{"name":"Cresevo","countryCode":"MK","stateCode":"17","latitude":42.05083,"longitude":21.50972},{"name":"Crnilište","countryCode":"MK","stateCode":"27","latitude":41.53025,"longitude":21.41416},{"name":"Delcevo","countryCode":"MK","stateCode":"23","latitude":41.96722,"longitude":22.76944},{"name":"Delogožda","countryCode":"MK","stateCode":"72","latitude":41.25728,"longitude":20.7218},{"name":"Demir Hisar","countryCode":"MK","stateCode":"25","latitude":41.22097,"longitude":21.20302},{"name":"Demir Kapija","countryCode":"MK","stateCode":"24","latitude":41.40613,"longitude":22.24631},{"name":"Desovo","countryCode":"MK","stateCode":"27","latitude":41.46278,"longitude":21.49111},{"name":"Dobarce","countryCode":"MK","stateCode":"30","latitude":41.9553,"longitude":21.08875},{"name":"Dobri Dol","countryCode":"MK","stateCode":"16","latitude":41.8652,"longitude":20.89009},{"name":"Dobrošte","countryCode":"MK","stateCode":"76","latitude":42.10333,"longitude":21.07778},{"name":"Dobruševo","countryCode":"MK","stateCode":"53","latitude":41.16861,"longitude":21.4825},{"name":"Dolna Banjica","countryCode":"MK","stateCode":"19","latitude":41.78611,"longitude":20.90611},{"name":"Dolneni","countryCode":"MK","stateCode":"27","latitude":41.42579,"longitude":21.45402},{"name":"Dolno Količani","countryCode":"MK","stateCode":"74","latitude":41.88639,"longitude":21.48556},{"name":"Dolno Orizari","countryCode":"MK","stateCode":"04","latitude":41.05028,"longitude":21.37944},{"name":"Dolno Palčište","countryCode":"MK","stateCode":"06","latitude":41.96859,"longitude":20.92899},{"name":"Dolno Srpci","countryCode":"MK","stateCode":"53","latitude":41.1748,"longitude":21.36464},{"name":"Dračevo","countryCode":"MK","stateCode":"85","latitude":41.93667,"longitude":21.52167},{"name":"Drugovo","countryCode":"MK","stateCode":"40","latitude":41.4849,"longitude":20.92636},{"name":"Džepčište","countryCode":"MK","stateCode":"76","latitude":42.03287,"longitude":20.99817},{"name":"Forino","countryCode":"MK","stateCode":"19","latitude":41.82334,"longitude":20.96174},{"name":"Gevgelija","countryCode":"MK","stateCode":"18","latitude":41.14166,"longitude":22.50141},{"name":"Gjorče Petro","countryCode":"MK","stateCode":"29","latitude":42.00778,"longitude":21.35306},{"name":"Golema Rečica","countryCode":"MK","stateCode":"76","latitude":41.98803,"longitude":20.94517},{"name":"Gorno Orizari","countryCode":"MK","stateCode":"04","latitude":41.05188,"longitude":21.34548},{"name":"Gorno Orizari","countryCode":"MK","stateCode":"13","latitude":41.68583,"longitude":21.73475},{"name":"Gorobinci","countryCode":"MK","stateCode":"69","latitude":41.87507,"longitude":21.87599},{"name":"Gostivar","countryCode":"MK","stateCode":"19","latitude":41.79601,"longitude":20.90819},{"name":"Gradec","countryCode":"MK","stateCode":"06","latitude":41.89611,"longitude":20.90417},{"name":"Gradec","countryCode":"MK","stateCode":"14","latitude":41.85068,"longitude":22.51132},{"name":"Gradsko","countryCode":"MK","stateCode":"20","latitude":41.5775,"longitude":21.94278},{"name":"Grčec","countryCode":"MK","stateCode":"68","latitude":41.98806,"longitude":21.33028},{"name":"Grnčari","countryCode":"MK","stateCode":"66","latitude":41.01722,"longitude":21.05333},{"name":"Gurgurnica","countryCode":"MK","stateCode":"08","latitude":41.84508,"longitude":21.10538},{"name":"Ilinden","countryCode":"MK","stateCode":"34","latitude":41.99451,"longitude":21.58002},{"name":"Ilovica","countryCode":"MK","stateCode":"07","latitude":41.47224,"longitude":22.8048},{"name":"Ivankovci","countryCode":"MK","stateCode":"13","latitude":41.84889,"longitude":21.82028},{"name":"Izvor","countryCode":"MK","stateCode":"48","latitude":42.20322,"longitude":21.57812},{"name":"Jankovec","countryCode":"MK","stateCode":"66","latitude":41.11028,"longitude":21.01139},{"name":"Jegunovce","countryCode":"MK","stateCode":"35","latitude":42.07238,"longitude":21.12367},{"name":"Kadino","countryCode":"MK","stateCode":"34","latitude":41.96889,"longitude":21.60139},{"name":"Kamenjane","countryCode":"MK","stateCode":"06","latitude":41.94568,"longitude":20.92894},{"name":"Kanatlarci","countryCode":"MK","stateCode":"62","latitude":41.21028,"longitude":21.50333},{"name":"Karbinci","countryCode":"MK","stateCode":"37","latitude":41.81758,"longitude":22.23529},{"name":"Kavadarci","countryCode":"MK","stateCode":"36","latitude":41.43306,"longitude":22.01194},{"name":"Kičevo","countryCode":"MK","stateCode":"40","latitude":41.51267,"longitude":20.95886},{"name":"Kisela Voda","countryCode":"MK","stateCode":"39","latitude":41.94889,"longitude":21.50278},{"name":"Kochani","countryCode":"MK","stateCode":"42","latitude":41.91639,"longitude":22.41278},{"name":"Konče","countryCode":"MK","stateCode":"41","latitude":41.49511,"longitude":22.38359},{"name":"Kondovo","countryCode":"MK","stateCode":"68","latitude":42.01167,"longitude":21.31361},{"name":"Kosel","countryCode":"MK","stateCode":"58","latitude":41.17444,"longitude":20.83556},{"name":"Krani","countryCode":"MK","stateCode":"66","latitude":40.93934,"longitude":21.10911},{"name":"Kratovo","countryCode":"MK","stateCode":"43","latitude":42.07838,"longitude":22.1807},{"name":"Kriva Palanka","countryCode":"MK","stateCode":"44","latitude":42.20088,"longitude":22.33244},{"name":"Krivogashtani","countryCode":"MK","stateCode":"45","latitude":41.33611,"longitude":21.33306},{"name":"Krusevo","countryCode":"MK","stateCode":"46","latitude":41.36889,"longitude":21.24889},{"name":"Krušopek","countryCode":"MK","stateCode":"68","latitude":41.97833,"longitude":21.35444},{"name":"Kuklis","countryCode":"MK","stateCode":"73","latitude":41.40528,"longitude":22.66528},{"name":"Kukurečani","countryCode":"MK","stateCode":"04","latitude":41.09562,"longitude":21.32454},{"name":"Kumanovo","countryCode":"MK","stateCode":"47","latitude":42.13222,"longitude":21.71444},{"name":"Labunista","countryCode":"MK","stateCode":"72","latitude":41.26861,"longitude":20.59611},{"name":"Larce","countryCode":"MK","stateCode":"30","latitude":41.93319,"longitude":21.12628},{"name":"Lažani","countryCode":"MK","stateCode":"27","latitude":41.44222,"longitude":21.31583},{"name":"Lipkovo","countryCode":"MK","stateCode":"48","latitude":42.15639,"longitude":21.58528},{"name":"Lisičani","countryCode":"MK","stateCode":"61","latitude":41.46139,"longitude":21.05444},{"name":"Ljubin","countryCode":"MK","stateCode":"85","latitude":42.00139,"longitude":21.30917},{"name":"Logovardi","countryCode":"MK","stateCode":"04","latitude":41.03096,"longitude":21.40967},{"name":"Lojane","countryCode":"MK","stateCode":"48","latitude":42.23276,"longitude":21.6655},{"name":"Lozovo","countryCode":"MK","stateCode":"49","latitude":41.78389,"longitude":21.90556},{"name":"Lukovo","countryCode":"MK","stateCode":"72","latitude":41.35339,"longitude":20.60637},{"name":"Makedonska Kamenica","countryCode":"MK","stateCode":"51","latitude":42.02079,"longitude":22.5876},{"name":"Makedonski Brod","countryCode":"MK","stateCode":"52","latitude":41.51361,"longitude":21.21528},{"name":"Marino","countryCode":"MK","stateCode":"34","latitude":41.98776,"longitude":21.59148},{"name":"Markov Grad","countryCode":"MK","stateCode":"62","latitude":41.35722,"longitude":21.5325},{"name":"Matejce","countryCode":"MK","stateCode":"48","latitude":42.12556,"longitude":21.59778},{"name":"Mešeišta","countryCode":"MK","stateCode":"22","latitude":41.23814,"longitude":20.77414},{"name":"Miladinovci","countryCode":"MK","stateCode":"34","latitude":41.98029,"longitude":21.64982},{"name":"Miletino","countryCode":"MK","stateCode":"08","latitude":41.90753,"longitude":21.01601},{"name":"Miravci","countryCode":"MK","stateCode":"18","latitude":41.30925,"longitude":22.43641},{"name":"Mislesevo","countryCode":"MK","stateCode":"72","latitude":41.185,"longitude":20.70861},{"name":"Mogila","countryCode":"MK","stateCode":"53","latitude":41.10833,"longitude":21.37861},{"name":"Morani","countryCode":"MK","stateCode":"74","latitude":41.90978,"longitude":21.54997},{"name":"Murtino","countryCode":"MK","stateCode":"73","latitude":41.41537,"longitude":22.72589},{"name":"Negotino","countryCode":"MK","stateCode":"16","latitude":41.87792,"longitude":20.88389},{"name":"Negotino","countryCode":"MK","stateCode":"54","latitude":41.48456,"longitude":22.09056},{"name":"Nerašte","countryCode":"MK","stateCode":"75","latitude":42.10711,"longitude":21.1081},{"name":"Novaci","countryCode":"MK","stateCode":"55","latitude":41.04197,"longitude":21.45866},{"name":"Novo Selo","countryCode":"MK","stateCode":"56","latitude":41.41486,"longitude":22.88164},{"name":"Oblesevo","countryCode":"MK","stateCode":"81","latitude":41.88333,"longitude":22.33389},{"name":"Obršani","countryCode":"MK","stateCode":"45","latitude":41.28168,"longitude":21.3615},{"name":"Ohrid","countryCode":"MK","stateCode":"58","latitude":41.11722,"longitude":20.80194},{"name":"Ohrid Opština","countryCode":"MK","stateCode":"58","latitude":41.16667,"longitude":20.83333},{"name":"Oktisi","countryCode":"MK","stateCode":"72","latitude":41.2325,"longitude":20.60722},{"name":"Oraovica","countryCode":"MK","stateCode":"64","latitude":41.62583,"longitude":22.51333},{"name":"Orashac","countryCode":"MK","stateCode":"75","latitude":42.0625,"longitude":21.79972},{"name":"Orizari","countryCode":"MK","stateCode":"42","latitude":41.92262,"longitude":22.44628},{"name":"Otlja","countryCode":"MK","stateCode":"48","latitude":42.14315,"longitude":21.58675},{"name":"Pehčevo","countryCode":"MK","stateCode":"60","latitude":41.76226,"longitude":22.88921},{"name":"Pirava","countryCode":"MK","stateCode":"10","latitude":41.32042,"longitude":22.53047},{"name":"Pirok","countryCode":"MK","stateCode":"76","latitude":41.91083,"longitude":20.91056},{"name":"Plasnica","countryCode":"MK","stateCode":"61","latitude":41.46722,"longitude":21.12306},{"name":"Podareš","countryCode":"MK","stateCode":"64","latitude":41.61389,"longitude":22.54222},{"name":"Poroj","countryCode":"MK","stateCode":"76","latitude":42.02913,"longitude":20.99266},{"name":"Prilep","countryCode":"MK","stateCode":"62","latitude":41.34514,"longitude":21.55504},{"name":"Probishtip","countryCode":"MK","stateCode":"63","latitude":42.00306,"longitude":22.17861},{"name":"Pršovce","countryCode":"MK","stateCode":"75","latitude":42.08336,"longitude":21.05994},{"name":"Radishani","countryCode":"MK","stateCode":"09","latitude":42.06111,"longitude":21.44778},{"name":"Radolista","countryCode":"MK","stateCode":"72","latitude":41.16417,"longitude":20.62333},{"name":"Radovis","countryCode":"MK","stateCode":"64","latitude":41.63833,"longitude":22.46472},{"name":"Resen","countryCode":"MK","stateCode":"66","latitude":41.08934,"longitude":21.01092},{"name":"Romanovci","countryCode":"MK","stateCode":"47","latitude":42.09472,"longitude":21.69306},{"name":"Rosoman","countryCode":"MK","stateCode":"67","latitude":41.51671,"longitude":21.94585},{"name":"Rostusa","countryCode":"MK","stateCode":"50","latitude":41.61,"longitude":20.6},{"name":"Rusinovo","countryCode":"MK","stateCode":"03","latitude":41.68728,"longitude":22.80849},{"name":"Samokov","countryCode":"MK","stateCode":"52","latitude":41.68331,"longitude":21.14625},{"name":"Saraj","countryCode":"MK","stateCode":"85","latitude":42,"longitude":21.32778},{"name":"Sedlarevo","countryCode":"MK","stateCode":"30","latitude":41.88306,"longitude":21.1275},{"name":"Sekirnik","countryCode":"MK","stateCode":"07","latitude":41.43999,"longitude":22.79536},{"name":"Selce","countryCode":"MK","stateCode":"76","latitude":42.03482,"longitude":20.94035},{"name":"Shtip","countryCode":"MK","stateCode":"83","latitude":41.74583,"longitude":22.19583},{"name":"Šipkovica","countryCode":"MK","stateCode":"76","latitude":42.035,"longitude":20.91556},{"name":"Skopje","countryCode":"MK","stateCode":"38","latitude":41.99646,"longitude":21.43141},{"name":"Slatino","countryCode":"MK","stateCode":"75","latitude":42.06784,"longitude":21.03902},{"name":"Slepče","countryCode":"MK","stateCode":"25","latitude":41.23333,"longitude":21.175},{"name":"Sopotnica","countryCode":"MK","stateCode":"25","latitude":41.29594,"longitude":21.15357},{"name":"Srbica","countryCode":"MK","stateCode":"40","latitude":41.58672,"longitude":21.03027},{"name":"Srbinovo","countryCode":"MK","stateCode":"19","latitude":41.70586,"longitude":20.95859},{"name":"Sredno Konjare","countryCode":"MK","stateCode":"59","latitude":41.95743,"longitude":21.71494},{"name":"Star Dojran","countryCode":"MK","stateCode":"26","latitude":41.18647,"longitude":22.7203},{"name":"Stojakovo","countryCode":"MK","stateCode":"05","latitude":41.15556,"longitude":22.5775},{"name":"Strelci","countryCode":"MK","stateCode":"40","latitude":41.54046,"longitude":21.00563},{"name":"Strimnica","countryCode":"MK","stateCode":"30","latitude":41.96719,"longitude":21.03598},{"name":"Struga","countryCode":"MK","stateCode":"72","latitude":41.17799,"longitude":20.67784},{"name":"Strumica","countryCode":"MK","stateCode":"73","latitude":41.4375,"longitude":22.64333},{"name":"Studeničane","countryCode":"MK","stateCode":"74","latitude":41.92208,"longitude":21.53483},{"name":"Sušica","countryCode":"MK","stateCode":"56","latitude":41.43982,"longitude":22.83676},{"name":"Šuto Orizare","countryCode":"MK","stateCode":"84","latitude":42.04,"longitude":21.425},{"name":"Sveti Nikole","countryCode":"MK","stateCode":"69","latitude":41.86956,"longitude":21.95274},{"name":"Tearce","countryCode":"MK","stateCode":"75","latitude":42.07666,"longitude":21.0531},{"name":"Tetovo","countryCode":"MK","stateCode":"76","latitude":42.00973,"longitude":20.97155},{"name":"Topolčani","countryCode":"MK","stateCode":"62","latitude":41.22772,"longitude":21.43113},{"name":"Tuin","countryCode":"MK","stateCode":"40","latitude":41.61944,"longitude":21.04528},{"name":"Usje","countryCode":"MK","stateCode":"85","latitude":41.95871,"longitude":21.45835},{"name":"Vaksince","countryCode":"MK","stateCode":"48","latitude":42.20611,"longitude":21.66306},{"name":"Valandovo","countryCode":"MK","stateCode":"10","latitude":41.31744,"longitude":22.56002},{"name":"Vasilevo","countryCode":"MK","stateCode":"11","latitude":41.47408,"longitude":22.64301},{"name":"Vataša","countryCode":"MK","stateCode":"36","latitude":41.41694,"longitude":22.01889},{"name":"Veles","countryCode":"MK","stateCode":"13","latitude":41.71556,"longitude":21.77556},{"name":"Velesta","countryCode":"MK","stateCode":"72","latitude":41.24083,"longitude":20.64389},{"name":"Veljusa","countryCode":"MK","stateCode":"73","latitude":41.47611,"longitude":22.5675},{"name":"Vevčani","countryCode":"MK","stateCode":"12","latitude":41.24056,"longitude":20.59333},{"name":"Vinica","countryCode":"MK","stateCode":"14","latitude":41.88278,"longitude":22.50917},{"name":"Vladimirovo","countryCode":"MK","stateCode":"03","latitude":41.71,"longitude":22.79278},{"name":"Vraneštica","countryCode":"MK","stateCode":"40","latitude":41.44496,"longitude":21.02683},{"name":"Vrapčište","countryCode":"MK","stateCode":"16","latitude":41.83439,"longitude":20.88563},{"name":"Vratnica","countryCode":"MK","stateCode":"35","latitude":42.14333,"longitude":21.11694},{"name":"Vrutok","countryCode":"MK","stateCode":"19","latitude":41.76861,"longitude":20.83917},{"name":"Zajas","countryCode":"MK","stateCode":"40","latitude":41.60722,"longitude":20.93833},{"name":"Zelenikovo","countryCode":"MK","stateCode":"32","latitude":41.88413,"longitude":21.58848},{"name":"Zelino","countryCode":"MK","stateCode":"30","latitude":41.98028,"longitude":21.06417},{"name":"Žitoše","countryCode":"MK","stateCode":"27","latitude":41.41991,"longitude":21.29078},{"name":"Zletovo","countryCode":"MK","stateCode":"63","latitude":41.98861,"longitude":22.23611},{"name":"Zrnovci","countryCode":"MK","stateCode":"33","latitude":41.85417,"longitude":22.44444},{"name":"Арачиново","countryCode":"MK","stateCode":"02","latitude":42.02639,"longitude":21.56194},{"name":"Идризово","countryCode":"MK","stateCode":"34","latitude":41.96083,"longitude":21.57556},{"name":"Јурумлери","countryCode":"MK","stateCode":"34","latitude":41.96722,"longitude":21.55694},{"name":"Клечовце","countryCode":"MK","stateCode":"45","latitude":42.11611,"longitude":21.85722},{"name":"Петровец","countryCode":"MK","stateCode":"59","latitude":41.93889,"longitude":21.615},{"name":"Ранковце","countryCode":"MK","stateCode":"65","latitude":42.16964,"longitude":22.11617},{"name":"Слупчане","countryCode":"MK","stateCode":"48","latitude":42.17333,"longitude":21.62778},{"name":"Сопиште","countryCode":"MK","stateCode":"70","latitude":41.95472,"longitude":21.4275},{"name":"Старо Нагоричане","countryCode":"MK","stateCode":"71","latitude":42.19806,"longitude":21.82861},{"name":"Чучер - Сандево","countryCode":"MK","stateCode":"82","latitude":42.10361,"longitude":21.38222}]
