[{"name":"Abeïbara","countryCode":"ML","stateCode":"8","latitude":19.11667,"longitude":1.75},{"name":"Ansongo","countryCode":"ML","stateCode":"7","latitude":15.6597,"longitude":0.5022},{"name":"Araouane","countryCode":"ML","stateCode":"6","latitude":18.90476,"longitude":-3.52649},{"name":"Bafoulabé","countryCode":"ML","stateCode":"1","latitude":13.8065,"longitude":-10.8321},{"name":"Bamako","countryCode":"ML","stateCode":"BKO","latitude":12.65,"longitude":-8},{"name":"Banamba","countryCode":"ML","stateCode":"2","latitude":13.54773,"longitude":-7.44808},{"name":"Bandiagara","countryCode":"ML","stateCode":"5","latitude":14.35005,"longitude":-3.61038},{"name":"Baroueli","countryCode":"ML","stateCode":"4","latitude":13.07489,"longitude":-6.57171},{"name":"Bougouni","countryCode":"ML","stateCode":"3","latitude":11.41769,"longitude":-7.48323},{"name":"Cercle d’Abeïbara","countryCode":"ML","stateCode":"8","latitude":19.48878,"longitude":2.20025},{"name":"Cercle de Bourem","countryCode":"ML","stateCode":"7","latitude":17.71192,"longitude":-0.34284},{"name":"Cercle de Goundam","countryCode":"ML","stateCode":"6","latitude":18.60035,"longitude":-4.99306},{"name":"Cercle de San","countryCode":"ML","stateCode":"4","latitude":13.17895,"longitude":-5.01617},{"name":"Dire","countryCode":"ML","stateCode":"6","latitude":16.28017,"longitude":-3.31302},{"name":"Djénné","countryCode":"ML","stateCode":"5","latitude":13.90608,"longitude":-4.55332},{"name":"Douentza","countryCode":"ML","stateCode":"5","latitude":15.00155,"longitude":-2.94978},{"name":"Douentza Cercle","countryCode":"ML","stateCode":"5","latitude":15.06947,"longitude":-2.40875},{"name":"Gao","countryCode":"ML","stateCode":"7","latitude":16.27167,"longitude":-0.04472},{"name":"Gao Cercle","countryCode":"ML","stateCode":"7","latitude":16.72237,"longitude":0.43984},{"name":"Goundam","countryCode":"ML","stateCode":"6","latitude":16.41453,"longitude":-3.67075},{"name":"Gourma-Rharous Cercle","countryCode":"ML","stateCode":"6","latitude":16.07979,"longitude":-1.76981},{"name":"Inékar","countryCode":"ML","stateCode":"7","latitude":15.95944,"longitude":3.14111},{"name":"Kangaba","countryCode":"ML","stateCode":"2","latitude":11.93333,"longitude":-8.41667},{"name":"Kati","countryCode":"ML","stateCode":"2","latitude":12.74409,"longitude":-8.07257},{"name":"Kayes","countryCode":"ML","stateCode":"1","latitude":14.44693,"longitude":-11.44448},{"name":"Ké-Macina","countryCode":"ML","stateCode":"4","latitude":13.9641,"longitude":-5.35791},{"name":"Kidal","countryCode":"ML","stateCode":"8","latitude":18.44111,"longitude":1.40778},{"name":"Kinmparana","countryCode":"ML","stateCode":"4","latitude":12.84217,"longitude":-4.9245},{"name":"Kita","countryCode":"ML","stateCode":"1","latitude":13.0349,"longitude":-9.4895},{"name":"Kokofata","countryCode":"ML","stateCode":"1","latitude":12.88333,"longitude":-9.95},{"name":"Kolokani","countryCode":"ML","stateCode":"2","latitude":13.5728,"longitude":-8.0339},{"name":"Kolondiéba","countryCode":"ML","stateCode":"3","latitude":11.08943,"longitude":-6.8929},{"name":"Koulikoro","countryCode":"ML","stateCode":"2","latitude":12.86273,"longitude":-7.55985},{"name":"Koutiala","countryCode":"ML","stateCode":"3","latitude":12.39173,"longitude":-5.46421},{"name":"Koutiala Cercle","countryCode":"ML","stateCode":"3","latitude":12.35311,"longitude":-5.5839},{"name":"Markala","countryCode":"ML","stateCode":"4","latitude":13.7021,"longitude":-6.0659},{"name":"Mopti","countryCode":"ML","stateCode":"5","latitude":14.4843,"longitude":-4.18296},{"name":"Niafunké","countryCode":"ML","stateCode":"6","latitude":15.9322,"longitude":-3.9906},{"name":"Ntossoni","countryCode":"ML","stateCode":"3","latitude":12.5304,"longitude":-5.77003},{"name":"Sagalo","countryCode":"ML","stateCode":"1","latitude":12.2,"longitude":-10.7},{"name":"San","countryCode":"ML","stateCode":"4","latitude":13.30335,"longitude":-4.89562},{"name":"Ségou","countryCode":"ML","stateCode":"4","latitude":13.4317,"longitude":-6.2157},{"name":"Sikasso","countryCode":"ML","stateCode":"3","latitude":11.31755,"longitude":-5.66654},{"name":"Sokolo","countryCode":"ML","stateCode":"4","latitude":14.7328,"longitude":-6.1219},{"name":"Ténenkou","countryCode":"ML","stateCode":"5","latitude":14.45722,"longitude":-4.9169},{"name":"Timbuktu","countryCode":"ML","stateCode":"6","latitude":16.77348,"longitude":-3.00742},{"name":"Yorosso","countryCode":"ML","stateCode":"3","latitude":12.35811,"longitude":-4.77688}]
