[{"name":"10 de Abril","countryCode":"MX","stateCode":"GRO","latitude":16.82917,"longitude":-99.74083},{"name":"18 de Marzo","countryCode":"MX","stateCode":"PUE","latitude":18.96889,"longitude":-98.16028},{"name":"1ra. Sección de Izapa","countryCode":"MX","stateCode":"CHP","latitude":14.92083,"longitude":-92.17083},{"name":"2da. Sección de Medio Monte","countryCode":"MX","stateCode":"CHP","latitude":14.88194,"longitude":-92.18444},{"name":"31 de Octubre","countryCode":"MX","stateCode":"SON","latitude":27.29583,"longitude":-110.0375},{"name":"Abala","countryCode":"MX","stateCode":"YUC","latitude":20.64745,"longitude":-89.68094},{"name":"Abasolo","countryCode":"MX","stateCode":"CHP","latitude":16.8214,"longitude":-92.21611},{"name":"Abasolo","countryCode":"MX","stateCode":"COA","latitude":27.18219,"longitude":-101.42757},{"name":"Abasolo","countryCode":"MX","stateCode":"DUR","latitude":25.31145,"longitude":-104.6558},{"name":"Abasolo","countryCode":"MX","stateCode":"GUA","latitude":20.44997,"longitude":-101.53073},{"name":"Abasolo","countryCode":"MX","stateCode":"TAM","latitude":24.05844,"longitude":-98.37333},{"name":"Abasolo del Valle","countryCode":"MX","stateCode":"VER","latitude":17.78306,"longitude":-95.54556},{"name":"Abdenago C. García","countryCode":"MX","stateCode":"CHH","latitude":29.98937,"longitude":-107.5521},{"name":"Abelardo L. Rodríguez","countryCode":"MX","stateCode":"CAM","latitude":18.72842,"longitude":-90.90456},{"name":"Abelardo L. Rodríguez","countryCode":"MX","stateCode":"MOR","latitude":18.7375,"longitude":-98.98528},{"name":"Abrevadero","countryCode":"MX","stateCode":"VER","latitude":18.28222,"longitude":-95.21444},{"name":"Acachapan y Colmena 3ra. Sección","countryCode":"MX","stateCode":"TAB","latitude":18.04858,"longitude":-92.7775},{"name":"Acachuén","countryCode":"MX","stateCode":"MEX","latitude":19.84715,"longitude":-102.09272},{"name":"Acacoyagua","countryCode":"MX","stateCode":"CHP","latitude":15.41414,"longitude":-92.68169},{"name":"Acahuasco","countryCode":"MX","stateCode":"HID","latitude":20.96254,"longitude":-98.59656},{"name":"Acahuizotla","countryCode":"MX","stateCode":"GRO","latitude":17.36054,"longitude":-99.46759},{"name":"Acajete","countryCode":"MX","stateCode":"PUE","latitude":19.11154,"longitude":-97.95231},{"name":"Acajete","countryCode":"MX","stateCode":"VER","latitude":19.56815,"longitude":-97.03333},{"name":"Acala","countryCode":"MX","stateCode":"CHP","latitude":16.55625,"longitude":-92.80449},{"name":"Acalco","countryCode":"MX","stateCode":"GRO","latitude":17.50575,"longitude":-99.1667},{"name":"Acalpican de Morelos","countryCode":"MX","stateCode":"MEX","latitude":18.01854,"longitude":-102.34033},{"name":"Acámbaro","countryCode":"MX","stateCode":"GUA","latitude":20.03085,"longitude":-100.72194},{"name":"Acambay","countryCode":"MX","stateCode":"MEX","latitude":19.95522,"longitude":-99.84428},{"name":"Acamilpa","countryCode":"MX","stateCode":"MOR","latitude":18.71695,"longitude":-99.15724},{"name":"Acamixtla","countryCode":"MX","stateCode":"GRO","latitude":18.56512,"longitude":-99.56599},{"name":"Acanceh","countryCode":"MX","stateCode":"YUC","latitude":20.81269,"longitude":-89.45295},{"name":"Acapetahua","countryCode":"MX","stateCode":"CHP","latitude":15.28189,"longitude":-92.68987},{"name":"Acapetlahuaya","countryCode":"MX","stateCode":"GRO","latitude":18.41942,"longitude":-100.07237},{"name":"Acaponeta","countryCode":"MX","stateCode":"NAY","latitude":22.49396,"longitude":-105.36369},{"name":"Acapulco de Juárez","countryCode":"MX","stateCode":"GRO","latitude":16.84942,"longitude":-99.90891},{"name":"Acatempa","countryCode":"MX","stateCode":"GRO","latitude":17.64333,"longitude":-99.36639},{"name":"Acatempan","countryCode":"MX","stateCode":"GRO","latitude":18.31809,"longitude":-99.88298},{"name":"Acateno","countryCode":"MX","stateCode":"PUE","latitude":20.11324,"longitude":-97.2271},{"name":"Acatepec","countryCode":"MX","stateCode":"GRO","latitude":17.17482,"longitude":-98.97603},{"name":"Acatepec","countryCode":"MX","stateCode":"HID","latitude":20.95367,"longitude":-98.27373},{"name":"Acatepec","countryCode":"MX","stateCode":"PUE","latitude":18.37236,"longitude":-97.03651},{"name":"Acatla","countryCode":"MX","stateCode":"VER","latitude":18.74944,"longitude":-97.21833},{"name":"Acatlán","countryCode":"MX","stateCode":"GRO","latitude":17.65807,"longitude":-99.16944},{"name":"Acatlán","countryCode":"MX","stateCode":"HID","latitude":20.14562,"longitude":-98.43959},{"name":"Acatlán","countryCode":"MX","stateCode":"PUE","latitude":18.22374,"longitude":-98.07685},{"name":"Acatlán","countryCode":"MX","stateCode":"VER","latitude":19.69648,"longitude":-96.84367},{"name":"Acatlán de Juárez Municipality","countryCode":"MX","stateCode":"JAL","latitude":20.42416667,"longitude":-103.60138889},{"name":"Acatlán de Osorio","countryCode":"MX","stateCode":"PUE","latitude":18.2025,"longitude":-98.04864},{"name":"Acatlán de Pérez Figueroa","countryCode":"MX","stateCode":"OAX","latitude":18.53973,"longitude":-96.60568},{"name":"Acatzingo","countryCode":"MX","stateCode":"PUE","latitude":18.98196,"longitude":-97.78363},{"name":"Acatzingo (Acatzingo de la Piedra)","countryCode":"MX","stateCode":"MEX","latitude":18.92389,"longitude":-99.58861},{"name":"Acaxochitlán","countryCode":"MX","stateCode":"HID","latitude":20.16674,"longitude":-98.18971},{"name":"Acaxtlahuacán de Albino Zertuche","countryCode":"MX","stateCode":"PUE","latitude":18.01714,"longitude":-98.54018},{"name":"Acayuca","countryCode":"MX","stateCode":"HID","latitude":20.02567,"longitude":-98.8411},{"name":"Acayucan","countryCode":"MX","stateCode":"VER","latitude":17.94979,"longitude":-94.91386},{"name":"Acazónica","countryCode":"MX","stateCode":"VER","latitude":19.21284,"longitude":-96.58978},{"name":"Achichipico","countryCode":"MX","stateCode":"MOR","latitude":18.94861,"longitude":-98.82611},{"name":"Achotal de Moreno","countryCode":"MX","stateCode":"VER","latitude":17.73652,"longitude":-95.13395},{"name":"Acoapa","countryCode":"MX","stateCode":"HID","latitude":21.12116,"longitude":-98.48701},{"name":"Acolman de Netzahualcóyotl","countryCode":"MX","stateCode":"MEX","latitude":19.63976,"longitude":-98.90777},{"name":"Aconchi","countryCode":"MX","stateCode":"SON","latitude":29.82628,"longitude":-110.22492},{"name":"Acontitla","countryCode":"MX","stateCode":"VER","latitude":20.68206,"longitude":-97.38469},{"name":"Acopinalco del Peñón","countryCode":"MX","stateCode":"TLA","latitude":19.65929,"longitude":-98.16299},{"name":"Acoxcatlán","countryCode":"MX","stateCode":"HID","latitude":20.97343,"longitude":-98.77793},{"name":"Acoyotla","countryCode":"MX","stateCode":"HID","latitude":21.12551,"longitude":-98.77729},{"name":"Acteopan","countryCode":"MX","stateCode":"PUE","latitude":18.76388,"longitude":-98.71366},{"name":"Actipan","countryCode":"MX","stateCode":"PUE","latitude":18.93689,"longitude":-97.90252},{"name":"Actipan de Morelos","countryCode":"MX","stateCode":"PUE","latitude":18.96003,"longitude":-97.79904},{"name":"Actopan","countryCode":"MX","stateCode":"HID","latitude":20.28451,"longitude":-98.91525},{"name":"Actopan","countryCode":"MX","stateCode":"VER","latitude":19.50427,"longitude":-96.61668},{"name":"Acuaco","countryCode":"MX","stateCode":"PUE","latitude":19.7625,"longitude":-97.56444},{"name":"Acuamanala","countryCode":"MX","stateCode":"TLA","latitude":19.22361,"longitude":-98.20056},{"name":"Acueducto Fraccionamiento","countryCode":"MX","stateCode":"JAL","latitude":19.47917,"longitude":-103.31806},{"name":"Acuexcomac","countryCode":"MX","stateCode":"PUE","latitude":19.03742,"longitude":-98.38501},{"name":"Acuitlapan","countryCode":"MX","stateCode":"GRO","latitude":18.60155,"longitude":-99.5426},{"name":"Acuitlapilco","countryCode":"MX","stateCode":"MEX","latitude":18.90873,"longitude":-99.78464},{"name":"Acuitlapilco","countryCode":"MX","stateCode":"TLA","latitude":19.27333,"longitude":-98.23542},{"name":"Acuitzio","countryCode":"MX","stateCode":"MIC","latitude":19.47178,"longitude":-101.32921},{"name":"Acuítzio del Canje","countryCode":"MX","stateCode":"MIC","latitude":19.49585,"longitude":-101.33321},{"name":"Acula","countryCode":"MX","stateCode":"VER","latitude":18.50563,"longitude":-95.77427},{"name":"Aculco de Espinoza","countryCode":"MX","stateCode":"MEX","latitude":20.09867,"longitude":-99.82757},{"name":"Acultzingo","countryCode":"MX","stateCode":"VER","latitude":18.71894,"longitude":-97.30367},{"name":"Acxotla del Monte","countryCode":"MX","stateCode":"TLA","latitude":19.25208,"longitude":-98.16777},{"name":"Acxotla del Río","countryCode":"MX","stateCode":"TLA","latitude":19.32417,"longitude":-98.2375},{"name":"Adjuntas del Río","countryCode":"MX","stateCode":"GUA","latitude":21.11667,"longitude":-100.86806},{"name":"Adolfo López Mateos","countryCode":"MX","stateCode":"CHH","latitude":28.46667,"longitude":-107.3},{"name":"Adolfo López Mateos","countryCode":"MX","stateCode":"CHP","latitude":17.216,"longitude":-93.47895},{"name":"Adolfo López Mateos","countryCode":"MX","stateCode":"MOR","latitude":19.80083,"longitude":-100.00055},{"name":"Adolfo López Mateos (El Tamarindo)","countryCode":"MX","stateCode":"SIN","latitude":24.89639,"longitude":-107.63278},{"name":"Adolfo Moreno","countryCode":"MX","stateCode":"VER","latitude":19.72472,"longitude":-97.23806},{"name":"Adolfo Ruiz Cortines","countryCode":"MX","stateCode":"SIN","latitude":25.70275,"longitude":-108.71975},{"name":"Adolfo Ruíz Cortines","countryCode":"MX","stateCode":"VER","latitude":20.59585,"longitude":-97.30585},{"name":"Aduana del Sásabe","countryCode":"MX","stateCode":"SON","latitude":31.47076,"longitude":-111.54608},{"name":"Agiabampo Uno","countryCode":"MX","stateCode":"SON","latitude":26.36686,"longitude":-109.14572},{"name":"Agostitlán","countryCode":"MX","stateCode":"MIC","latitude":19.53818,"longitude":-100.61849},{"name":"Agrícola Lázaro Cárdenas","countryCode":"MX","stateCode":"VER","latitude":18.81361,"longitude":-97.19833},{"name":"Agrónomos Mexicanos","countryCode":"MX","stateCode":"CHP","latitude":16.35,"longitude":-93.53},{"name":"Agua Azul","countryCode":"MX","stateCode":"CHP","latitude":16.81432,"longitude":-91.52391},{"name":"Agua Azul","countryCode":"MX","stateCode":"QUE","latitude":20.60271,"longitude":-100.20472},{"name":"Agua Bermeja","countryCode":"MX","stateCode":"JAL","latitude":20.6675,"longitude":-102.97056},{"name":"Agua Blanca","countryCode":"MX","stateCode":"MEX","latitude":19.22056,"longitude":-99.47056},{"name":"Agua Blanca Serranía","countryCode":"MX","stateCode":"CHP","latitude":17.26781,"longitude":-91.83564},{"name":"Agua Buena","countryCode":"MX","stateCode":"SLP","latitude":21.95791,"longitude":-99.39416},{"name":"Agua Caliente","countryCode":"MX","stateCode":"JAL","latitude":21.7725,"longitude":-103.78806},{"name":"Agua Caliente","countryCode":"MX","stateCode":"MEX","latitude":19.90011,"longitude":-100.17186},{"name":"Agua Caliente","countryCode":"MX","stateCode":"MIC","latitude":20.06519,"longitude":-101.73466},{"name":"Agua Caliente Grande (De Gastélum)","countryCode":"MX","stateCode":"SIN","latitude":26.53762,"longitude":-108.34814},{"name":"Agua Colorada","countryCode":"MX","stateCode":"JAL","latitude":20.94694,"longitude":-103.20611},{"name":"Agua del Espino","countryCode":"MX","stateCode":"OAX","latitude":16.59095,"longitude":-96.80204},{"name":"Agua Delgada","countryCode":"MX","stateCode":"JAL","latitude":20.16222,"longitude":-103.8275},{"name":"Agua Dulce","countryCode":"MX","stateCode":"VER","latitude":18.13909,"longitude":-94.14527},{"name":"Agua Escondida","countryCode":"MX","stateCode":"JAL","latitude":20.86083,"longitude":-102.725},{"name":"Agua Escondida","countryCode":"MX","stateCode":"MEX","latitude":19.97893,"longitude":-99.57829},{"name":"Agua Fría","countryCode":"MX","stateCode":"JAL","latitude":20.58778,"longitude":-102.55833},{"name":"Agua Fría","countryCode":"MX","stateCode":"QUE","latitude":21.15304,"longitude":-99.80638},{"name":"Agua Gorda","countryCode":"MX","stateCode":"ZAC","latitude":22.10669,"longitude":-101.92182},{"name":"Agua Nueva","countryCode":"MX","stateCode":"COA","latitude":25.18934,"longitude":-101.0884},{"name":"Agua Nueva","countryCode":"MX","stateCode":"JAL","latitude":20.67889,"longitude":-102.45111},{"name":"Agua Paloma","countryCode":"MX","stateCode":"JAL","latitude":19.67799,"longitude":-105.18473},{"name":"Agua Prieta","countryCode":"MX","stateCode":"JAL","latitude":20.79361,"longitude":-102.89194},{"name":"Agua Prieta","countryCode":"MX","stateCode":"SON","latitude":31.33071,"longitude":-109.54876},{"name":"Agua Rica","countryCode":"MX","stateCode":"JAL","latitude":20.83639,"longitude":-103.18778},{"name":"Agua Salada","countryCode":"MX","stateCode":"JAL","latitude":19.73111,"longitude":-103.19639},{"name":"Agua Señora","countryCode":"MX","stateCode":"SLP","latitude":22.2375,"longitude":-101.04222},{"name":"Agua Verde","countryCode":"MX","stateCode":"SIN","latitude":22.89259,"longitude":-105.97355},{"name":"Agua Zarca","countryCode":"MX","stateCode":"CHP","latitude":15.63417,"longitude":-92.14472},{"name":"Agua Zarca","countryCode":"MX","stateCode":"GRO","latitude":16.62365,"longitude":-98.70245},{"name":"Agua Zarca","countryCode":"MX","stateCode":"JAL","latitude":21.85035,"longitude":-103.49102},{"name":"Agua Zarca","countryCode":"MX","stateCode":"QUE","latitude":21.22003,"longitude":-99.09075},{"name":"Aguacatenango","countryCode":"MX","stateCode":"CHP","latitude":16.47388,"longitude":-92.40875},{"name":"Agualeguas","countryCode":"MX","stateCode":"NLE","latitude":26.31362,"longitude":-99.53728},{"name":"Aguas Blancas","countryCode":"MX","stateCode":"GRO","latitude":17.03654,"longitude":-100.063},{"name":"Aguas Buenas","countryCode":"MX","stateCode":"GUA","latitude":20.97028,"longitude":-101.3725},{"name":"Aguas Calientes","countryCode":"MX","stateCode":"GRO","latitude":16.8425,"longitude":-99.64056},{"name":"Aguascalientes","countryCode":"MX","stateCode":"AGU","latitude":21.88333,"longitude":-102.3},{"name":"Aguilera","countryCode":"MX","stateCode":"VER","latitude":17.81083,"longitude":-95.015},{"name":"Aguililla","countryCode":"MX","stateCode":"MIC","latitude":18.73742,"longitude":-102.78934},{"name":"Agustín de Iturbide","countryCode":"MX","stateCode":"CHP","latitude":15.07523,"longitude":-92.19858},{"name":"Ahome","countryCode":"MX","stateCode":"SIN","latitude":25.91985,"longitude":-109.1732},{"name":"Ahuacachahue (Ndog'yo Itún Tichi)","countryCode":"MX","stateCode":"GRO","latitude":16.82861,"longitude":-98.98556},{"name":"Ahuacatán","countryCode":"MX","stateCode":"VER","latitude":19.78351,"longitude":-97.2978},{"name":"Ahuacatitlán","countryCode":"MX","stateCode":"MEX","latitude":18.89414,"longitude":-99.70867},{"name":"Ahuacatitlán Cuarto y Quinto Cuartel","countryCode":"MX","stateCode":"MEX","latitude":19.96222,"longitude":-99.98694},{"name":"Ahuacatlán","countryCode":"MX","stateCode":"CHP","latitude":15.0403,"longitude":-92.18036},{"name":"Ahuacatlán","countryCode":"MX","stateCode":"NAY","latitude":21.05405,"longitude":-104.48398},{"name":"Ahuacatlán","countryCode":"MX","stateCode":"PUE","latitude":20.13722,"longitude":-98.0075},{"name":"Ahuacatlán de Guadalupe","countryCode":"MX","stateCode":"QUE","latitude":21.21472,"longitude":-99.54056},{"name":"Ahuacuotzingo","countryCode":"MX","stateCode":"GRO","latitude":17.74253,"longitude":-98.91781},{"name":"Ahuajutla","countryCode":"MX","stateCode":"GRO","latitude":17.43043,"longitude":-98.29029},{"name":"Ahualulco de Mercado Municipality","countryCode":"MX","stateCode":"JAL","latitude":20.61666667,"longitude":-103.86666667},{"name":"Ahualulco del Sonido Trece","countryCode":"MX","stateCode":"SLP","latitude":22.40019,"longitude":-101.16614},{"name":"Ahuatempan","countryCode":"MX","stateCode":"PUE","latitude":18.41269,"longitude":-98.0185},{"name":"Ahuateno","countryCode":"MX","stateCode":"VER","latitude":21.00245,"longitude":-98.15055},{"name":"Ahuatepec","countryCode":"MX","stateCode":"PUE","latitude":18.85831,"longitude":-97.91764},{"name":"Ahuatepec de Camino","countryCode":"MX","stateCode":"PUE","latitude":19.04087,"longitude":-97.43457},{"name":"Ahuatepec Pueblo","countryCode":"MX","stateCode":"GRO","latitude":17.60577,"longitude":-98.5897},{"name":"Ahuatitla","countryCode":"MX","stateCode":"HID","latitude":21.16495,"longitude":-98.66594},{"name":"Ahuatlán","countryCode":"MX","stateCode":"JAL","latitude":20.41836,"longitude":-102.88759},{"name":"Ahuatlán","countryCode":"MX","stateCode":"PUE","latitude":18.5793,"longitude":-98.27791},{"name":"Ahuaxintitla","countryCode":"MX","stateCode":"PUE","latitude":20.25325,"longitude":-97.89561},{"name":"Ahuazotepec","countryCode":"MX","stateCode":"PUE","latitude":20.04535,"longitude":-98.16332},{"name":"Ahuehuepan","countryCode":"MX","stateCode":"GRO","latitude":18.00625,"longitude":-99.49995},{"name":"Ahuehuetitla","countryCode":"MX","stateCode":"HID","latitude":20.08444,"longitude":-98.41667},{"name":"Ahuehuetitla","countryCode":"MX","stateCode":"PUE","latitude":18.21272,"longitude":-98.21949},{"name":"Ahuehuetitlán","countryCode":"MX","stateCode":"OAX","latitude":17.6713,"longitude":-98.32024},{"name":"Ahuehuetzingo","countryCode":"MX","stateCode":"MOR","latitude":18.68024,"longitude":-99.30834},{"name":"Ahuehueyo Primero Centro","countryCode":"MX","stateCode":"SLP","latitude":21.345,"longitude":-98.83722},{"name":"Ahuetita de Abajo","countryCode":"MX","stateCode":"JAL","latitude":21.41972,"longitude":-102.65278},{"name":"Ahuexotitlán","countryCode":"MX","stateCode":"GRO","latitude":17.52849,"longitude":-99.24398},{"name":"Ahueyahualco","countryCode":"MX","stateCode":"VER","latitude":19.71974,"longitude":-97.25984},{"name":"Ahuihuiyuco","countryCode":"MX","stateCode":"GRO","latitude":17.62958,"longitude":-99.22738},{"name":"Ahuirán","countryCode":"MX","stateCode":"MIC","latitude":19.66574,"longitude":-102.07347},{"name":"Ahuisculco","countryCode":"MX","stateCode":"JAL","latitude":20.56875,"longitude":-103.70313},{"name":"Ahumada","countryCode":"MX","stateCode":"CHH","latitude":30.48174,"longitude":-106.48832},{"name":"Ajacuba","countryCode":"MX","stateCode":"HID","latitude":20.14326,"longitude":-99.06141},{"name":"Ajalpan","countryCode":"MX","stateCode":"PUE","latitude":18.37908,"longitude":-97.25867},{"name":"Ajijic","countryCode":"MX","stateCode":"JAL","latitude":20.29944444,"longitude":-103.25805556},{"name":"Ajilhó","countryCode":"MX","stateCode":"CHP","latitude":16.98376,"longitude":-92.93804},{"name":"Ajuchitlán","countryCode":"MX","stateCode":"QUE","latitude":20.70713,"longitude":-100.02008},{"name":"Ajuchitlán del Progreso","countryCode":"MX","stateCode":"GRO","latitude":18.15189,"longitude":-100.48353},{"name":"Ajuchitlancito","countryCode":"MX","stateCode":"QUE","latitude":20.47601,"longitude":-100.21583},{"name":"Ajuno","countryCode":"MX","stateCode":"MIC","latitude":19.51262,"longitude":-101.7228},{"name":"Akil","countryCode":"MX","stateCode":"YUC","latitude":20.26547,"longitude":-89.34787},{"name":"Akumal","countryCode":"MX","stateCode":"ROO","latitude":20.39693,"longitude":-87.31444},{"name":"Álamo","countryCode":"MX","stateCode":"VER","latitude":20.91154,"longitude":-97.67554},{"name":"Álamo Temapache","countryCode":"MX","stateCode":"VER","latitude":20.98922,"longitude":-97.70592},{"name":"Álamos","countryCode":"MX","stateCode":"SON","latitude":27.02326,"longitude":-108.9344},{"name":"Álamos Tepetitlán","countryCode":"MX","stateCode":"PUE","latitude":19.19619,"longitude":-97.43858},{"name":"Alaquines","countryCode":"MX","stateCode":"SLP","latitude":22.12973,"longitude":-99.60093},{"name":"Albarradas","countryCode":"MX","stateCode":"OAX","latitude":17.06752,"longitude":-96.20012},{"name":"Alberto Carrera Torres","countryCode":"MX","stateCode":"SLP","latitude":21.7724,"longitude":-101.01193},{"name":"Albia","countryCode":"MX","stateCode":"COA","latitude":25.66537,"longitude":-103.36253},{"name":"Albino Zertuche","countryCode":"MX","stateCode":"PUE","latitude":18.01275,"longitude":-98.55511},{"name":"Alborada","countryCode":"MX","stateCode":"VER","latitude":19.44851,"longitude":-96.87109},{"name":"Alborada Jaltenco","countryCode":"MX","stateCode":"MEX","latitude":19.66194,"longitude":-99.06889},{"name":"Alcaraces","countryCode":"MX","stateCode":"COL","latitude":19.36433,"longitude":-103.57676},{"name":"Alcholoa","countryCode":"MX","stateCode":"GRO","latitude":17.1511,"longitude":-100.40837},{"name":"Alcocer","countryCode":"MX","stateCode":"GUA","latitude":20.86867,"longitude":-100.70456},{"name":"Alcozacán","countryCode":"MX","stateCode":"GRO","latitude":17.50444,"longitude":-99.095},{"name":"Alcozauca de Guerrero","countryCode":"MX","stateCode":"GRO","latitude":17.46481,"longitude":-98.38428},{"name":"Aldama","countryCode":"MX","stateCode":"CHH","latitude":28.93636,"longitude":-105.71098},{"name":"Aldama","countryCode":"MX","stateCode":"CHP","latitude":16.91667,"longitude":-92.68333},{"name":"Aldama","countryCode":"MX","stateCode":"GUA","latitude":20.81641,"longitude":-101.31467},{"name":"Aldama","countryCode":"MX","stateCode":"TAM","latitude":22.92157,"longitude":-98.07519},{"name":"Alejo González (Bilbao)","countryCode":"MX","stateCode":"COA","latitude":25.82194,"longitude":-103.19472},{"name":"Alfajayucan","countryCode":"MX","stateCode":"HID","latitude":20.41183,"longitude":-99.38388},{"name":"Alfajayucan","countryCode":"MX","stateCode":"QUE","latitude":20.7537,"longitude":-100.21773},{"name":"Alfaro","countryCode":"MX","stateCode":"GUA","latitude":21.14941,"longitude":-101.60611},{"name":"Alfonso G. Calderón (Poblado Siete)","countryCode":"MX","stateCode":"SIN","latitude":26.06528,"longitude":-109.01972},{"name":"Alfonso G. Calderón Velarde","countryCode":"MX","stateCode":"SIN","latitude":25.78556,"longitude":-108.60222},{"name":"Alfonso Garzón [Granjas Familiares]","countryCode":"MX","stateCode":"BCN","latitude":32.54667,"longitude":-116.61722},{"name":"Alfonso Moguel","countryCode":"MX","stateCode":"CHP","latitude":16.6675,"longitude":-93.50639},{"name":"Alfredo V. Bonfil","countryCode":"MX","stateCode":"CAM","latitude":19.53032,"longitude":-90.18214},{"name":"Alfredo V. Bonfil","countryCode":"MX","stateCode":"JAL","latitude":20.66278,"longitude":-103.72278},{"name":"Alfredo V. Bonfil","countryCode":"MX","stateCode":"ROO","latitude":21.08776,"longitude":-86.84706},{"name":"Alfredo V. Bonfil","countryCode":"MX","stateCode":"TAM","latitude":25.56203,"longitude":-98.23952},{"name":"Alfredo V. Bonfil (Chacampalco)","countryCode":"MX","stateCode":"MOR","latitude":18.65528,"longitude":-99.15417},{"name":"Alfredo V. Bonfil (Siete Ejidos)","countryCode":"MX","stateCode":"SIN","latitude":25.64306,"longitude":-108.23333},{"name":"Alhuaca","countryCode":"MX","stateCode":"PUE","latitude":18.56795,"longitude":-97.16594},{"name":"Alhuey","countryCode":"MX","stateCode":"SIN","latitude":25.37806,"longitude":-108.13028},{"name":"Alianza Real","countryCode":"MX","stateCode":"NLE","latitude":25.85139,"longitude":-100.38278},{"name":"Alista","countryCode":"MX","stateCode":"JAL","latitude":19.63401,"longitude":-103.7889},{"name":"Aljojuca","countryCode":"MX","stateCode":"PUE","latitude":19.09933,"longitude":-97.52973},{"name":"Allende","countryCode":"MX","stateCode":"CHH","latitude":27.07787,"longitude":-105.28789},{"name":"Allende","countryCode":"MX","stateCode":"JAL","latitude":20.72054,"longitude":-102.08557},{"name":"Allende","countryCode":"MX","stateCode":"PUE","latitude":19.53879,"longitude":-97.59711},{"name":"Allende","countryCode":"MX","stateCode":"SON","latitude":27.19201,"longitude":-109.9073},{"name":"Allende","countryCode":"MX","stateCode":"VER","latitude":18.15514,"longitude":-94.39289},{"name":"Almagres","countryCode":"MX","stateCode":"VER","latitude":17.8075,"longitude":-94.9175},{"name":"Almecatla","countryCode":"MX","stateCode":"PUE","latitude":19.14286,"longitude":-98.23597},{"name":"Almolonga","countryCode":"MX","stateCode":"GRO","latitude":17.63826,"longitude":-99.29502},{"name":"Almolonga","countryCode":"MX","stateCode":"OAX","latitude":18.60848,"longitude":-96.66099},{"name":"Almolonga","countryCode":"MX","stateCode":"PUE","latitude":18.47627,"longitude":-97.96353},{"name":"Almoloya","countryCode":"MX","stateCode":"HID","latitude":19.74335,"longitude":-98.33939},{"name":"Almoloya de Alquisiras","countryCode":"MX","stateCode":"MEX","latitude":18.84217,"longitude":-99.86416},{"name":"Almoloya del Río","countryCode":"MX","stateCode":"MEX","latitude":19.16046,"longitude":-99.4874},{"name":"Alpatláhuac","countryCode":"MX","stateCode":"VER","latitude":19.10155,"longitude":-97.12174},{"name":"Alpoyeca","countryCode":"MX","stateCode":"GRO","latitude":17.646,"longitude":-98.51004},{"name":"Alpuyeca","countryCode":"MX","stateCode":"MOR","latitude":18.74006,"longitude":-99.25937},{"name":"Alpuyecancingo de las Montañas","countryCode":"MX","stateCode":"GRO","latitude":17.67083,"longitude":-98.85194},{"name":"Altamira","countryCode":"MX","stateCode":"TAM","latitude":22.39215,"longitude":-97.93867},{"name":"Altamira","countryCode":"MX","stateCode":"ZAC","latitude":23.38173,"longitude":-102.98674},{"name":"Altamira de Zináparo","countryCode":"MX","stateCode":"CAM","latitude":18.58208,"longitude":-90.2561},{"name":"Altamirano","countryCode":"MX","stateCode":"CHP","latitude":16.88333,"longitude":-92.15},{"name":"Altata","countryCode":"MX","stateCode":"SIN","latitude":24.63403,"longitude":-107.93101},{"name":"Altavista de Ramos","countryCode":"MX","stateCode":"JAL","latitude":20.43333333,"longitude":-104.01666667},{"name":"Altepexi","countryCode":"MX","stateCode":"PUE","latitude":18.37035,"longitude":-97.29966},{"name":"Alto Lucero","countryCode":"MX","stateCode":"VER","latitude":20.95361,"longitude":-97.44194},{"name":"Altotonga","countryCode":"MX","stateCode":"VER","latitude":19.76613,"longitude":-97.24514},{"name":"Altus Bosques","countryCode":"MX","stateCode":"JAL","latitude":20.56806,"longitude":-103.3725},{"name":"Altzayanca","countryCode":"MX","stateCode":"TLA","latitude":19.43121,"longitude":-97.79555},{"name":"Alvarado","countryCode":"MX","stateCode":"VER","latitude":18.77143,"longitude":-95.76181},{"name":"Álvaro Obregón","countryCode":"MX","stateCode":"CDMX","latitude":19.37496,"longitude":-99.21976},{"name":"Álvaro Obregón","countryCode":"MX","stateCode":"CHP","latitude":14.92231,"longitude":-92.37813},{"name":"Álvaro Obregón","countryCode":"MX","stateCode":"DUR","latitude":25.51417,"longitude":-103.505},{"name":"Álvaro Obregón","countryCode":"MX","stateCode":"HID","latitude":20.70662,"longitude":-99.37323},{"name":"Álvaro Obregón","countryCode":"MX","stateCode":"MIC","latitude":19.82096,"longitude":-101.04008},{"name":"Álvaro Obregón","countryCode":"MX","stateCode":"OAX","latitude":16.29811,"longitude":-95.08392},{"name":"Álvaro Obregón","countryCode":"MX","stateCode":"PUE","latitude":19.02781,"longitude":-97.90219},{"name":"Álvaro Obregón","countryCode":"MX","stateCode":"ROO","latitude":18.299,"longitude":-88.65145},{"name":"Álvaro Obregón (Santa Cruz)","countryCode":"MX","stateCode":"TAB","latitude":18.39422,"longitude":-92.79982},{"name":"Álvaro Obregón 2da. Sección (El Lechugal)","countryCode":"MX","stateCode":"TAB","latitude":18.39287,"longitude":-92.79119},{"name":"Amacuautitlán","countryCode":"MX","stateCode":"JAL","latitude":19.81619,"longitude":-104.02078},{"name":"Amacueca Municipality","countryCode":"MX","stateCode":"JAL","latitude":19.93333333,"longitude":-103.06666667},{"name":"Amacuitlapilco","countryCode":"MX","stateCode":"MOR","latitude":18.69611,"longitude":-98.81167},{"name":"Amacuzac","countryCode":"MX","stateCode":"MOR","latitude":18.60056,"longitude":-99.37252},{"name":"Amado Gómez","countryCode":"MX","stateCode":"TAB","latitude":18.14684,"longitude":-93.35618},{"name":"Amado Nervo","countryCode":"MX","stateCode":"CHP","latitude":17.23107,"longitude":-92.24581},{"name":"Amajaquillo","countryCode":"MX","stateCode":"JAL","latitude":20.9275,"longitude":-104.60028},{"name":"Amanalco de Becerra","countryCode":"MX","stateCode":"MEX","latitude":19.31667,"longitude":-100.01667},{"name":"Amapa","countryCode":"MX","stateCode":"NAY","latitude":21.78359,"longitude":-105.25482},{"name":"Amatán","countryCode":"MX","stateCode":"CHP","latitude":17.36667,"longitude":-92.81667},{"name":"Amatanejo","countryCode":"MX","stateCode":"JAL","latitude":20.95241,"longitude":-104.73775},{"name":"Amatenango de la Frontera","countryCode":"MX","stateCode":"CHP","latitude":15.43333,"longitude":-92.11667},{"name":"Amatenango del Valle","countryCode":"MX","stateCode":"CHP","latitude":16.52722,"longitude":-92.43472},{"name":"Amatepec","countryCode":"MX","stateCode":"MEX","latitude":18.68222,"longitude":-100.18583},{"name":"Amatillo","countryCode":"MX","stateCode":"GRO","latitude":16.82028,"longitude":-99.66611},{"name":"Amatitán","countryCode":"MX","stateCode":"JAL","latitude":20.83333333,"longitude":-103.71666667},{"name":"Amatitlán","countryCode":"MX","stateCode":"VER","latitude":18.43371,"longitude":-95.68388},{"name":"Amatitlán de Azueta","countryCode":"MX","stateCode":"PUE","latitude":18.17631,"longitude":-98.0764},{"name":"Amatlán","countryCode":"MX","stateCode":"VER","latitude":21.33519,"longitude":-97.75704},{"name":"Amatlán de Cañas","countryCode":"MX","stateCode":"NAY","latitude":20.80699,"longitude":-104.40408},{"name":"Amatlán de los Reyes","countryCode":"MX","stateCode":"VER","latitude":18.84658,"longitude":-96.91595},{"name":"Amatlán de Quetzalcoatl","countryCode":"MX","stateCode":"MOR","latitude":18.97537,"longitude":-99.03742},{"name":"Amaxac de Guerrero","countryCode":"MX","stateCode":"TLA","latitude":19.34661,"longitude":-98.17057},{"name":"Amayuca","countryCode":"MX","stateCode":"MOR","latitude":18.72408,"longitude":-98.79812},{"name":"Amazcala","countryCode":"MX","stateCode":"QUE","latitude":20.70339,"longitude":-100.26511},{"name":"Ambrosio","countryCode":"MX","stateCode":"JAL","latitude":20.27605,"longitude":-103.97092},{"name":"Amealco","countryCode":"MX","stateCode":"QUE","latitude":20.18758,"longitude":-100.14485},{"name":"Ameca","countryCode":"MX","stateCode":"JAL","latitude":20.67,"longitude":-103.7},{"name":"Ameca Municipality","countryCode":"MX","stateCode":"JAL","latitude":20.5483137,"longitude":-104.0475023},{"name":"Amecameca","countryCode":"MX","stateCode":"MEX","latitude":19.12384,"longitude":-98.76649},{"name":"Ameche","countryCode":"MX","stateCode":"GUA","latitude":20.55261,"longitude":-100.58367},{"name":"Ameluca","countryCode":"MX","stateCode":"PUE","latitude":20.56344,"longitude":-97.82571},{"name":"América Libre","countryCode":"MX","stateCode":"CHP","latitude":16.61462,"longitude":-92.99185},{"name":"Amilcingo","countryCode":"MX","stateCode":"MOR","latitude":18.74274,"longitude":-98.77089},{"name":"Amixtlán","countryCode":"MX","stateCode":"PUE","latitude":20.04778,"longitude":-97.79918},{"name":"Amozoc","countryCode":"MX","stateCode":"PUE","latitude":19.05019,"longitude":-98.04154},{"name":"Amozoc de Mota","countryCode":"MX","stateCode":"PUE","latitude":19.04611,"longitude":-98.045},{"name":"Ampliación Colonia Lázaro Cárdenas","countryCode":"MX","stateCode":"CHH","latitude":28.38333,"longitude":-105.61667},{"name":"Ampliación la Hincada","countryCode":"MX","stateCode":"SLP","latitude":22.21528,"longitude":-99.23611},{"name":"Ampliación San Mateo (Colonia Solidaridad)","countryCode":"MX","stateCode":"MEX","latitude":19.61639,"longitude":-99.14722},{"name":"Ampliación Tezoyuca","countryCode":"MX","stateCode":"MEX","latitude":19.58057,"longitude":-98.92053},{"name":"Amuco de la Reforma","countryCode":"MX","stateCode":"GRO","latitude":18.29361,"longitude":-100.63972},{"name":"Anacleto Canabal 2da. Sección","countryCode":"MX","stateCode":"TAB","latitude":17.97556,"longitude":-93.02417},{"name":"Anacleto Canabal 3ra. Sección","countryCode":"MX","stateCode":"TAB","latitude":18.0183,"longitude":-92.98992},{"name":"Anahuac","countryCode":"MX","stateCode":"VER","latitude":22.20275,"longitude":-97.85506},{"name":"Anáhuac","countryCode":"MX","stateCode":"CHH","latitude":28.48396,"longitude":-106.7472},{"name":"Anáhuac","countryCode":"MX","stateCode":"NLE","latitude":27.24457,"longitude":-100.13229},{"name":"Anáhuac","countryCode":"MX","stateCode":"TAM","latitude":25.77638,"longitude":-97.77413},{"name":"Analco","countryCode":"MX","stateCode":"JAL","latitude":21.385,"longitude":-102.63417},{"name":"Analco de Ponciano Arriaga (Santa Cruz Analco)","countryCode":"MX","stateCode":"PUE","latitude":19.26444,"longitude":-98.50028},{"name":"Andrés Quintana Roo","countryCode":"MX","stateCode":"TAB","latitude":17.70771,"longitude":-93.01077},{"name":"Anenecuilco","countryCode":"MX","stateCode":"MOR","latitude":18.77738,"longitude":-98.98907},{"name":"Angahuán","countryCode":"MX","stateCode":"MIC","latitude":19.5479,"longitude":-102.22563},{"name":"Angamacutiro de la Unión","countryCode":"MX","stateCode":"MIC","latitude":20.14998,"longitude":-101.71113},{"name":"Ángel Albino Corzo","countryCode":"MX","stateCode":"CHP","latitude":15.86624,"longitude":-92.72324},{"name":"Ángel Albino Corzo (Guadalupe)","countryCode":"MX","stateCode":"CHP","latitude":17.12639,"longitude":-93.275},{"name":"Angel R. Cabada","countryCode":"MX","stateCode":"VER","latitude":18.60798,"longitude":-95.39724},{"name":"Angostura","countryCode":"MX","stateCode":"SIN","latitude":25.36586,"longitude":-108.16107},{"name":"Animas Trujano","countryCode":"MX","stateCode":"OAX","latitude":16.99086,"longitude":-96.71319},{"name":"Anoca","countryCode":"MX","stateCode":"JAL","latitude":20.09222,"longitude":-103.54556},{"name":"Ansihuacuaro","countryCode":"MX","stateCode":"MIC","latitude":20.19984,"longitude":-101.8067},{"name":"Antiguo Morelos","countryCode":"MX","stateCode":"TAM","latitude":22.5495,"longitude":-99.08123},{"name":"Antón Lizardo","countryCode":"MX","stateCode":"VER","latitude":19.05962,"longitude":-95.99272},{"name":"Antonio Amaro","countryCode":"MX","stateCode":"DUR","latitude":24.27684,"longitude":-104.01873},{"name":"Antonio Escobedo","countryCode":"MX","stateCode":"JAL","latitude":20.8,"longitude":-104.01667},{"name":"Antonio J Bermúdez","countryCode":"MX","stateCode":"VER","latitude":22.15046,"longitude":-98.15873},{"name":"Antonio Rosales","countryCode":"MX","stateCode":"SON","latitude":27.35111,"longitude":-109.85306},{"name":"Antúnez","countryCode":"MX","stateCode":"MIC","latitude":19.01451,"longitude":-102.20432},{"name":"Antúnez (Morelos)","countryCode":"MX","stateCode":"MIC","latitude":19.01278,"longitude":-102.20389},{"name":"Apalani","countryCode":"MX","stateCode":"GRO","latitude":16.85361,"longitude":-99.58944},{"name":"Apan","countryCode":"MX","stateCode":"HID","latitude":19.71128,"longitude":-98.45086},{"name":"Apango","countryCode":"MX","stateCode":"GRO","latitude":17.74121,"longitude":-99.32909},{"name":"Apango de Zaragoza","countryCode":"MX","stateCode":"PUE","latitude":19.06833,"longitude":-97.94028},{"name":"Apantéopan","countryCode":"MX","stateCode":"PUE","latitude":19.3582,"longitude":-97.19104},{"name":"Apantla","countryCode":"MX","stateCode":"GRO","latitude":17.03972,"longitude":-99.16944},{"name":"Apapantilla","countryCode":"MX","stateCode":"PUE","latitude":20.40356,"longitude":-97.84665},{"name":"Apapátaro","countryCode":"MX","stateCode":"QUE","latitude":20.46806,"longitude":-100.36861},{"name":"Apas","countryCode":"MX","stateCode":"CHP","latitude":16.71066,"longitude":-92.79335},{"name":"Apaseo el Alto","countryCode":"MX","stateCode":"GUA","latitude":20.45798,"longitude":-100.62081},{"name":"Apaseo el Grande","countryCode":"MX","stateCode":"GUA","latitude":20.54495,"longitude":-100.68462},{"name":"Apatauyan","countryCode":"MX","stateCode":"PUE","latitude":19.79911,"longitude":-97.4444},{"name":"Apatzingán","countryCode":"MX","stateCode":"MIC","latitude":19.08864,"longitude":-102.35704},{"name":"Apatzingán","countryCode":"MX","stateCode":"TAB","latitude":17.60803,"longitude":-91.06687},{"name":"Apaxco de Ocampo","countryCode":"MX","stateCode":"MEX","latitude":19.97512,"longitude":-99.17112},{"name":"Apaxtla","countryCode":"MX","stateCode":"GRO","latitude":18.07628,"longitude":-99.99562},{"name":"Apaxtla de Castrejón","countryCode":"MX","stateCode":"GRO","latitude":18.13127,"longitude":-99.93255},{"name":"Apazapan","countryCode":"MX","stateCode":"VER","latitude":19.33175,"longitude":-96.65058},{"name":"Apazulco","countryCode":"MX","stateCode":"JAL","latitude":19.36972,"longitude":-104.87889},{"name":"Apeo","countryCode":"MX","stateCode":"MIC","latitude":19.88722,"longitude":-100.34194},{"name":"Apetatitlán Antonio Carbajal","countryCode":"MX","stateCode":"TLA","latitude":19.33622,"longitude":-98.17912},{"name":"Apipilulco","countryCode":"MX","stateCode":"GRO","latitude":18.19104,"longitude":-99.67205},{"name":"Apizaco","countryCode":"MX","stateCode":"TLA","latitude":19.41333,"longitude":-98.14358},{"name":"Apo","countryCode":"MX","stateCode":"MIC","latitude":19.42722,"longitude":-102.41126},{"name":"Apoala","countryCode":"MX","stateCode":"OAX","latitude":17.64845,"longitude":-97.13608},{"name":"Apoderado","countryCode":"MX","stateCode":"SIN","latitude":22.90867,"longitude":-105.92458},{"name":"Aporo","countryCode":"MX","stateCode":"MIC","latitude":19.67021,"longitude":-100.41068},{"name":"Apozol","countryCode":"MX","stateCode":"ZAC","latitude":21.46952,"longitude":-103.09076},{"name":"Apozol de Gutiérrez","countryCode":"MX","stateCode":"JAL","latitude":21.01778,"longitude":-102.82556},{"name":"Aputzio de Juárez","countryCode":"MX","stateCode":"MIC","latitude":19.34183,"longitude":-100.34689},{"name":"Aquila","countryCode":"MX","stateCode":"MIC","latitude":18.5997,"longitude":-103.50454},{"name":"Aquila","countryCode":"MX","stateCode":"VER","latitude":18.78958,"longitude":-97.32319},{"name":"Aquiles Córdova Morán","countryCode":"MX","stateCode":"MIC","latitude":19.70685,"longitude":-100.53615},{"name":"Aquiles Serdán","countryCode":"MX","stateCode":"CHH","latitude":28.58454,"longitude":-105.88108},{"name":"Aquiles Serdán","countryCode":"MX","stateCode":"CHP","latitude":14.9398,"longitude":-92.51444},{"name":"Aquiles Serdán","countryCode":"MX","stateCode":"JAL","latitude":20.30019,"longitude":-105.6223},{"name":"Aquiles Serdán","countryCode":"MX","stateCode":"MIC","latitude":20.00357,"longitude":-102.21609},{"name":"Aquiles Serdán","countryCode":"MX","stateCode":"NAY","latitude":21.38198,"longitude":-104.88891},{"name":"Aquiles Serdán","countryCode":"MX","stateCode":"TAB","latitude":17.78333,"longitude":-92.28333},{"name":"Aquiles Serdán","countryCode":"MX","stateCode":"VER","latitude":21.87206,"longitude":-98.14794},{"name":"Aquiles Serdán (San Fernando)","countryCode":"MX","stateCode":"TAB","latitude":17.80556,"longitude":-92.48972},{"name":"Aquiles Serdán 1ra. Sección","countryCode":"MX","stateCode":"TAB","latitude":17.82474,"longitude":-92.73977},{"name":"Aquismón","countryCode":"MX","stateCode":"SLP","latitude":21.62159,"longitude":-99.01984},{"name":"Aquixtla","countryCode":"MX","stateCode":"PUE","latitude":19.77957,"longitude":-97.93526},{"name":"Aramberri","countryCode":"MX","stateCode":"NLE","latitude":24.09984,"longitude":-99.81729},{"name":"Arandas","countryCode":"MX","stateCode":"GUA","latitude":20.72468,"longitude":-101.37296},{"name":"Arandas","countryCode":"MX","stateCode":"JAL","latitude":20.70519,"longitude":-102.34635},{"name":"Arantepacua","countryCode":"MX","stateCode":"MIC","latitude":19.5958,"longitude":-101.9686},{"name":"Aranza","countryCode":"MX","stateCode":"MIC","latitude":19.66418,"longitude":-102.02365},{"name":"Araró","countryCode":"MX","stateCode":"MIC","latitude":19.91136,"longitude":-100.8246},{"name":"Aratichanguío","countryCode":"MX","stateCode":"GRO","latitude":18.47877,"longitude":-101.36211},{"name":"Arbolada los Sauces","countryCode":"MX","stateCode":"MEX","latitude":19.81583,"longitude":-99.04417},{"name":"Arboledas","countryCode":"MX","stateCode":"VER","latitude":19.20722,"longitude":-96.21444},{"name":"Arboledas Paso Blanco [Fraccionamiento]","countryCode":"MX","stateCode":"AGU","latitude":21.96361,"longitude":-102.30194},{"name":"Arbolillo","countryCode":"MX","stateCode":"VER","latitude":18.81631,"longitude":-95.83601},{"name":"Arcelia","countryCode":"MX","stateCode":"GRO","latitude":18.26627,"longitude":-100.19066},{"name":"Arcelia de Rodríguez","countryCode":"MX","stateCode":"GRO","latitude":16.73668,"longitude":-98.64486},{"name":"Arcila","countryCode":"MX","stateCode":"QUE","latitude":20.41037,"longitude":-100.10993},{"name":"Arcinas","countryCode":"MX","stateCode":"DUR","latitude":25.77556,"longitude":-103.40913},{"name":"Arellano","countryCode":"MX","stateCode":"AGU","latitude":21.80106,"longitude":-102.27384},{"name":"Arena 1ra. Sección","countryCode":"MX","stateCode":"TAB","latitude":18.20139,"longitude":-93.36694},{"name":"Arena 6ta. Sección (La Bolsa)","countryCode":"MX","stateCode":"TAB","latitude":18.16218,"longitude":-93.39539},{"name":"Arena de Hidalgo","countryCode":"MX","stateCode":"TAB","latitude":17.45827,"longitude":-91.58847},{"name":"Arenal","countryCode":"MX","stateCode":"MEX","latitude":19.38111,"longitude":-98.94278},{"name":"Arenal de Álvarez (Arenal de Paco)","countryCode":"MX","stateCode":"GRO","latitude":17.12611,"longitude":-100.455},{"name":"Arenal Santa Ana","countryCode":"MX","stateCode":"VER","latitude":17.78951,"longitude":-95.7697},{"name":"Arimatea","countryCode":"MX","stateCode":"CHP","latitude":17.34139,"longitude":-91.87639},{"name":"Ario de Rayón","countryCode":"MX","stateCode":"MIC","latitude":20.02651,"longitude":-102.34814},{"name":"Ario de Rosales","countryCode":"MX","stateCode":"MIC","latitude":19.209,"longitude":-101.70743},{"name":"Arivechi","countryCode":"MX","stateCode":"SON","latitude":28.92765,"longitude":-109.18681},{"name":"Arizpe","countryCode":"MX","stateCode":"SON","latitude":30.3369,"longitude":-110.16649},{"name":"Armería","countryCode":"MX","stateCode":"COL","latitude":18.95554,"longitude":-103.98357},{"name":"Arriaga","countryCode":"MX","stateCode":"CHP","latitude":16.23589,"longitude":-93.89995},{"name":"Arroyo Chical (Nuevo Arroyo Chicali)","countryCode":"MX","stateCode":"OAX","latitude":18.21611,"longitude":-96.33667},{"name":"Arroyo Choápam","countryCode":"MX","stateCode":"OAX","latitude":17.97028,"longitude":-96.15722},{"name":"Arroyo de Banco","countryCode":"MX","stateCode":"OAX","latitude":17.80312,"longitude":-96.34794},{"name":"Arroyo de Enmedio","countryCode":"MX","stateCode":"OAX","latitude":18.4975,"longitude":-96.54722},{"name":"Arroyo del Maíz Uno","countryCode":"MX","stateCode":"VER","latitude":20.53667,"longitude":-97.41528},{"name":"Arroyo del Potrero","countryCode":"MX","stateCode":"VER","latitude":20.14554,"longitude":-97.0652},{"name":"Arroyo Grande","countryCode":"MX","stateCode":"CHP","latitude":17.19122,"longitude":-92.87207},{"name":"Arroyo Granizo","countryCode":"MX","stateCode":"CHP","latitude":17.03716,"longitude":-91.42563},{"name":"Arroyo Hondo","countryCode":"MX","stateCode":"JAL","latitude":19.68222,"longitude":-103.3},{"name":"Arroyo Hondo","countryCode":"MX","stateCode":"VER","latitude":20.02317,"longitude":-96.87372},{"name":"Arroyo Hondo Abejonal","countryCode":"MX","stateCode":"TAB","latitude":17.97739,"longitude":-93.41039},{"name":"Arroyo Limón","countryCode":"MX","stateCode":"OAX","latitude":17.90008,"longitude":-95.96175},{"name":"Arroyo Palenque","countryCode":"MX","stateCode":"CHP","latitude":17.39167,"longitude":-92.10444},{"name":"Arroyo San Isidro","countryCode":"MX","stateCode":"VER","latitude":18.48667,"longitude":-95.41333},{"name":"Arroyo Seco","countryCode":"MX","stateCode":"QUE","latitude":21.54777,"longitude":-99.68832},{"name":"Arroyo Vista Hermosa","countryCode":"MX","stateCode":"MOR","latitude":19.33082,"longitude":-99.53694},{"name":"Arroyo Zapotillo","countryCode":"MX","stateCode":"OAX","latitude":18.07639,"longitude":-96.54417},{"name":"Arroyos","countryCode":"MX","stateCode":"SLP","latitude":22.05455,"longitude":-100.9052},{"name":"Arteaga","countryCode":"MX","stateCode":"COA","latitude":25.44528,"longitude":-100.84667},{"name":"Arteaga","countryCode":"MX","stateCode":"MIC","latitude":18.35779,"longitude":-102.29122},{"name":"Artemio Treviño","countryCode":"MX","stateCode":"NLE","latitude":25.83528,"longitude":-100.14278},{"name":"Artículo Primero Constitucional","countryCode":"MX","stateCode":"PUE","latitude":18.97412,"longitude":-98.15848},{"name":"Arturo Martínez Adame","countryCode":"MX","stateCode":"DUR","latitude":25.83157,"longitude":-103.38291},{"name":"Arvenza Uno","countryCode":"MX","stateCode":"CHP","latitude":16.77972,"longitude":-92.72028},{"name":"Ascensión","countryCode":"MX","stateCode":"CHH","latitude":31.27914,"longitude":-107.73149},{"name":"Asientos","countryCode":"MX","stateCode":"AGU","latitude":22.23333,"longitude":-102.08333},{"name":"Astacinga","countryCode":"MX","stateCode":"VER","latitude":18.569,"longitude":-97.10376},{"name":"Astapa","countryCode":"MX","stateCode":"TAB","latitude":17.78165,"longitude":-92.84938},{"name":"Asunción Cacalotepec","countryCode":"MX","stateCode":"OAX","latitude":17.0347,"longitude":-95.93361},{"name":"Asunción Ixtaltepec","countryCode":"MX","stateCode":"OAX","latitude":16.50315,"longitude":-95.06121},{"name":"Asunción Nochixtlán","countryCode":"MX","stateCode":"OAX","latitude":17.45916,"longitude":-97.22605},{"name":"Asunción Ocotlán","countryCode":"MX","stateCode":"OAX","latitude":16.76195,"longitude":-96.72137},{"name":"Asunción Tlacolulita","countryCode":"MX","stateCode":"OAX","latitude":16.22612,"longitude":-95.7662},{"name":"Atacco","countryCode":"MX","stateCode":"JAL","latitude":19.92662,"longitude":-103.74249},{"name":"Atacheo de Regalado","countryCode":"MX","stateCode":"MIC","latitude":20.05874,"longitude":-102.18703},{"name":"Atalpan","countryCode":"MX","stateCode":"PUE","latitude":19.84374,"longitude":-97.56008},{"name":"Atapán","countryCode":"MX","stateCode":"MIC","latitude":19.65057,"longitude":-102.42463},{"name":"Atapaneo","countryCode":"MX","stateCode":"MIC","latitude":19.73892,"longitude":-101.11576},{"name":"Atarjea","countryCode":"MX","stateCode":"GUA","latitude":21.26777,"longitude":-99.71914},{"name":"Atarjeas de Covarrubias","countryCode":"MX","stateCode":"JAL","latitude":19.91944,"longitude":-103.94333},{"name":"Atasta","countryCode":"MX","stateCode":"CAM","latitude":18.61954,"longitude":-92.10326},{"name":"Atecax","countryCode":"MX","stateCode":"PUE","latitude":19.6987,"longitude":-97.36698},{"name":"Atecucario de la Constitución (Atecuario)","countryCode":"MX","stateCode":"MIC","latitude":20.06444,"longitude":-102.23861},{"name":"Atemanica","countryCode":"MX","stateCode":"JAL","latitude":21.07528,"longitude":-103.75028},{"name":"Atempan","countryCode":"MX","stateCode":"PUE","latitude":19.83945,"longitude":-97.45855},{"name":"Atenango del Río","countryCode":"MX","stateCode":"GRO","latitude":18.10526,"longitude":-99.10777},{"name":"Atencingo","countryCode":"MX","stateCode":"PUE","latitude":18.51347,"longitude":-98.60542},{"name":"Atengo","countryCode":"MX","stateCode":"HID","latitude":20.17526,"longitude":-99.32714},{"name":"Atengo","countryCode":"MX","stateCode":"JAL","latitude":20.21666667,"longitude":-104.08333333},{"name":"Atenguillo","countryCode":"MX","stateCode":"JAL","latitude":20.41553,"longitude":-104.49387},{"name":"Atenguillo","countryCode":"MX","stateCode":"MEX","latitude":19.56361,"longitude":-98.87639},{"name":"Atenxoxola","countryCode":"MX","stateCode":"GRO","latitude":17.48819,"longitude":-99.14285},{"name":"Atequiza","countryCode":"MX","stateCode":"JAL","latitude":20.39006,"longitude":-103.14065},{"name":"Atexcal","countryCode":"MX","stateCode":"PUE","latitude":18.36391,"longitude":-97.6877},{"name":"Atexcatzingo","countryCode":"MX","stateCode":"TLA","latitude":19.46882,"longitude":-98.14716},{"name":"Aticama","countryCode":"MX","stateCode":"NAY","latitude":21.48387,"longitude":-105.19787},{"name":"Atil","countryCode":"MX","stateCode":"SON","latitude":30.84361,"longitude":-111.58361},{"name":"Atitalaquia","countryCode":"MX","stateCode":"HID","latitude":20.05691,"longitude":-99.21779},{"name":"Atizapán","countryCode":"MX","stateCode":"MEX","latitude":19.25,"longitude":-99.55},{"name":"Atla","countryCode":"MX","stateCode":"PUE","latitude":20.27527,"longitude":-98.12469},{"name":"Atlacahualoya","countryCode":"MX","stateCode":"MOR","latitude":18.54057,"longitude":-98.72982},{"name":"Atlacholoaya","countryCode":"MX","stateCode":"MOR","latitude":18.74238,"longitude":-99.22656},{"name":"Atlacomulco de Fabela","countryCode":"MX","stateCode":"MEX","latitude":19.79919,"longitude":-99.875},{"name":"Atlahuilco","countryCode":"MX","stateCode":"VER","latitude":18.68308,"longitude":-97.11553},{"name":"Atlamajac","countryCode":"MX","stateCode":"GRO","latitude":17.55528,"longitude":-98.54722},{"name":"Atlamajalcingo del Río","countryCode":"MX","stateCode":"GRO","latitude":17.52667,"longitude":-98.65556},{"name":"Atlangatepec","countryCode":"MX","stateCode":"TLA","latitude":19.5322,"longitude":-98.20888},{"name":"Atlapexco","countryCode":"MX","stateCode":"HID","latitude":21.02507,"longitude":-98.36834},{"name":"Atlatlahucan","countryCode":"MX","stateCode":"MOR","latitude":18.93554,"longitude":-98.89496},{"name":"Atlatongo","countryCode":"MX","stateCode":"MEX","latitude":19.66776,"longitude":-98.90402},{"name":"Atlautla","countryCode":"MX","stateCode":"MEX","latitude":19.02188,"longitude":-98.77859},{"name":"Atlequizayan","countryCode":"MX","stateCode":"PUE","latitude":20.01214,"longitude":-97.62423},{"name":"Atliaca","countryCode":"MX","stateCode":"GRO","latitude":17.65168,"longitude":-99.37471},{"name":"Atlixco","countryCode":"MX","stateCode":"PUE","latitude":18.90815,"longitude":-98.43613},{"name":"Atlixtac","countryCode":"MX","stateCode":"GRO","latitude":17.51434,"longitude":-98.90305},{"name":"Atlzayanca","countryCode":"MX","stateCode":"TLA","latitude":19.43111,"longitude":-97.79556},{"name":"Atolinga","countryCode":"MX","stateCode":"ZAC","latitude":21.80659,"longitude":-103.46496},{"name":"Atoluca","countryCode":"MX","stateCode":"PUE","latitude":19.855,"longitude":-97.35361},{"name":"Atonalisco","countryCode":"MX","stateCode":"NAY","latitude":21.66551,"longitude":-104.83949},{"name":"Atongo","countryCode":"MX","stateCode":"QUE","latitude":20.77288,"longitude":-100.23953},{"name":"Atotonilco","countryCode":"MX","stateCode":"MIC","latitude":19.94111,"longitude":-100.22306},{"name":"Atotonilco","countryCode":"MX","stateCode":"MOR","latitude":18.64947,"longitude":-98.83117},{"name":"Atotonilco de Tula","countryCode":"MX","stateCode":"HID","latitude":19.97025,"longitude":-99.23866},{"name":"Atotonilco el Alto Municipality","countryCode":"MX","stateCode":"JAL","latitude":20.53333333,"longitude":-102.5},{"name":"Atotonilco el Bajo","countryCode":"MX","stateCode":"JAL","latitude":20.34833333,"longitude":-103.67083333},{"name":"Atotonilco el Grande","countryCode":"MX","stateCode":"HID","latitude":20.28632,"longitude":-98.6685},{"name":"Atotonilquillo","countryCode":"MX","stateCode":"JAL","latitude":20.39287,"longitude":-103.12356},{"name":"Atoyac","countryCode":"MX","stateCode":"JAL","latitude":20.017,"longitude":-103.533},{"name":"Atoyac","countryCode":"MX","stateCode":"VER","latitude":18.93182,"longitude":-96.80203},{"name":"Atoyac de Álvarez","countryCode":"MX","stateCode":"GRO","latitude":17.20667,"longitude":-100.43306},{"name":"Atoyatempan","countryCode":"MX","stateCode":"PUE","latitude":18.81925,"longitude":-97.9139},{"name":"Atzacan","countryCode":"MX","stateCode":"VER","latitude":18.90724,"longitude":-97.08307},{"name":"Atzacoaloya","countryCode":"MX","stateCode":"GRO","latitude":17.54659,"longitude":-99.13757},{"name":"Atzala","countryCode":"MX","stateCode":"PUE","latitude":18.54639,"longitude":-98.55306},{"name":"Atzalan","countryCode":"MX","stateCode":"VER","latitude":19.78864,"longitude":-97.24195},{"name":"Atzalán","countryCode":"MX","stateCode":"PUE","latitude":19.82472,"longitude":-97.44417},{"name":"Atzcatlán","countryCode":"MX","stateCode":"JAL","latitude":20.40306,"longitude":-102.97111},{"name":"Atzingo (La Cumbre)","countryCode":"MX","stateCode":"PUE","latitude":19.97972,"longitude":-97.96861},{"name":"Atzitzintla","countryCode":"MX","stateCode":"PUE","latitude":18.89915,"longitude":-97.3244},{"name":"Augusto Gómez Villanueva","countryCode":"MX","stateCode":"COL","latitude":19.02154,"longitude":-104.00156},{"name":"Aurelio Manrique","countryCode":"MX","stateCode":"SLP","latitude":22.2875,"longitude":-98.65083},{"name":"Aurora Ermita","countryCode":"MX","stateCode":"CHP","latitude":17.23583,"longitude":-92.87389},{"name":"Aurora Esquipulas","countryCode":"MX","stateCode":"CHP","latitude":17.11704,"longitude":-92.47626},{"name":"Aután","countryCode":"MX","stateCode":"NAY","latitude":21.68973,"longitude":-105.3075},{"name":"Autlán de Navarro","countryCode":"MX","stateCode":"JAL","latitude":19.76666667,"longitude":-104.36666667},{"name":"Axapusco","countryCode":"MX","stateCode":"MEX","latitude":19.72456,"longitude":-98.75863},{"name":"Axaxacualco","countryCode":"MX","stateCode":"GRO","latitude":17.80387,"longitude":-99.46175},{"name":"Axixintla","countryCode":"MX","stateCode":"GRO","latitude":18.60222,"longitude":-99.51806},{"name":"Axochiapan","countryCode":"MX","stateCode":"MOR","latitude":18.50246,"longitude":-98.75358},{"name":"Axochío","countryCode":"MX","stateCode":"VER","latitude":18.37175,"longitude":-95.29985},{"name":"Axotlán","countryCode":"MX","stateCode":"MEX","latitude":19.69417,"longitude":-99.23944},{"name":"Axtla de Terrazas","countryCode":"MX","stateCode":"SLP","latitude":21.43923,"longitude":-98.87508},{"name":"Axutla","countryCode":"MX","stateCode":"PUE","latitude":18.18938,"longitude":-98.38935},{"name":"Axuxco","countryCode":"MX","stateCode":"PUE","latitude":18.23045,"longitude":-97.20739},{"name":"Ayahualulco","countryCode":"MX","stateCode":"GRO","latitude":17.50066,"longitude":-99.18264},{"name":"Ayahualulco","countryCode":"MX","stateCode":"VER","latitude":19.38613,"longitude":-97.14853},{"name":"Ayala","countryCode":"MX","stateCode":"MOR","latitude":18.72604,"longitude":-98.95106},{"name":"Ayapa","countryCode":"MX","stateCode":"TAB","latitude":18.2241,"longitude":-93.11158},{"name":"Ayapango","countryCode":"MX","stateCode":"MEX","latitude":19.12692,"longitude":-98.79988},{"name":"Ayometitla","countryCode":"MX","stateCode":"TLA","latitude":19.20722,"longitude":-98.19306},{"name":"Ayoquezco de Aldama","countryCode":"MX","stateCode":"OAX","latitude":16.6837,"longitude":-96.84287},{"name":"Ayotitlán","countryCode":"MX","stateCode":"JAL","latitude":20.22048,"longitude":-103.94397},{"name":"Ayotla","countryCode":"MX","stateCode":"PUE","latitude":18.67004,"longitude":-98.37266},{"name":"Ayotlán Municipality","countryCode":"MX","stateCode":"JAL","latitude":20.49388889,"longitude":-102.35083333},{"name":"Ayotoxco de Guerrero","countryCode":"MX","stateCode":"PUE","latitude":20.09589,"longitude":-97.40961},{"name":"Ayotuxtla","countryCode":"MX","stateCode":"VER","latitude":20.64885,"longitude":-98.30264},{"name":"Ayotzinapa","countryCode":"MX","stateCode":"GRO","latitude":17.55628,"longitude":-98.76346},{"name":"Ayotzintepec","countryCode":"MX","stateCode":"OAX","latitude":17.67261,"longitude":-96.12855},{"name":"Ayuquila","countryCode":"MX","stateCode":"JAL","latitude":19.84001,"longitude":-104.27156},{"name":"Ayutla","countryCode":"MX","stateCode":"OAX","latitude":17.02756,"longitude":-96.07632},{"name":"Ayutla","countryCode":"MX","stateCode":"PUE","latitude":18.54503,"longitude":-98.50537},{"name":"Ayutla de los Libres","countryCode":"MX","stateCode":"GRO","latitude":16.96376,"longitude":-99.09616},{"name":"Ayutla, Jalisco","countryCode":"MX","stateCode":"JAL","latitude":20.81666667,"longitude":-104.2},{"name":"Azcapotzalco","countryCode":"MX","stateCode":"CDMX","latitude":19.48698,"longitude":-99.18594},{"name":"Azoyú","countryCode":"MX","stateCode":"GRO","latitude":16.64925,"longitude":-98.57828},{"name":"Azteca","countryCode":"MX","stateCode":"CHP","latitude":16.21775,"longitude":-93.94557},{"name":"Aztlán","countryCode":"MX","stateCode":"CHP","latitude":16.76919,"longitude":-92.92316},{"name":"Azumbilla","countryCode":"MX","stateCode":"PUE","latitude":18.64552,"longitude":-97.39815},{"name":"Baborigame","countryCode":"MX","stateCode":"CHH","latitude":26.42962,"longitude":-107.26857},{"name":"Baburia","countryCode":"MX","stateCode":"SIN","latitude":25.84289,"longitude":-108.20276},{"name":"Baca","countryCode":"MX","stateCode":"YUC","latitude":21.10874,"longitude":-89.39866},{"name":"Bacabachi","countryCode":"MX","stateCode":"SON","latitude":26.89471,"longitude":-109.3932},{"name":"Bacabchén","countryCode":"MX","stateCode":"CAM","latitude":20.28903,"longitude":-90.05602},{"name":"Bacadéhuachi","countryCode":"MX","stateCode":"SON","latitude":29.80872,"longitude":-109.14054},{"name":"Bacalar","countryCode":"MX","stateCode":"ROO","latitude":18.68109,"longitude":-88.39333},{"name":"Bacame Nuevo","countryCode":"MX","stateCode":"SON","latitude":27.15899,"longitude":-109.59286},{"name":"Bacanora","countryCode":"MX","stateCode":"SON","latitude":28.98152,"longitude":-109.40012},{"name":"Bacerac","countryCode":"MX","stateCode":"SON","latitude":30.35565,"longitude":-108.93147},{"name":"Bachajón","countryCode":"MX","stateCode":"CHP","latitude":17.03963,"longitude":-92.18986},{"name":"Bachigualatito","countryCode":"MX","stateCode":"SIN","latitude":24.71344,"longitude":-107.46938},{"name":"Bachíniva","countryCode":"MX","stateCode":"CHH","latitude":28.76801,"longitude":-107.25559},{"name":"Bachoco","countryCode":"MX","stateCode":"SIN","latitude":25.69687,"longitude":-108.81437},{"name":"Bachomobampo Número Dos","countryCode":"MX","stateCode":"SIN","latitude":25.73888,"longitude":-109.14776},{"name":"Bacobampo","countryCode":"MX","stateCode":"SON","latitude":26.98239,"longitude":-109.6535},{"name":"Bacorehuis","countryCode":"MX","stateCode":"SIN","latitude":26.31749,"longitude":-109.0851},{"name":"Bacubirito","countryCode":"MX","stateCode":"SIN","latitude":25.80944,"longitude":-107.915},{"name":"Bácum","countryCode":"MX","stateCode":"SON","latitude":27.55142,"longitude":-110.0833},{"name":"Badiraguato","countryCode":"MX","stateCode":"SIN","latitude":25.36525,"longitude":-107.55083},{"name":"Bagojo Colectivo","countryCode":"MX","stateCode":"SIN","latitude":25.87417,"longitude":-109.11778},{"name":"Bahía Asunción","countryCode":"MX","stateCode":"BCS","latitude":27.14231,"longitude":-114.29582},{"name":"Bahía de Kino","countryCode":"MX","stateCode":"SON","latitude":28.82278,"longitude":-111.94083},{"name":"Bahía de Lobos","countryCode":"MX","stateCode":"SON","latitude":27.35167,"longitude":-110.45472},{"name":"Bahía Tortugas","countryCode":"MX","stateCode":"BCS","latitude":27.69056,"longitude":-114.8966},{"name":"Bahuichivo","countryCode":"MX","stateCode":"CHH","latitude":27.4095,"longitude":-108.0674},{"name":"Bajío de Bonillas","countryCode":"MX","stateCode":"GUA","latitude":20.94944,"longitude":-101.49528},{"name":"Bajío de Ratones","countryCode":"MX","stateCode":"JAL","latitude":20.71306,"longitude":-102.42861},{"name":"Bajío de San José","countryCode":"MX","stateCode":"JAL","latitude":21.67525,"longitude":-102.11606},{"name":"Bajío de San Nicolás","countryCode":"MX","stateCode":"ZAC","latitude":22.56499,"longitude":-102.00784},{"name":"Bajío Seco","countryCode":"MX","stateCode":"JAL","latitude":20.70889,"longitude":-102.39028},{"name":"Bajos de Chila","countryCode":"MX","stateCode":"OAX","latitude":15.92343,"longitude":-97.12113},{"name":"Bajos del Ejido","countryCode":"MX","stateCode":"GRO","latitude":16.96086,"longitude":-99.97169},{"name":"Bajucu","countryCode":"MX","stateCode":"CHP","latitude":16.4752,"longitude":-92.06471},{"name":"Balancán","countryCode":"MX","stateCode":"TAB","latitude":17.80903,"longitude":-91.53682},{"name":"Balcones de la Calera","countryCode":"MX","stateCode":"JAL","latitude":20.4425,"longitude":-103.26722},{"name":"Balleza","countryCode":"MX","stateCode":"CHH","latitude":26.95154,"longitude":-106.34921},{"name":"Bamoa","countryCode":"MX","stateCode":"SIN","latitude":25.70523,"longitude":-108.34614},{"name":"Banco Nacional","countryCode":"MX","stateCode":"DUR","latitude":25.87139,"longitude":-103.35667},{"name":"Banderas","countryCode":"MX","stateCode":"VER","latitude":20.99083,"longitude":-97.39361},{"name":"Banderas (Guatacalca 2da. Sección)","countryCode":"MX","stateCode":"TAB","latitude":18.15167,"longitude":-92.89881},{"name":"Banderas del Águila","countryCode":"MX","stateCode":"DUR","latitude":23.92596,"longitude":-105.3395},{"name":"Banderilla","countryCode":"MX","stateCode":"VER","latitude":19.58893,"longitude":-96.93727},{"name":"Bangandhó","countryCode":"MX","stateCode":"HID","latitude":20.48277,"longitude":-99.14901},{"name":"Banus Vallarta","countryCode":"MX","stateCode":"JAL","latitude":20.71611,"longitude":-105.22306},{"name":"Bara de Chachalacas","countryCode":"MX","stateCode":"VER","latitude":19.40643,"longitude":-96.34159},{"name":"Bariometo","countryCode":"MX","stateCode":"SIN","latitude":24.76695,"longitude":-107.66254},{"name":"Barra de Cazones","countryCode":"MX","stateCode":"VER","latitude":20.72307,"longitude":-97.2032},{"name":"Barra de Navidad","countryCode":"MX","stateCode":"JAL","latitude":19.20805556,"longitude":-104.68055556},{"name":"Barra de Tecoanapa","countryCode":"MX","stateCode":"GRO","latitude":16.50864,"longitude":-98.73216},{"name":"Barranca de los Laureles","countryCode":"MX","stateCode":"JAL","latitude":20.23333333,"longitude":-103.63333333},{"name":"Barranca de Otates","countryCode":"MX","stateCode":"JAL","latitude":20.26806,"longitude":-103.66472},{"name":"Barranca de Santa Clara","countryCode":"MX","stateCode":"JAL","latitude":20.25566,"longitude":-103.6556},{"name":"Barranca del Tule","countryCode":"MX","stateCode":"JAL","latitude":21.98028,"longitude":-103.90694},{"name":"Barrancas","countryCode":"MX","stateCode":"VER","latitude":18.06918,"longitude":-94.58691},{"name":"Barrancas y Amate 3ra. Sección","countryCode":"MX","stateCode":"TAB","latitude":17.971,"longitude":-92.76173},{"name":"Barretal","countryCode":"MX","stateCode":"TAM","latitude":24.08337,"longitude":-99.12526},{"name":"Barretos","countryCode":"MX","stateCode":"GUA","latitude":20.93933,"longitude":-101.64282},{"name":"Barrio Aztlán","countryCode":"MX","stateCode":"HID","latitude":20.46562,"longitude":-98.08553},{"name":"Barrio Bordo Nuevo","countryCode":"MX","stateCode":"MEX","latitude":19.37917,"longitude":-99.67333},{"name":"Barrio Chiquichuca","countryCode":"MX","stateCode":"MEX","latitude":19.32139,"longitude":-100.21278},{"name":"Barrio Cuarto (La Loma)","countryCode":"MX","stateCode":"MEX","latitude":19.76861,"longitude":-99.67694},{"name":"Barrio de Arriba de San Juan Xoconusco","countryCode":"MX","stateCode":"MEX","latitude":19.3204,"longitude":-100.2702},{"name":"Barrio de Boyecha","countryCode":"MX","stateCode":"MEX","latitude":19.70778,"longitude":-99.68444},{"name":"Barrio de Canales","countryCode":"MX","stateCode":"MEX","latitude":19.37333,"longitude":-99.37556},{"name":"Barrio de Centro del Cerrillo","countryCode":"MX","stateCode":"MEX","latitude":19.53694,"longitude":-99.95417},{"name":"Barrio de Ensido","countryCode":"MX","stateCode":"MEX","latitude":19.49389,"longitude":-99.37444},{"name":"Barrio de España","countryCode":"MX","stateCode":"MEX","latitude":19.86139,"longitude":-99.08167},{"name":"Barrio de Guadalupe","countryCode":"MX","stateCode":"MEX","latitude":19.23054,"longitude":-98.9309},{"name":"Barrio de Guadalupe del Mezquitillo","countryCode":"MX","stateCode":"GUA","latitude":20.94417,"longitude":-101.80083},{"name":"Barrio de Jesús Fracción Primera","countryCode":"MX","stateCode":"MEX","latitude":19.36778,"longitude":-99.68694},{"name":"Barrio de la Barranca","countryCode":"MX","stateCode":"MEX","latitude":19.43583,"longitude":-99.55833},{"name":"Barrio de México","countryCode":"MX","stateCode":"MEX","latitude":19.2825,"longitude":-99.82833},{"name":"Barrio de Nuevo León","countryCode":"MX","stateCode":"PUE","latitude":19.08861,"longitude":-98.29},{"name":"Barrio de Puentecillas","countryCode":"MX","stateCode":"MEX","latitude":19.53558,"longitude":-99.98463},{"name":"Barrio de Reyes","countryCode":"MX","stateCode":"JAL","latitude":21.29194,"longitude":-102.50556},{"name":"Barrio de San Isidro","countryCode":"MX","stateCode":"MEX","latitude":19.52139,"longitude":-99.95861},{"name":"Barrio de San Juan","countryCode":"MX","stateCode":"MEX","latitude":19.4142,"longitude":-99.53717},{"name":"Barrio de San Miguel","countryCode":"MX","stateCode":"MEX","latitude":19.51232,"longitude":-99.95467},{"name":"Barrio de San Miguel","countryCode":"MX","stateCode":"VER","latitude":19.64333,"longitude":-97.12389},{"name":"Barrio de San Pedro la Cabecera","countryCode":"MX","stateCode":"MEX","latitude":19.56528,"longitude":-99.75},{"name":"Barrio de San Ramón","countryCode":"MX","stateCode":"MEX","latitude":19.37361,"longitude":-99.33111},{"name":"Barrio de Tapias","countryCode":"MX","stateCode":"JAL","latitude":22.18361,"longitude":-103.22667},{"name":"Barrio del Cajón","countryCode":"MX","stateCode":"MEX","latitude":19.39139,"longitude":-99.65806},{"name":"Barrio el Boncho","countryCode":"MX","stateCode":"MEX","latitude":19.42611,"longitude":-100.10639},{"name":"Barrio el Vivero","countryCode":"MX","stateCode":"MEX","latitude":19.45306,"longitude":-100.03528},{"name":"Barrio la Joya","countryCode":"MX","stateCode":"MEX","latitude":19.42,"longitude":-100.09972},{"name":"Barrio la Tenería","countryCode":"MX","stateCode":"MEX","latitude":19.69361,"longitude":-99.79194},{"name":"Barrio los Tules","countryCode":"MX","stateCode":"MEX","latitude":19.42917,"longitude":-100.07472},{"name":"Barrio Nuevo","countryCode":"MX","stateCode":"GRO","latitude":17.72075,"longitude":-101.63657},{"name":"Barrio Nuevo de los Muertos","countryCode":"MX","stateCode":"GRO","latitude":16.89278,"longitude":-99.54389},{"name":"Barrio San Diego","countryCode":"MX","stateCode":"OAX","latitude":17.27917,"longitude":-97.67417},{"name":"Barrio San Joaquín el Junco","countryCode":"MX","stateCode":"MEX","latitude":19.56417,"longitude":-99.77333},{"name":"Barrio San Miguel Dorami","countryCode":"MX","stateCode":"MEX","latitude":19.44622,"longitude":-99.34296},{"name":"Barrio Santa Cruz","countryCode":"MX","stateCode":"MEX","latitude":19.35139,"longitude":-99.66278},{"name":"Barrio Tepetitlán Emilio Portes Gil","countryCode":"MX","stateCode":"MEX","latitude":19.65306,"longitude":-99.88667},{"name":"Barrio Tlatenco","countryCode":"MX","stateCode":"MEX","latitude":19.73917,"longitude":-99.19167},{"name":"Barrón","countryCode":"MX","stateCode":"GUA","latitude":20.67667,"longitude":-101.08423},{"name":"Barrón","countryCode":"MX","stateCode":"SIN","latitude":23.12322,"longitude":-106.2765},{"name":"Basaseachic","countryCode":"MX","stateCode":"CHH","latitude":28.20626,"longitude":-108.2127},{"name":"Basconcobe","countryCode":"MX","stateCode":"SON","latitude":26.95491,"longitude":-109.6686},{"name":"Basúchil","countryCode":"MX","stateCode":"CHH","latitude":28.52479,"longitude":-107.40172},{"name":"Batopilas","countryCode":"MX","stateCode":"CHH","latitude":27.02846,"longitude":-107.74125},{"name":"Bautista Chico","countryCode":"MX","stateCode":"CHP","latitude":16.79972,"longitude":-92.71194},{"name":"Bavispe","countryCode":"MX","stateCode":"SON","latitude":30.47931,"longitude":-108.93982},{"name":"Bécal","countryCode":"MX","stateCode":"CAM","latitude":20.44172,"longitude":-90.02738},{"name":"Becanchén","countryCode":"MX","stateCode":"YUC","latitude":19.87467,"longitude":-89.21732},{"name":"Bejucal de Ocampo","countryCode":"MX","stateCode":"CHP","latitude":15.45535,"longitude":-92.15835},{"name":"Bejucos","countryCode":"MX","stateCode":"MEX","latitude":18.77802,"longitude":-100.42778},{"name":"Belem","countryCode":"MX","stateCode":"MEX","latitude":19.63334,"longitude":-98.79664},{"name":"Belem del Refugio","countryCode":"MX","stateCode":"JAL","latitude":21.53023,"longitude":-102.43515},{"name":"Belén","countryCode":"MX","stateCode":"TAB","latitude":17.78907,"longitude":-92.61137},{"name":"Belén Atzitzimititlán","countryCode":"MX","stateCode":"TLA","latitude":19.34694,"longitude":-98.19},{"name":"Belisario Domínguez","countryCode":"MX","stateCode":"CHP","latitude":15.29944,"longitude":-92.38056},{"name":"Belisario Domínguez","countryCode":"MX","stateCode":"MIC","latitude":19.8714,"longitude":-100.97184},{"name":"Bella Esperanza","countryCode":"MX","stateCode":"VER","latitude":19.43329,"longitude":-96.86648},{"name":"Bella Vista","countryCode":"MX","stateCode":"CHP","latitude":15.58333,"longitude":-92.21667},{"name":"Bella Vista del Río","countryCode":"MX","stateCode":"QUE","latitude":20.69,"longitude":-99.57139},{"name":"Bellas Fuentes","countryCode":"MX","stateCode":"MIC","latitude":19.82132,"longitude":-101.6795},{"name":"Bellavista","countryCode":"MX","stateCode":"JAL","latitude":20.43408,"longitude":-103.63742},{"name":"Bellavista","countryCode":"MX","stateCode":"NAY","latitude":21.56236,"longitude":-104.88267},{"name":"Bellavista","countryCode":"MX","stateCode":"SIN","latitude":24.81373,"longitude":-107.46188},{"name":"Bellavista de Victoria (San José Bellavista)","countryCode":"MX","stateCode":"PUE","latitude":18.87639,"longitude":-97.54389},{"name":"Benemérito de las Américas","countryCode":"MX","stateCode":"CHP","latitude":16.51599,"longitude":-90.65371},{"name":"Benemérito Juárez","countryCode":"MX","stateCode":"OAX","latitude":18.11944,"longitude":-96.00194},{"name":"Benito García (El Zorrillo)","countryCode":"MX","stateCode":"BCN","latitude":31.67111,"longitude":-116.51139},{"name":"Benito González","countryCode":"MX","stateCode":"TAB","latitude":17.86993,"longitude":-92.70834},{"name":"Benito Juarez","countryCode":"MX","stateCode":"CDMX","latitude":19.3984,"longitude":-99.15766},{"name":"Benito Juárez","countryCode":"MX","stateCode":"BCN","latitude":32.56852,"longitude":-114.99422},{"name":"Benito Juárez","countryCode":"MX","stateCode":"CHH","latitude":29.74624,"longitude":-107.93966},{"name":"Benito Juárez","countryCode":"MX","stateCode":"CHP","latitude":15.055,"longitude":-92.19111},{"name":"Benito Juárez","countryCode":"MX","stateCode":"HID","latitude":20.16047,"longitude":-98.82606},{"name":"Benito Juárez","countryCode":"MX","stateCode":"JAL","latitude":20.03639,"longitude":-105.26806},{"name":"Benito Juárez","countryCode":"MX","stateCode":"MEX","latitude":19.43765,"longitude":-99.85384},{"name":"Benito Juárez","countryCode":"MX","stateCode":"MIC","latitude":19.23333,"longitude":-100.46667},{"name":"Benito Juárez","countryCode":"MX","stateCode":"OAX","latitude":15.88178,"longitude":-96.32405},{"name":"Benito Juárez","countryCode":"MX","stateCode":"PUE","latitude":19.81654,"longitude":-97.79108},{"name":"Benito Juárez","countryCode":"MX","stateCode":"ROO","latitude":21.02029,"longitude":-87.04101},{"name":"Benito Juárez","countryCode":"MX","stateCode":"SIN","latitude":25.77373,"longitude":-109.03311},{"name":"Benito Juárez","countryCode":"MX","stateCode":"TAB","latitude":18.42573,"longitude":-92.80285},{"name":"Benito Juárez","countryCode":"MX","stateCode":"TLA","latitude":19.37391,"longitude":-97.909},{"name":"Benito Juárez","countryCode":"MX","stateCode":"VER","latitude":20.88635,"longitude":-98.20594},{"name":"Benito Juárez (La Playita)","countryCode":"MX","stateCode":"TAB","latitude":17.93231,"longitude":-93.36472},{"name":"Benito Juárez (Vinatería)","countryCode":"MX","stateCode":"SIN","latitude":25.97376,"longitude":-108.87315},{"name":"Benito Juárez II (San Martín)","countryCode":"MX","stateCode":"OAX","latitude":18.14056,"longitude":-96.46139},{"name":"Benito Juárez Uno","countryCode":"MX","stateCode":"CAM","latitude":18.27695,"longitude":-91.09914},{"name":"Benjamín Hill","countryCode":"MX","stateCode":"SON","latitude":30.16904,"longitude":-111.11403},{"name":"Beristain","countryCode":"MX","stateCode":"PUE","latitude":20.09426,"longitude":-98.1329},{"name":"Bermejillo","countryCode":"MX","stateCode":"DUR","latitude":25.88682,"longitude":-103.62069},{"name":"Bernal","countryCode":"MX","stateCode":"QUE","latitude":20.7403,"longitude":-99.94125},{"name":"Berriozábal","countryCode":"MX","stateCode":"CHP","latitude":16.8,"longitude":-93.26667},{"name":"Betania","countryCode":"MX","stateCode":"CHP","latitude":16.60639,"longitude":-92.52194},{"name":"Betania","countryCode":"MX","stateCode":"JAL","latitude":20.58199,"longitude":-102.37914},{"name":"Betania","countryCode":"MX","stateCode":"TAB","latitude":18.28003,"longitude":-93.32081},{"name":"Bethania","countryCode":"MX","stateCode":"OAX","latitude":17.91939,"longitude":-96.00459},{"name":"Betulia","countryCode":"MX","stateCode":"JAL","latitude":21.75935,"longitude":-102.0194},{"name":"Bicercio","countryCode":"MX","stateCode":"JAL","latitude":20.65944,"longitude":-102.98389},{"name":"Bienvenido","countryCode":"MX","stateCode":"PUE","latitude":20.12235,"longitude":-97.74434},{"name":"Bimbaletes Aguascalientes (El Álamo)","countryCode":"MX","stateCode":"AGU","latitude":22.23444,"longitude":-102.01917},{"name":"Blanca Espuma","countryCode":"MX","stateCode":"VER","latitude":19.58117,"longitude":-96.68819},{"name":"Blasillo 1ra. Sección (Nicolás Bravo)","countryCode":"MX","stateCode":"TAB","latitude":18.07861,"longitude":-93.91833},{"name":"Bledos","countryCode":"MX","stateCode":"SLP","latitude":21.84148,"longitude":-101.11651},{"name":"Bobashi de Guadalupe","countryCode":"MX","stateCode":"MEX","latitude":19.87583,"longitude":-99.91167},{"name":"Boca de Tomatlán","countryCode":"MX","stateCode":"JAL","latitude":20.51211,"longitude":-105.31442},{"name":"Boca del Monte","countryCode":"MX","stateCode":"VER","latitude":19.15451,"longitude":-96.8327},{"name":"Boca del Rio","countryCode":"MX","stateCode":"VER","latitude":19.10464,"longitude":-96.10405},{"name":"Bocaneo (San Pedro)","countryCode":"MX","stateCode":"MIC","latitude":19.83861,"longitude":-100.81722},{"name":"Bocas","countryCode":"MX","stateCode":"SLP","latitude":22.51817,"longitude":-101.02186},{"name":"Bochil","countryCode":"MX","stateCode":"CHP","latitude":16.99625,"longitude":-92.89218},{"name":"Bochojbo Alto","countryCode":"MX","stateCode":"CHP","latitude":16.73583,"longitude":-92.71694},{"name":"Bocoyna","countryCode":"MX","stateCode":"CHH","latitude":27.84133,"longitude":-107.58918},{"name":"Bokoba","countryCode":"MX","stateCode":"YUC","latitude":21.00755,"longitude":-89.17913},{"name":"Bolaños Municipality","countryCode":"MX","stateCode":"JAL","latitude":21.83055556,"longitude":-103.78055556},{"name":"Bolón","countryCode":"MX","stateCode":"YUC","latitude":20.8501,"longitude":-89.83193},{"name":"Bolonchén de Rejón","countryCode":"MX","stateCode":"CAM","latitude":20.00386,"longitude":-89.74663},{"name":"Bomanxotha","countryCode":"MX","stateCode":"HID","latitude":20.51542,"longitude":-99.66679},{"name":"Bomintzha","countryCode":"MX","stateCode":"HID","latitude":20.014,"longitude":-99.27277},{"name":"Bondojito","countryCode":"MX","stateCode":"HID","latitude":20.44395,"longitude":-99.70022},{"name":"Bonifacio García","countryCode":"MX","stateCode":"MOR","latitude":18.71786,"longitude":-99.12011},{"name":"Bonifacio Moreno (El Aguaje)","countryCode":"MX","stateCode":"MIC","latitude":18.99167,"longitude":-102.71083},{"name":"Boquiapa","countryCode":"MX","stateCode":"TAB","latitude":18.16111,"longitude":-93.1375},{"name":"Boquilla de Babisas (La Boquilla de Conchos)","countryCode":"MX","stateCode":"CHH","latitude":27.54861,"longitude":-105.40361},{"name":"Boquilla de las Perlas","countryCode":"MX","stateCode":"COA","latitude":25.32803,"longitude":-103.2887},{"name":"Boquillas","countryCode":"MX","stateCode":"GUA","latitude":20.41642,"longitude":-101.43333},{"name":"Bordo Blanco","countryCode":"MX","stateCode":"QUE","latitude":20.49631,"longitude":-99.92855},{"name":"Boshindó","countryCode":"MX","stateCode":"MEX","latitude":19.91922,"longitude":-99.84075},{"name":"Bosque de Saloya","countryCode":"MX","stateCode":"TAB","latitude":18.01611,"longitude":-92.95806},{"name":"Bosque Real Fraccionamiento","countryCode":"MX","stateCode":"JAL","latitude":20.56833,"longitude":-103.49389},{"name":"Bosques de la Magdalena","countryCode":"MX","stateCode":"MEX","latitude":19.35778,"longitude":-98.9475},{"name":"Bosques de San Pedro","countryCode":"MX","stateCode":"NLE","latitude":25.60139,"longitude":-100.17972},{"name":"Boxasní","countryCode":"MX","stateCode":"QUE","latitude":20.67083,"longitude":-99.84861},{"name":"Boyé","countryCode":"MX","stateCode":"QUE","latitude":20.68091,"longitude":-99.73933},{"name":"Bravo","countryCode":"MX","stateCode":"QUE","latitude":20.39977,"longitude":-100.42423},{"name":"Brisas Barra de Suchiate","countryCode":"MX","stateCode":"CHP","latitude":14.53588,"longitude":-92.22414},{"name":"Brisas de la Navidad","countryCode":"MX","stateCode":"JAL","latitude":19.22444,"longitude":-104.65639},{"name":"Brisas de Zicatela","countryCode":"MX","stateCode":"OAX","latitude":15.83694,"longitude":-97.04194},{"name":"Brisas del Carrizal","countryCode":"MX","stateCode":"TAB","latitude":18.01556,"longitude":-92.97083},{"name":"Briseñas","countryCode":"MX","stateCode":"MIC","latitude":20.25149,"longitude":-102.57124},{"name":"Briseñas de Matamoros","countryCode":"MX","stateCode":"MIC","latitude":20.26821,"longitude":-102.56195},{"name":"Brizuela","countryCode":"MX","stateCode":"JAL","latitude":20.18333333,"longitude":-103.7},{"name":"Buaysiacobe","countryCode":"MX","stateCode":"SON","latitude":27.06795,"longitude":-109.68628},{"name":"Buayums","countryCode":"MX","stateCode":"SON","latitude":26.86336,"longitude":-109.43427},{"name":"Bucerías","countryCode":"MX","stateCode":"NAY","latitude":20.75626,"longitude":-105.33438},{"name":"Buctzotz","countryCode":"MX","stateCode":"YUC","latitude":21.20303,"longitude":-88.79271},{"name":"Buen Retiro (El Retiro)","countryCode":"MX","stateCode":"SIN","latitude":25.46194,"longitude":-108.47833},{"name":"Buena Vista","countryCode":"MX","stateCode":"GRO","latitude":16.9625,"longitude":-98.58077},{"name":"Buena Vista","countryCode":"MX","stateCode":"JAL","latitude":20.77722,"longitude":-102.75778},{"name":"Buena Vista","countryCode":"MX","stateCode":"NLE","latitude":25.85222,"longitude":-100.36},{"name":"Buena Vista","countryCode":"MX","stateCode":"PUE","latitude":20.12767,"longitude":-97.45373},{"name":"Buena Vista","countryCode":"MX","stateCode":"VER","latitude":19.04278,"longitude":-96.85667},{"name":"Buena Vista (Apasco)","countryCode":"MX","stateCode":"TAB","latitude":17.65556,"longitude":-92.44389},{"name":"Buena Vista (Puxcatán)","countryCode":"MX","stateCode":"TAB","latitude":17.73073,"longitude":-92.61996},{"name":"Buena Vista 1ra. Sección","countryCode":"MX","stateCode":"TAB","latitude":18.14417,"longitude":-92.74972},{"name":"Buena Vista de la Salud","countryCode":"MX","stateCode":"GRO","latitude":17.26082,"longitude":-99.50183},{"name":"Buenaventura","countryCode":"MX","stateCode":"CHH","latitude":30.02116,"longitude":-107.19308},{"name":"Buenavista","countryCode":"MX","stateCode":"CHP","latitude":16.24278,"longitude":-91.98778},{"name":"Buenavista","countryCode":"MX","stateCode":"JAL","latitude":21.55889,"longitude":-102.55639},{"name":"Buenavista","countryCode":"MX","stateCode":"MEX","latitude":19.60833,"longitude":-99.16944},{"name":"Buenavista","countryCode":"MX","stateCode":"MIC","latitude":19.18802,"longitude":-102.58471},{"name":"Buenavista","countryCode":"MX","stateCode":"MOR","latitude":19.80082,"longitude":-100.04385},{"name":"Buenavista","countryCode":"MX","stateCode":"PUE","latitude":19.25767,"longitude":-97.07531},{"name":"Buenavista","countryCode":"MX","stateCode":"QUE","latitude":20.82372,"longitude":-100.47009},{"name":"Buenavista","countryCode":"MX","stateCode":"TAB","latitude":17.91667,"longitude":-92.53333},{"name":"Buenavista","countryCode":"MX","stateCode":"VER","latitude":18.89306,"longitude":-97.03694},{"name":"Buenavista (Matasanos)","countryCode":"MX","stateCode":"CHP","latitude":17.10778,"longitude":-93.06694},{"name":"Buenavista de Allende","countryCode":"MX","stateCode":"GRO","latitude":17.00086,"longitude":-99.21325},{"name":"Buenavista de Benito Juárez","countryCode":"MX","stateCode":"MIC","latitude":18.46034,"longitude":-98.63735},{"name":"Buenavista de Cortés","countryCode":"MX","stateCode":"GUA","latitude":20.37326,"longitude":-101.87021},{"name":"Buenavista de Cuéllar","countryCode":"MX","stateCode":"GRO","latitude":18.45958,"longitude":-99.40868},{"name":"Buenavista de Juárez","countryCode":"MX","stateCode":"PUE","latitude":18.945,"longitude":-97.82778},{"name":"Buenavista de Trujillo","countryCode":"MX","stateCode":"ZAC","latitude":23.152,"longitude":-103.18767},{"name":"Buenavista Tetela","countryCode":"MX","stateCode":"PUE","latitude":18.91967,"longitude":-98.17632},{"name":"Buenavista Tomatlán","countryCode":"MX","stateCode":"MIC","latitude":19.21281,"longitude":-102.58735},{"name":"Buenos Aires","countryCode":"MX","stateCode":"BCN","latitude":32.42278,"longitude":-116.94111},{"name":"Buenos Aires","countryCode":"MX","stateCode":"CHP","latitude":14.8898,"longitude":-92.48121},{"name":"Buenos Aires","countryCode":"MX","stateCode":"JAL","latitude":20.54056,"longitude":-102.93444},{"name":"Buenos Aires","countryCode":"MX","stateCode":"MEX","latitude":19.61745,"longitude":-99.6679},{"name":"Buenos Aires","countryCode":"MX","stateCode":"MIC","latitude":18.02444,"longitude":-102.28583},{"name":"Buenos Aires","countryCode":"MX","stateCode":"PUE","latitude":20.15333,"longitude":-97.74833},{"name":"Buenos Aires","countryCode":"MX","stateCode":"VER","latitude":18.46463,"longitude":-95.24879},{"name":"Buenos Aires (San Isidro)","countryCode":"MX","stateCode":"VER","latitude":20.84028,"longitude":-97.60139},{"name":"Burgos","countryCode":"MX","stateCode":"TAM","latitude":24.94722,"longitude":-98.79921},{"name":"Bustamante","countryCode":"MX","stateCode":"NLE","latitude":26.55567,"longitude":-100.50603},{"name":"Bustamante","countryCode":"MX","stateCode":"TAM","latitude":23.43524,"longitude":-99.75875},{"name":"C-32 (Licenciado Francisco Trujillo Gurría)","countryCode":"MX","stateCode":"TAB","latitude":17.96833,"longitude":-93.50139},{"name":"C-41 (Licenciado Carlos A. Madrazo)","countryCode":"MX","stateCode":"TAB","latitude":17.92306,"longitude":-93.44806},{"name":"Cabecera de Indígenas","countryCode":"MX","stateCode":"MEX","latitude":19.37213,"longitude":-100.13667},{"name":"Cabeza de Toro","countryCode":"MX","stateCode":"CHP","latitude":15.93698,"longitude":-93.78256},{"name":"Cabezas","countryCode":"MX","stateCode":"VER","latitude":19.37167,"longitude":-96.38278},{"name":"Cabo Corrientes","countryCode":"MX","stateCode":"JAL","latitude":20.34394,"longitude":-105.39322},{"name":"Cabo San Lucas","countryCode":"MX","stateCode":"BCS","latitude":22.89088,"longitude":-109.91238},{"name":"Cacahoatán","countryCode":"MX","stateCode":"CHP","latitude":14.99201,"longitude":-92.16376},{"name":"Cacahuatal","countryCode":"MX","stateCode":"VER","latitude":18.83098,"longitude":-96.84192},{"name":"Cacalchen","countryCode":"MX","stateCode":"YUC","latitude":20.98358,"longitude":-89.22686},{"name":"Cacalomacan","countryCode":"MX","stateCode":"MEX","latitude":19.25311,"longitude":-99.70623},{"name":"Cacalotán","countryCode":"MX","stateCode":"SIN","latitude":23.06779,"longitude":-105.84194},{"name":"Cacalotenango","countryCode":"MX","stateCode":"GRO","latitude":18.54639,"longitude":-99.64361},{"name":"Cacaloxúchitl","countryCode":"MX","stateCode":"PUE","latitude":18.78747,"longitude":-98.48614},{"name":"Cacalutla","countryCode":"MX","stateCode":"GRO","latitude":17.12433,"longitude":-100.35038},{"name":"Cacao","countryCode":"MX","stateCode":"ROO","latitude":18.19458,"longitude":-88.69529},{"name":"Cacaté","countryCode":"MX","stateCode":"CHP","latitude":16.84534,"longitude":-92.83485},{"name":"Cadereyta","countryCode":"MX","stateCode":"NLE","latitude":25.58333,"longitude":-99.98333},{"name":"Cadereyta","countryCode":"MX","stateCode":"QUE","latitude":20.69701,"longitude":-99.81624},{"name":"Cadereyta Jiménez","countryCode":"MX","stateCode":"NLE","latitude":25.58896,"longitude":-100.00156},{"name":"Cahuatache","countryCode":"MX","stateCode":"GRO","latitude":17.41624,"longitude":-98.53184},{"name":"Caimanero","countryCode":"MX","stateCode":"SIN","latitude":25.60564,"longitude":-108.44247},{"name":"Caja de Agua","countryCode":"MX","stateCode":"MEX","latitude":19.64329,"longitude":-99.36497},{"name":"Cajelitos","countryCode":"MX","stateCode":"GRO","latitude":17.26778,"longitude":-99.49306},{"name":"Cajititlán","countryCode":"MX","stateCode":"JAL","latitude":20.43174,"longitude":-103.3094},{"name":"Cajonos","countryCode":"MX","stateCode":"OAX","latitude":17.16801,"longitude":-96.26174},{"name":"Cala Norte","countryCode":"MX","stateCode":"PUE","latitude":19.84778,"longitude":-97.42306},{"name":"Cala Sur","countryCode":"MX","stateCode":"PUE","latitude":19.83278,"longitude":-97.42111},{"name":"Calakmul","countryCode":"MX","stateCode":"CAM","latitude":18,"longitude":-89.75},{"name":"Calamanda","countryCode":"MX","stateCode":"QUE","latitude":20.54672,"longitude":-100.18616},{"name":"Calcahualco","countryCode":"MX","stateCode":"VER","latitude":19.13698,"longitude":-97.14201},{"name":"Calcehtoc","countryCode":"MX","stateCode":"YUC","latitude":20.56807,"longitude":-89.91242},{"name":"Calderitas","countryCode":"MX","stateCode":"ROO","latitude":18.55564,"longitude":-88.25518},{"name":"Calera Chica","countryCode":"MX","stateCode":"MOR","latitude":18.85833,"longitude":-99.18194},{"name":"Caleras","countryCode":"MX","stateCode":"COL","latitude":18.99687,"longitude":-103.87898},{"name":"Caleras de Ameche","countryCode":"MX","stateCode":"GUA","latitude":20.56133,"longitude":-100.56013},{"name":"Calería","countryCode":"MX","stateCode":"VER","latitude":18.42883,"longitude":-95.17737},{"name":"Calerita","countryCode":"MX","stateCode":"JAL","latitude":21.46,"longitude":-102.58806},{"name":"Calichar Palma Sola","countryCode":"MX","stateCode":"VER","latitude":20.44155,"longitude":-97.55103},{"name":"Cálido","countryCode":"MX","stateCode":"CHP","latitude":17.09889,"longitude":-92.7875},{"name":"California","countryCode":"MX","stateCode":"DUR","latitude":25.7609,"longitude":-103.37556},{"name":"Calihualá","countryCode":"MX","stateCode":"OAX","latitude":17.53134,"longitude":-98.27792},{"name":"Calimaya","countryCode":"MX","stateCode":"MEX","latitude":19.16324,"longitude":-99.6181},{"name":"Calipan","countryCode":"MX","stateCode":"PUE","latitude":18.29519,"longitude":-97.16376},{"name":"Calixtlahuaca","countryCode":"MX","stateCode":"MEX","latitude":19.33651,"longitude":-99.68923},{"name":"Calkiní","countryCode":"MX","stateCode":"CAM","latitude":20.38583,"longitude":-89.98764},{"name":"Calle Real","countryCode":"MX","stateCode":"MOR","latitude":19.48858,"longitude":-99.61332},{"name":"Callejones","countryCode":"MX","stateCode":"JAL","latitude":19.66833,"longitude":-103.26278},{"name":"Calmeca","countryCode":"MX","stateCode":"PUE","latitude":18.63501,"longitude":-98.63414},{"name":"Calnali","countryCode":"MX","stateCode":"HID","latitude":20.90221,"longitude":-98.57029},{"name":"Calotmul","countryCode":"MX","stateCode":"YUC","latitude":21.02494,"longitude":-88.12581},{"name":"Calpanería Atezquilla","countryCode":"MX","stateCode":"PUE","latitude":19.65556,"longitude":-97.99528},{"name":"Calpulalpan","countryCode":"MX","stateCode":"TLA","latitude":19.58867,"longitude":-98.56972},{"name":"Caltimacan","countryCode":"MX","stateCode":"HID","latitude":20.53672,"longitude":-99.37},{"name":"Caltzontzín","countryCode":"MX","stateCode":"MIC","latitude":19.4234,"longitude":-102.00673},{"name":"Calvario Buenavista","countryCode":"MX","stateCode":"MEX","latitude":19.70387,"longitude":-99.95674},{"name":"Calvario del Carmen","countryCode":"MX","stateCode":"MEX","latitude":19.63562,"longitude":-100.0103},{"name":"Calvillo","countryCode":"MX","stateCode":"AGU","latitude":21.85,"longitude":-102.71666},{"name":"Calzada del Tepozán","countryCode":"MX","stateCode":"GUA","latitude":20.73762,"longitude":-101.88299},{"name":"Calzada Larga","countryCode":"MX","stateCode":"CHP","latitude":16.35115,"longitude":-93.31518},{"name":"Calzadas","countryCode":"MX","stateCode":"VER","latitude":18.10121,"longitude":-94.45524},{"name":"Camajapita","countryCode":"MX","stateCode":"JAL","latitude":20.35,"longitude":-103.91666667},{"name":"Camalotita","countryCode":"MX","stateCode":"NAY","latitude":22.40453,"longitude":-105.43156},{"name":"Camalú","countryCode":"MX","stateCode":"BCN","latitude":30.84222,"longitude":-116.06328},{"name":"Camargo","countryCode":"MX","stateCode":"CHH","latitude":27.82905,"longitude":-104.78012},{"name":"Camargo","countryCode":"MX","stateCode":"TAM","latitude":26.2313,"longitude":-98.85019},{"name":"Camarón de Tejeda","countryCode":"MX","stateCode":"VER","latitude":19.0081,"longitude":-96.56807},{"name":"Camelia (Barrio la Camelia)","countryCode":"MX","stateCode":"HID","latitude":20.14917,"longitude":-98.72222},{"name":"Camelia Roja","countryCode":"MX","stateCode":"OAX","latitude":18.02833,"longitude":-96.20806},{"name":"Camémbaro","countryCode":"MX","stateCode":"MIC","latitude":19.42722,"longitude":-100.39889},{"name":"Camerino Z. Mendoza","countryCode":"MX","stateCode":"VER","latitude":18.78246,"longitude":-97.16016},{"name":"Camichín de Jauja","countryCode":"MX","stateCode":"NAY","latitude":21.46532,"longitude":-104.8008},{"name":"Camocuautla","countryCode":"MX","stateCode":"PUE","latitude":20.03805,"longitude":-97.75853},{"name":"Camotepec","countryCode":"MX","stateCode":"PUE","latitude":20.0472,"longitude":-98.06825},{"name":"Camotinchan","countryCode":"MX","stateCode":"OAX","latitude":16.55873,"longitude":-98.12433},{"name":"Camotlán de Miraflores","countryCode":"MX","stateCode":"COL","latitude":19.22033,"longitude":-104.23491},{"name":"Campanario","countryCode":"MX","stateCode":"GRO","latitude":16.83534,"longitude":-99.57178},{"name":"Campeche","countryCode":"MX","stateCode":"CAM","latitude":19.84386,"longitude":-90.52554},{"name":"Campestre Flamboyanes","countryCode":"MX","stateCode":"YUC","latitude":21.21,"longitude":-89.65778},{"name":"Campestre las Palomas Fraccionamiento","countryCode":"MX","stateCode":"JAL","latitude":20.81778,"longitude":-103.45167},{"name":"Campestre Tarímbaro","countryCode":"MX","stateCode":"MIC","latitude":19.775,"longitude":-101.12917},{"name":"Campestre Villas del Álamo","countryCode":"MX","stateCode":"HID","latitude":20.10167,"longitude":-98.70722},{"name":"Campo Acosta","countryCode":"MX","stateCode":"JAL","latitude":19.77061,"longitude":-105.24917},{"name":"Campo Balbuena","countryCode":"MX","stateCode":"SIN","latitude":24.74688,"longitude":-107.54975},{"name":"Campo Carretero","countryCode":"MX","stateCode":"SON","latitude":30.77154,"longitude":-110.8538},{"name":"Campo Chico","countryCode":"MX","stateCode":"VER","latitude":18.83639,"longitude":-97.02802},{"name":"Campo de Águila","countryCode":"MX","stateCode":"VER","latitude":18.0675,"longitude":-94.98611},{"name":"Campo Grande","countryCode":"MX","stateCode":"VER","latitude":18.82296,"longitude":-97.01265},{"name":"Campo la Arrocera","countryCode":"MX","stateCode":"SIN","latitude":25.845,"longitude":-108.91833},{"name":"Campo Pesquero el Colorado","countryCode":"MX","stateCode":"SIN","latitude":25.75828,"longitude":-109.3151},{"name":"Campo Real","countryCode":"MX","stateCode":"JAL","latitude":20.78722,"longitude":-103.44306},{"name":"Campo Sesenta","countryCode":"MX","stateCode":"SON","latitude":27.45,"longitude":-110.1},{"name":"Cañada","countryCode":"MX","stateCode":"HID","latitude":19.99798,"longitude":-99.23947},{"name":"Cañada de Bustos","countryCode":"MX","stateCode":"GUA","latitude":20.90436,"longitude":-101.3126},{"name":"Cañada de Caracheo","countryCode":"MX","stateCode":"GUA","latitude":20.37552,"longitude":-100.94549},{"name":"Cañada de Cisneros","countryCode":"MX","stateCode":"MEX","latitude":19.69534,"longitude":-99.3357},{"name":"Cañada de Guadarrama","countryCode":"MX","stateCode":"MEX","latitude":19.31272,"longitude":-99.78972},{"name":"Cañada de Islas","countryCode":"MX","stateCode":"JAL","latitude":21.24139,"longitude":-102.83722},{"name":"Cañada de Madero","countryCode":"MX","stateCode":"HID","latitude":19.96528,"longitude":-99.39389},{"name":"Cañada de Negros","countryCode":"MX","stateCode":"GUA","latitude":20.92636,"longitude":-101.92115},{"name":"Cañada de Ramírez","countryCode":"MX","stateCode":"MIC","latitude":20.29637,"longitude":-101.9636},{"name":"Cañada de Ricos","countryCode":"MX","stateCode":"JAL","latitude":21.3714,"longitude":-101.87653},{"name":"Cañada de San Ignacio","countryCode":"MX","stateCode":"JAL","latitude":20.55222,"longitude":-102.35333},{"name":"Cañada del Tabaco","countryCode":"MX","stateCode":"NAY","latitude":21.70972,"longitude":-105.35417},{"name":"Cañada Grande","countryCode":"MX","stateCode":"JAL","latitude":21.03889,"longitude":-102.59278},{"name":"Cañadas de Obregón","countryCode":"MX","stateCode":"JAL","latitude":21.14685,"longitude":-102.68616111},{"name":"Canalejas","countryCode":"MX","stateCode":"MEX","latitude":19.97867,"longitude":-99.60548},{"name":"Cananea","countryCode":"MX","stateCode":"SON","latitude":30.98699,"longitude":-110.29062},{"name":"Cañas","countryCode":"MX","stateCode":"ZAC","latitude":23.74366,"longitude":-103.244},{"name":"Canatlán","countryCode":"MX","stateCode":"DUR","latitude":24.52576,"longitude":-104.77327},{"name":"Canchol","countryCode":"MX","stateCode":"JAL","latitude":19.30028,"longitude":-102.94889},{"name":"Cancuc","countryCode":"MX","stateCode":"CHP","latitude":16.91667,"longitude":-92.48333},{"name":"Cancún","countryCode":"MX","stateCode":"ROO","latitude":21.17429,"longitude":-86.84656},{"name":"Candela","countryCode":"MX","stateCode":"COA","latitude":26.8384,"longitude":-100.6663},{"name":"Candelaria","countryCode":"MX","stateCode":"CAM","latitude":18,"longitude":-90.75},{"name":"Candelaria Loxicha","countryCode":"MX","stateCode":"OAX","latitude":15.92638,"longitude":-96.49268},{"name":"Candelaria Portezuelo","countryCode":"MX","stateCode":"PUE","latitude":19.04194,"longitude":-97.70083},{"name":"Cañitas de Felipe Pescador","countryCode":"MX","stateCode":"ZAC","latitude":23.60371,"longitude":-102.72704},{"name":"Canoas","countryCode":"MX","stateCode":"JAL","latitude":21.27222,"longitude":-101.80694},{"name":"Canoas de Arriba","countryCode":"MX","stateCode":"JAL","latitude":22.12333,"longitude":-103.24556},{"name":"Cansahcab","countryCode":"MX","stateCode":"YUC","latitude":21.15749,"longitude":-89.10131},{"name":"Cantabria","countryCode":"MX","stateCode":"MIC","latitude":19.83994,"longitude":-101.72652},{"name":"Cantamayec","countryCode":"MX","stateCode":"YUC","latitude":20.43186,"longitude":-89.07176},{"name":"Cantera de Villagrán","countryCode":"MX","stateCode":"HID","latitude":19.84083,"longitude":-99.30917},{"name":"Cantinela","countryCode":"MX","stateCode":"HID","latitude":20.45778,"longitude":-99.21028},{"name":"Cantioc","countryCode":"MX","stateCode":"CHP","latitude":17.26222,"longitude":-92.40694},{"name":"Cantón las Delicias","countryCode":"MX","stateCode":"CHP","latitude":15.10245,"longitude":-92.50002},{"name":"Cantón Rancho Nuevo","countryCode":"MX","stateCode":"CHP","latitude":15.06742,"longitude":-92.52565},{"name":"Cantón Villaflor","countryCode":"MX","stateCode":"CHP","latitude":15.11424,"longitude":-92.35261},{"name":"Cantuna","countryCode":"MX","stateCode":"ZAC","latitude":23.6246,"longitude":-103.3463},{"name":"Caobanal 1ra. Sección (Mezcalapa)","countryCode":"MX","stateCode":"TAB","latitude":17.64858,"longitude":-93.39464},{"name":"Caobas","countryCode":"MX","stateCode":"ROO","latitude":18.44497,"longitude":-89.10498},{"name":"Capacho","countryCode":"MX","stateCode":"MIC","latitude":19.96457,"longitude":-101.23117},{"name":"Capácuaro","countryCode":"MX","stateCode":"MIC","latitude":19.54741,"longitude":-102.05184},{"name":"Caparroso","countryCode":"MX","stateCode":"TAB","latitude":18.345,"longitude":-92.80361},{"name":"Capilla de Guadalupe","countryCode":"MX","stateCode":"JAL","latitude":20.82694444,"longitude":-102.59222222},{"name":"Capilla de Milpillas","countryCode":"MX","stateCode":"JAL","latitude":20.66331,"longitude":-102.84295},{"name":"Capitán Felipe Castellanos Díaz (San Pedro)","countryCode":"MX","stateCode":"TAB","latitude":17.77306,"longitude":-91.1475},{"name":"Capoluca","countryCode":"MX","stateCode":"VER","latitude":18.80639,"longitude":-97.02722},{"name":"Capula","countryCode":"MX","stateCode":"MEX","latitude":18.87018,"longitude":-99.96075},{"name":"Capula","countryCode":"MX","stateCode":"MIC","latitude":19.7,"longitude":-101.8},{"name":"Capula","countryCode":"MX","stateCode":"TLA","latitude":19.53642,"longitude":-98.04219},{"name":"Capulálpam de Méndez","countryCode":"MX","stateCode":"OAX","latitude":17.30972,"longitude":-96.44656},{"name":"Capulhuac de Mirafuentes","countryCode":"MX","stateCode":"MEX","latitude":19.19354,"longitude":-99.46585},{"name":"Capulín","countryCode":"MX","stateCode":"JAL","latitude":20.47802,"longitude":-103.26947},{"name":"Capulín de Bustos","countryCode":"MX","stateCode":"GUA","latitude":20.88242,"longitude":-101.3068},{"name":"Caquixtle de Arriba","countryCode":"MX","stateCode":"JAL","latitude":21.5125,"longitude":-102.07472},{"name":"Carácuaro","countryCode":"MX","stateCode":"MIC","latitude":18.98513,"longitude":-101.04164},{"name":"Carapán","countryCode":"MX","stateCode":"MEX","latitude":19.86003,"longitude":-102.03644},{"name":"Carbo","countryCode":"MX","stateCode":"SON","latitude":29.68306,"longitude":-110.95619},{"name":"Carbonera","countryCode":"MX","stateCode":"QUE","latitude":20.80518,"longitude":-100.17117},{"name":"Carboneras","countryCode":"MX","stateCode":"AGU","latitude":22.18311,"longitude":-102.24601},{"name":"Carboneras","countryCode":"MX","stateCode":"HID","latitude":20.09,"longitude":-98.70528},{"name":"Carboneras","countryCode":"MX","stateCode":"TAM","latitude":24.62766,"longitude":-97.71755},{"name":"Cárdenas","countryCode":"MX","stateCode":"GUA","latitude":20.63012,"longitude":-101.2204},{"name":"Cárdenas","countryCode":"MX","stateCode":"SLP","latitude":22.00144,"longitude":-99.64247},{"name":"Cárdenas","countryCode":"MX","stateCode":"TAB","latitude":18.00135,"longitude":-93.37559},{"name":"Cardonal","countryCode":"MX","stateCode":"HID","latitude":20.05689,"longitude":-99.23025},{"name":"Carichí","countryCode":"MX","stateCode":"CHH","latitude":27.74601,"longitude":-107.07795},{"name":"Caristay","countryCode":"MX","stateCode":"VER","latitude":20.64538,"longitude":-97.30593},{"name":"Carlos A. Carrillo","countryCode":"MX","stateCode":"VER","latitude":18.37477,"longitude":-95.75444},{"name":"Carlos A. Madrazo","countryCode":"MX","stateCode":"ROO","latitude":18.50172,"longitude":-88.52508},{"name":"Carmen","countryCode":"MX","stateCode":"CAM","latitude":18.63,"longitude":-91.83},{"name":"Carmen","countryCode":"MX","stateCode":"NLE","latitude":25.9365,"longitude":-100.36396},{"name":"Carmen Serdán","countryCode":"MX","stateCode":"PUE","latitude":19.03639,"longitude":-97.81194},{"name":"Carmen Yalchuch","countryCode":"MX","stateCode":"CHP","latitude":16.64482,"longitude":-92.36245},{"name":"Carmen Zacatal","countryCode":"MX","stateCode":"CHP","latitude":17.08083,"longitude":-92.8025},{"name":"Carona","countryCode":"MX","stateCode":"MIC","latitude":19.52667,"longitude":-102.45074},{"name":"Carpinteros","countryCode":"MX","stateCode":"HID","latitude":20.58606,"longitude":-98.53964},{"name":"Carranco","countryCode":"MX","stateCode":"SLP","latitude":21.82002,"longitude":-101.09699},{"name":"Carrasqueño","countryCode":"MX","stateCode":"JAL","latitude":20.37917,"longitude":-102.61889},