[{"name":"Alor Gajah","countryCode":"MY","stateCode":"04","latitude":2.3804,"longitude":102.2089},{"name":"Alor Setar","countryCode":"MY","stateCode":"02","latitude":6.12104,"longitude":100.36014},{"name":"Ampang","countryCode":"MY","stateCode":"10","latitude":3.15,"longitude":101.76667},{"name":"Ayer Hangat","countryCode":"MY","stateCode":"02","latitude":6.42062,"longitude":99.82199},{"name":"Bagan Pulau Ketam","countryCode":"MY","stateCode":"10","latitude":3.01667,"longitude":101.26667},{"name":"Bagan Serai","countryCode":"MY","stateCode":"08","latitude":5.0108,"longitude":100.54101},{"name":"Bahau","countryCode":"MY","stateCode":"05","latitude":2.8079,"longitude":102.4049},{"name":"Bakri","countryCode":"MY","stateCode":"01","latitude":2.0441,"longitude":102.6527},{"name":"Bandar Labuan","countryCode":"MY","stateCode":"12","latitude":5.28883,"longitude":115.26924},{"name":"Banting","countryCode":"MY","stateCode":"10","latitude":2.8136,"longitude":101.50185},{"name":"Batang Berjuntai","countryCode":"MY","stateCode":"10","latitude":3.38333,"longitude":101.41667},{"name":"Batu Arang","countryCode":"MY","stateCode":"10","latitude":3.31667,"longitude":101.46667},{"name":"Batu Berendam","countryCode":"MY","stateCode":"04","latitude":2.2487,"longitude":102.246},{"name":"Batu Feringgi","countryCode":"MY","stateCode":"07","latitude":5.4709,"longitude":100.24529},{"name":"Batu Gajah","countryCode":"MY","stateCode":"08","latitude":4.46916,"longitude":101.04107},{"name":"Batu Pahat","countryCode":"MY","stateCode":"01","latitude":1.8548,"longitude":102.9325},{"name":"Beaufort","countryCode":"MY","stateCode":"12","latitude":5.3473,"longitude":115.7455},{"name":"Bedong","countryCode":"MY","stateCode":"02","latitude":5.72743,"longitude":100.50876},{"name":"Bemban","countryCode":"MY","stateCode":"04","latitude":2.2684,"longitude":102.3746},{"name":"Bentong Town","countryCode":"MY","stateCode":"06","latitude":3.52229,"longitude":101.90866},{"name":"Bidur","countryCode":"MY","stateCode":"08","latitude":4.11667,"longitude":101.28333},{"name":"Bintulu","countryCode":"MY","stateCode":"13","latitude":3.16667,"longitude":113.03333},{"name":"Bukit Mertajam","countryCode":"MY","stateCode":"07","latitude":5.36301,"longitude":100.4667},{"name":"Bukit Rambai","countryCode":"MY","stateCode":"04","latitude":2.2594,"longitude":102.1838},{"name":"Buloh Kasap","countryCode":"MY","stateCode":"01","latitude":2.5536,"longitude":102.764},{"name":"Butterworth","countryCode":"MY","stateCode":"07","latitude":5.3991,"longitude":100.36382},{"name":"Chaah","countryCode":"MY","stateCode":"01","latitude":2.249,"longitude":103.048},{"name":"Cukai","countryCode":"MY","stateCode":"11","latitude":4.25,"longitude":103.41667},{"name":"Daerah Batu Pahat","countryCode":"MY","stateCode":"01","latitude":1.93333,"longitude":103},{"name":"Daerah Johor Baharu","countryCode":"MY","stateCode":"01","latitude":1.65,"longitude":103.6},{"name":"Daerah Keluang","countryCode":"MY","stateCode":"01","latitude":2.2,"longitude":103.33333},{"name":"Daerah Kota Tinggi","countryCode":"MY","stateCode":"01","latitude":1.81667,"longitude":103.96667},{"name":"Daerah Mersing","countryCode":"MY","stateCode":"01","latitude":2.31667,"longitude":103.71667},{"name":"Daerah Muar","countryCode":"MY","stateCode":"01","latitude":2.25,"longitude":102.75},{"name":"Daerah Pontian","countryCode":"MY","stateCode":"01","latitude":1.5,"longitude":103.5},{"name":"Daerah Segamat","countryCode":"MY","stateCode":"01","latitude":2.6,"longitude":102.81667},{"name":"Data Kakus","countryCode":"MY","stateCode":"13","latitude":2.65465,"longitude":113.62249},{"name":"Donggongon","countryCode":"MY","stateCode":"12","latitude":5.90702,"longitude":116.10146},{"name":"George Town","countryCode":"MY","stateCode":"07","latitude":5.41123,"longitude":100.33543},{"name":"Gua Musang","countryCode":"MY","stateCode":"03","latitude":4.88441,"longitude":101.96857},{"name":"Gurun","countryCode":"MY","stateCode":"02","latitude":5.81717,"longitude":100.47381},{"name":"Ipoh","countryCode":"MY","stateCode":"08","latitude":4.5841,"longitude":101.0829},{"name":"Jenjarum","countryCode":"MY","stateCode":"10","latitude":2.8724,"longitude":101.49484},{"name":"Jerantut","countryCode":"MY","stateCode":"06","latitude":3.936,"longitude":102.3626},{"name":"Jertih","countryCode":"MY","stateCode":"11","latitude":5.7336,"longitude":102.4897},{"name":"Jitra","countryCode":"MY","stateCode":"02","latitude":6.26812,"longitude":100.42167},{"name":"Johor Bahru","countryCode":"MY","stateCode":"01","latitude":1.4655,"longitude":103.7578},{"name":"Juru","countryCode":"MY","stateCode":"07","latitude":5.31201,"longitude":100.44229},{"name":"Kampar","countryCode":"MY","stateCode":"08","latitude":4.3,"longitude":101.15},{"name":"Kampong Baharu Balakong","countryCode":"MY","stateCode":"10","latitude":3.03333,"longitude":101.75},{"name":"Kampong Dungun","countryCode":"MY","stateCode":"08","latitude":3.21667,"longitude":101.31667},{"name":"Kampong Kadok","countryCode":"MY","stateCode":"03","latitude":6,"longitude":102.25},{"name":"Kampong Masjid Tanah","countryCode":"MY","stateCode":"04","latitude":2.35,"longitude":102.11667},{"name":"Kampong Pangkal Kalong","countryCode":"MY","stateCode":"03","latitude":5.91667,"longitude":102.21667},{"name":"Kampung Ayer Keroh","countryCode":"MY","stateCode":"04","latitude":2.2654,"longitude":102.2801},{"name":"Kampung Ayer Molek","countryCode":"MY","stateCode":"04","latitude":2.2139,"longitude":102.3278},{"name":"Kampung Baharu Nilai","countryCode":"MY","stateCode":"05","latitude":2.8033,"longitude":101.7972},{"name":"Kampung Baru Subang","countryCode":"MY","stateCode":"10","latitude":3.15,"longitude":101.53333},{"name":"Kampung Batu Feringgi","countryCode":"MY","stateCode":"07","latitude":5.46948,"longitude":100.24449},{"name":"Kampung Bukit Baharu","countryCode":"MY","stateCode":"04","latitude":2.2152,"longitude":102.2851},{"name":"Kampung Bukit Tinggi, Bentong","countryCode":"MY","stateCode":"06","latitude":3.34944,"longitude":101.82631},{"name":"Kampung Kilim","countryCode":"MY","stateCode":"02","latitude":6.4055,"longitude":99.8502},{"name":"Kampung Kok","countryCode":"MY","stateCode":"02","latitude":6.36759,"longitude":99.68252},{"name":"Kampung Kuala Besut","countryCode":"MY","stateCode":"11","latitude":5.83297,"longitude":102.55061},{"name":"Kampung Pasir Gudang Baru","countryCode":"MY","stateCode":"01","latitude":1.4726,"longitude":103.878},{"name":"Kampung Simpang Renggam","countryCode":"MY","stateCode":"01","latitude":1.8278,"longitude":103.3},{"name":"Kampung Sungai Ara","countryCode":"MY","stateCode":"07","latitude":5.32699,"longitude":100.27348},{"name":"Kampung Tanjung Karang","countryCode":"MY","stateCode":"10","latitude":3.4242,"longitude":101.1849},{"name":"Kampung Tekek","countryCode":"MY","stateCode":"06","latitude":2.8147,"longitude":104.1592},{"name":"Kangar","countryCode":"MY","stateCode":"09","latitude":6.4414,"longitude":100.19862},{"name":"Kapit","countryCode":"MY","stateCode":"13","latitude":1.99546,"longitude":112.93254},{"name":"Kelapa Sawit","countryCode":"MY","stateCode":"01","latitude":1.6698,"longitude":103.5327},{"name":"Keningau","countryCode":"MY","stateCode":"12","latitude":5.3378,"longitude":116.1602},{"name":"Kepala Batas","countryCode":"MY","stateCode":"07","latitude":5.51707,"longitude":100.4265},{"name":"Kertih","countryCode":"MY","stateCode":"11","latitude":4.5141,"longitude":103.4483},{"name":"Kinarut","countryCode":"MY","stateCode":"12","latitude":5.8231,"longitude":116.0466},{"name":"Klang","countryCode":"MY","stateCode":"10","latitude":3.03667,"longitude":101.44333},{"name":"Klebang Besar","countryCode":"MY","stateCode":"04","latitude":2.2186,"longitude":102.1995},{"name":"Kluang","countryCode":"MY","stateCode":"01","latitude":2.03046,"longitude":103.31689},{"name":"Kota Belud","countryCode":"MY","stateCode":"12","latitude":6.351,"longitude":116.4305},{"name":"Kota Bharu","countryCode":"MY","stateCode":"03","latitude":6.12361,"longitude":102.24333},{"name":"Kota Kinabalu","countryCode":"MY","stateCode":"12","latitude":5.9749,"longitude":116.0724},{"name":"Kota Tinggi","countryCode":"MY","stateCode":"01","latitude":1.7381,"longitude":103.8999},{"name":"Kuah","countryCode":"MY","stateCode":"02","latitude":6.32649,"longitude":99.8432},{"name":"Kuala Besut","countryCode":"MY","stateCode":"11","latitude":5.83303,"longitude":102.55514},{"name":"Kuala Kangsar","countryCode":"MY","stateCode":"08","latitude":4.76667,"longitude":100.93333},{"name":"Kuala Kedah","countryCode":"MY","stateCode":"02","latitude":6.1,"longitude":100.3},{"name":"Kuala Lipis","countryCode":"MY","stateCode":"06","latitude":4.1842,"longitude":102.0468},{"name":"Kuala Lumpur","countryCode":"MY","stateCode":"14","latitude":3.1412,"longitude":101.68653},{"name":"Kuala Perlis","countryCode":"MY","stateCode":"09","latitude":6.4,"longitude":100.13333},{"name":"Kuala Pilah","countryCode":"MY","stateCode":"05","latitude":2.7389,"longitude":102.2487},{"name":"Kuala Selangor","countryCode":"MY","stateCode":"10","latitude":3.35,"longitude":101.25},{"name":"Kuala Sungai Baru","countryCode":"MY","stateCode":"04","latitude":2.3594,"longitude":102.0353},{"name":"Kuala Terengganu","countryCode":"MY","stateCode":"11","latitude":5.3302,"longitude":103.1408},{"name":"Kuala Teriang","countryCode":"MY","stateCode":"02","latitude":6.36377,"longitude":99.71532},{"name":"Kuang","countryCode":"MY","stateCode":"10","latitude":3.2594,"longitude":101.5541},{"name":"Kuantan","countryCode":"MY","stateCode":"06","latitude":3.8077,"longitude":103.326},{"name":"Kuching","countryCode":"MY","stateCode":"13","latitude":1.55,"longitude":110.33333},{"name":"Kudat","countryCode":"MY","stateCode":"12","latitude":6.88732,"longitude":116.82364},{"name":"Kulai","countryCode":"MY","stateCode":"01","latitude":1.6561,"longitude":103.6032},{"name":"Kulim","countryCode":"MY","stateCode":"02","latitude":5.36499,"longitude":100.56177},{"name":"Labis","countryCode":"MY","stateCode":"01","latitude":2.385,"longitude":103.021},{"name":"Labuan","countryCode":"MY","stateCode":"15","latitude":5.28028,"longitude":115.2475},{"name":"Ladang Seri Kundang","countryCode":"MY","stateCode":"10","latitude":3.2856,"longitude":101.519},{"name":"Lahad Datu","countryCode":"MY","stateCode":"12","latitude":5.02298,"longitude":118.32897},{"name":"Langkawi","countryCode":"MY","stateCode":"02","latitude":6.35608,"longitude":99.78375},{"name":"Lawas","countryCode":"MY","stateCode":"13","latitude":4.8604,"longitude":115.409},{"name":"Lidung Jelo","countryCode":"MY","stateCode":"13","latitude":2.64848,"longitude":114.78653},{"name":"Limbang","countryCode":"MY","stateCode":"13","latitude":4.75,"longitude":115},{"name":"Long Ampan Aing or Abanang","countryCode":"MY","stateCode":"13","latitude":2.65671,"longitude":114.73675},{"name":"Lumut","countryCode":"MY","stateCode":"08","latitude":4.2323,"longitude":100.6298},{"name":"Malacca","countryCode":"MY","stateCode":"04","latitude":2.196,"longitude":102.2405},{"name":"Marang","countryCode":"MY","stateCode":"11","latitude":5.2056,"longitude":103.2059},{"name":"Marudi","countryCode":"MY","stateCode":"13","latitude":4.18333,"longitude":114.31667},{"name":"Mentekab","countryCode":"MY","stateCode":"06","latitude":3.4854,"longitude":102.3484},{"name":"Mersing","countryCode":"MY","stateCode":"01","latitude":2.4312,"longitude":103.8405},{"name":"Miri","countryCode":"MY","stateCode":"13","latitude":4.39928,"longitude":113.99163},{"name":"Muar","countryCode":"MY","stateCode":"01","latitude":2.0442,"longitude":102.5689},{"name":"Mukah","countryCode":"MY","stateCode":"13","latitude":2.89435,"longitude":112.09145},{"name":"Nibong Tebal","countryCode":"MY","stateCode":"07","latitude":5.16586,"longitude":100.47793},{"name":"Padang Mat Sirat","countryCode":"MY","stateCode":"02","latitude":6.35423,"longitude":99.73404},{"name":"Paka","countryCode":"MY","stateCode":"11","latitude":4.6374,"longitude":103.4368},{"name":"Pantai Cenang","countryCode":"MY","stateCode":"09","latitude":6.29369,"longitude":99.72786},{"name":"Pantai Remis","countryCode":"MY","stateCode":"08","latitude":4.4557,"longitude":100.6288},{"name":"Papar","countryCode":"MY","stateCode":"12","latitude":5.73333,"longitude":115.93333},{"name":"Parit Buntar","countryCode":"MY","stateCode":"08","latitude":5.12671,"longitude":100.49316},{"name":"Parit Raja","countryCode":"MY","stateCode":"01","latitude":1.8681,"longitude":103.1124},{"name":"Pasir Mas","countryCode":"MY","stateCode":"03","latitude":6.04934,"longitude":102.13987},{"name":"Pekan","countryCode":"MY","stateCode":"06","latitude":3.4836,"longitude":103.3996},{"name":"Pekan Nenas","countryCode":"MY","stateCode":"01","latitude":1.51,"longitude":103.5141},{"name":"Pelabuhan Klang","countryCode":"MY","stateCode":"10","latitude":2.99959,"longitude":101.39287},{"name":"Perai","countryCode":"MY","stateCode":"07","latitude":5.38333,"longitude":100.38333},{"name":"Peringat","countryCode":"MY","stateCode":"03","latitude":6.03333,"longitude":102.28333},{"name":"Permatang Kuching","countryCode":"MY","stateCode":"07","latitude":5.46339,"longitude":100.38144},{"name":"Petaling Jaya","countryCode":"MY","stateCode":"10","latitude":3.10726,"longitude":101.60671},{"name":"Pontian Kechil","countryCode":"MY","stateCode":"01","latitude":1.4866,"longitude":103.3896},{"name":"Port Dickson","countryCode":"MY","stateCode":"05","latitude":2.53718,"longitude":101.80571},{"name":"Pulau Sebang","countryCode":"MY","stateCode":"04","latitude":2.455,"longitude":102.2329},{"name":"Putatan","countryCode":"MY","stateCode":"12","latitude":5.9258,"longitude":116.06094},{"name":"Putra Heights","countryCode":"MY","stateCode":"10","latitude":2.99361,"longitude":101.57255},{"name":"Putrajaya","countryCode":"MY","stateCode":"16","latitude":2.93527,"longitude":101.69112},{"name":"Ranau","countryCode":"MY","stateCode":"12","latitude":5.9538,"longitude":116.6641},{"name":"Raub","countryCode":"MY","stateCode":"06","latitude":3.7899,"longitude":101.857},{"name":"Rawang","countryCode":"MY","stateCode":"10","latitude":3.3213,"longitude":101.5767},{"name":"Sandakan","countryCode":"MY","stateCode":"12","latitude":5.8402,"longitude":118.1179},{"name":"Sarikei","countryCode":"MY","stateCode":"13","latitude":2.11667,"longitude":111.51667},{"name":"Seberang Perai","countryCode":"MY","stateCode":"07","latitude":5.3877,"longitude":100.42603},{"name":"Segamat","countryCode":"MY","stateCode":"01","latitude":2.5148,"longitude":102.8158},{"name":"Semenyih","countryCode":"MY","stateCode":"10","latitude":2.9516,"longitude":101.843},{"name":"Semporna","countryCode":"MY","stateCode":"12","latitude":4.48178,"longitude":118.61119},{"name":"Seremban","countryCode":"MY","stateCode":"05","latitude":2.7297,"longitude":101.9381},{"name":"Serendah","countryCode":"MY","stateCode":"10","latitude":3.3646,"longitude":101.6041},{"name":"Shah Alam","countryCode":"MY","stateCode":"10","latitude":3.08507,"longitude":101.53281},{"name":"Sibu","countryCode":"MY","stateCode":"13","latitude":2.3,"longitude":111.81667},{"name":"Simanggang","countryCode":"MY","stateCode":"13","latitude":1.24722,"longitude":111.45278},{"name":"Simpang Empat","countryCode":"MY","stateCode":"08","latitude":4.95,"longitude":100.63333},{"name":"Skudai","countryCode":"MY","stateCode":"01","latitude":1.53741,"longitude":103.65779},{"name":"Subang Jaya","countryCode":"MY","stateCode":"10","latitude":3.04384,"longitude":101.58062},{"name":"Sungai Besar","countryCode":"MY","stateCode":"10","latitude":3.6746,"longitude":100.9867},{"name":"Sungai Pelek New Village","countryCode":"MY","stateCode":"10","latitude":2.65,"longitude":101.7},{"name":"Sungai Petani","countryCode":"MY","stateCode":"02","latitude":5.647,"longitude":100.48772},{"name":"Sungai Udang","countryCode":"MY","stateCode":"04","latitude":2.269,"longitude":102.1427},{"name":"Taiping","countryCode":"MY","stateCode":"08","latitude":4.85,"longitude":100.73333},{"name":"Taman Rajawali","countryCode":"MY","stateCode":"12","latitude":5.89477,"longitude":118.04576},{"name":"Taman Senai","countryCode":"MY","stateCode":"01","latitude":1.6006,"longitude":103.6419},{"name":"Tampin","countryCode":"MY","stateCode":"05","latitude":2.4701,"longitude":102.2302},{"name":"Tanah Rata","countryCode":"MY","stateCode":"06","latitude":4.46361,"longitude":101.3763},{"name":"Tangkak","countryCode":"MY","stateCode":"01","latitude":2.2673,"longitude":102.5453},{"name":"Tanjung Sepat","countryCode":"MY","stateCode":"10","latitude":2.6579,"longitude":101.5629},{"name":"Tanjung Tokong","countryCode":"MY","stateCode":"07","latitude":5.46061,"longitude":100.30742},{"name":"Tapah Road","countryCode":"MY","stateCode":"08","latitude":4.16667,"longitude":101.2},{"name":"Tasek Glugor","countryCode":"MY","stateCode":"07","latitude":5.48032,"longitude":100.49849},{"name":"Tawau","countryCode":"MY","stateCode":"12","latitude":4.24482,"longitude":117.89115},{"name":"Telaga Batu","countryCode":"MY","stateCode":"07","latitude":5.46667,"longitude":100.23333},{"name":"Teluk Intan","countryCode":"MY","stateCode":"08","latitude":4.02219,"longitude":101.02083},{"name":"Temerluh","countryCode":"MY","stateCode":"06","latitude":3.4506,"longitude":102.4176},{"name":"Tumpat","countryCode":"MY","stateCode":"03","latitude":6.19775,"longitude":102.17098},{"name":"Ulu Tiram","countryCode":"MY","stateCode":"01","latitude":1.6,"longitude":103.81667},{"name":"Yong Peng","countryCode":"MY","stateCode":"01","latitude":2.0136,"longitude":103.0659}]
