[{"name":"'s Gravenmoer","countryCode":"NL","stateCode":"NB","latitude":51.65594,"longitude":4.94076},{"name":"'s-Gravenland","countryCode":"NL","stateCode":"ZH","latitude":51.92336,"longitude":4.55315},{"name":"'s-Gravenzande","countryCode":"NL","stateCode":"ZH","latitude":52.00167,"longitude":4.16528},{"name":"'s-Heerenberg","countryCode":"NL","stateCode":"GE","latitude":51.8767,"longitude":6.25877},{"name":"'s-Hertogenbosch","countryCode":"NL","stateCode":"NB","latitude":51.69917,"longitude":5.30417},{"name":"'t Hofke","countryCode":"NL","stateCode":"NB","latitude":51.44943,"longitude":5.51926},{"name":"'t Zand","countryCode":"NL","stateCode":"NH","latitude":52.83667,"longitude":4.75556},{"name":"Aagtekerke","countryCode":"NL","stateCode":"ZE","latitude":51.54667,"longitude":3.50972},{"name":"Aalburg","countryCode":"NL","stateCode":"NB","latitude":51.75482,"longitude":5.13156},{"name":"Aalden","countryCode":"NL","stateCode":"DR","latitude":52.79,"longitude":6.71806},{"name":"Aalsmeer","countryCode":"NL","stateCode":"NH","latitude":52.25917,"longitude":4.75972},{"name":"Aalst","countryCode":"NL","stateCode":"GE","latitude":51.7825,"longitude":5.12778},{"name":"Aalst","countryCode":"NL","stateCode":"NB","latitude":51.39667,"longitude":5.47778},{"name":"Aalten","countryCode":"NL","stateCode":"GE","latitude":51.925,"longitude":6.58056},{"name":"Aardenburg","countryCode":"NL","stateCode":"ZE","latitude":51.27333,"longitude":3.44722},{"name":"Aarle-Rixtel","countryCode":"NL","stateCode":"NB","latitude":51.50976,"longitude":5.63839},{"name":"Abbekerk","countryCode":"NL","stateCode":"NH","latitude":52.73167,"longitude":5.01806},{"name":"Abcoude","countryCode":"NL","stateCode":"UT","latitude":52.2725,"longitude":4.96944},{"name":"Abcoven","countryCode":"NL","stateCode":"NB","latitude":51.5275,"longitude":5.08333},{"name":"Abdissenbosch","countryCode":"NL","stateCode":"LI","latitude":50.91667,"longitude":6.03333},{"name":"Adegeest","countryCode":"NL","stateCode":"ZH","latitude":52.13621,"longitude":4.45249},{"name":"Aduard","countryCode":"NL","stateCode":"GR","latitude":53.25667,"longitude":6.45972},{"name":"Afferden","countryCode":"NL","stateCode":"GE","latitude":51.88,"longitude":5.63472},{"name":"Akert","countryCode":"NL","stateCode":"NB","latitude":51.41407,"longitude":5.5596},{"name":"Akkrum","countryCode":"NL","stateCode":"FR","latitude":53.05024,"longitude":5.83087},{"name":"Alblasserdam","countryCode":"NL","stateCode":"ZH","latitude":51.86583,"longitude":4.66111},{"name":"Aldeboarn","countryCode":"NL","stateCode":"FR","latitude":53.05,"longitude":5.9},{"name":"Aldlân-Oost","countryCode":"NL","stateCode":"FR","latitude":53.1886,"longitude":5.82825},{"name":"Alkmaar","countryCode":"NL","stateCode":"NH","latitude":52.63167,"longitude":4.74861},{"name":"Almelo","countryCode":"NL","stateCode":"OV","latitude":52.35667,"longitude":6.6625},{"name":"Almere Stad","countryCode":"NL","stateCode":"FL","latitude":52.37025,"longitude":5.21413},{"name":"Almkerk","countryCode":"NL","stateCode":"NB","latitude":51.77083,"longitude":4.95972},{"name":"Alphen","countryCode":"NL","stateCode":"NB","latitude":51.48167,"longitude":4.95833},{"name":"Alphen aan den Rijn","countryCode":"NL","stateCode":"ZH","latitude":52.12917,"longitude":4.65546},{"name":"Alverna","countryCode":"NL","stateCode":"GE","latitude":51.80417,"longitude":5.75972},{"name":"Amby","countryCode":"NL","stateCode":"LI","latitude":50.86215,"longitude":5.73226},{"name":"America","countryCode":"NL","stateCode":"LI","latitude":51.43667,"longitude":5.97917},{"name":"Amerongen","countryCode":"NL","stateCode":"UT","latitude":52.0025,"longitude":5.45972},{"name":"Amersfoort","countryCode":"NL","stateCode":"UT","latitude":52.155,"longitude":5.3875},{"name":"Ammerstol","countryCode":"NL","stateCode":"ZH","latitude":51.9275,"longitude":4.80833},{"name":"Ammerzoden","countryCode":"NL","stateCode":"GE","latitude":51.74917,"longitude":5.22083},{"name":"Amstelveen","countryCode":"NL","stateCode":"NH","latitude":52.30083,"longitude":4.86389},{"name":"Amstenrade","countryCode":"NL","stateCode":"LI","latitude":50.93917,"longitude":5.92361},{"name":"Amsterdam","countryCode":"NL","stateCode":"NH","latitude":52.37403,"longitude":4.88969},{"name":"Amsterdam-Zuidoost","countryCode":"NL","stateCode":"NH","latitude":52.3075,"longitude":4.97222},{"name":"Andel","countryCode":"NL","stateCode":"NB","latitude":51.78333,"longitude":5.05833},{"name":"Andelst","countryCode":"NL","stateCode":"GE","latitude":51.90833,"longitude":5.72917},{"name":"Angelslo","countryCode":"NL","stateCode":"DR","latitude":52.7809,"longitude":6.92645},{"name":"Angeren","countryCode":"NL","stateCode":"GE","latitude":51.91583,"longitude":5.95833},{"name":"Angerlo","countryCode":"NL","stateCode":"GE","latitude":51.99583,"longitude":6.13472},{"name":"Ankeveense Rade","countryCode":"NL","stateCode":"NH","latitude":52.25891,"longitude":5.1016},{"name":"Anklaar","countryCode":"NL","stateCode":"GE","latitude":52.23111,"longitude":5.98497},{"name":"Annen","countryCode":"NL","stateCode":"DR","latitude":53.0575,"longitude":6.71944},{"name":"Apeldoorn","countryCode":"NL","stateCode":"GE","latitude":52.21,"longitude":5.96944},{"name":"Appelscha","countryCode":"NL","stateCode":"FR","latitude":52.95526,"longitude":6.35053},{"name":"Appingedam","countryCode":"NL","stateCode":"GR","latitude":53.32167,"longitude":6.85833},{"name":"Arcen","countryCode":"NL","stateCode":"LI","latitude":51.47667,"longitude":6.18056},{"name":"Arkel","countryCode":"NL","stateCode":"ZH","latitude":51.86417,"longitude":4.99444},{"name":"Arnemuiden","countryCode":"NL","stateCode":"ZE","latitude":51.50167,"longitude":3.675},{"name":"Arnhem","countryCode":"NL","stateCode":"GE","latitude":51.98,"longitude":5.91111},{"name":"Assen","countryCode":"NL","stateCode":"DR","latitude":52.99667,"longitude":6.5625},{"name":"Asten","countryCode":"NL","stateCode":"NB","latitude":51.40417,"longitude":5.74861},{"name":"Augustinusga","countryCode":"NL","stateCode":"FR","latitude":53.21785,"longitude":6.1617},{"name":"Austerlitz","countryCode":"NL","stateCode":"UT","latitude":52.08,"longitude":5.31528},{"name":"Avenhorn","countryCode":"NL","stateCode":"NH","latitude":52.6175,"longitude":4.95139},{"name":"Axel","countryCode":"NL","stateCode":"ZE","latitude":51.26667,"longitude":3.90833},{"name":"Baalder","countryCode":"NL","stateCode":"OV","latitude":52.58579,"longitude":6.65299},{"name":"Baambrugge","countryCode":"NL","stateCode":"UT","latitude":52.24583,"longitude":4.98889},{"name":"Baardwijk","countryCode":"NL","stateCode":"NB","latitude":51.69246,"longitude":5.09628},{"name":"Baarle-Nassau","countryCode":"NL","stateCode":"NB","latitude":51.4475,"longitude":4.92917},{"name":"Baarlo","countryCode":"NL","stateCode":"LI","latitude":51.33083,"longitude":6.09444},{"name":"Baarn","countryCode":"NL","stateCode":"UT","latitude":52.21167,"longitude":5.2875},{"name":"Babberich","countryCode":"NL","stateCode":"GE","latitude":51.9075,"longitude":6.11111},{"name":"Baflo","countryCode":"NL","stateCode":"GR","latitude":53.3625,"longitude":6.51389},{"name":"Bakel","countryCode":"NL","stateCode":"NB","latitude":51.50333,"longitude":5.74028},{"name":"Bakenberg","countryCode":"NL","stateCode":"GE","latitude":52.00511,"longitude":5.8771},{"name":"Bakhuizen","countryCode":"NL","stateCode":"FR","latitude":52.86975,"longitude":5.45926},{"name":"Bakkeveen","countryCode":"NL","stateCode":"FR","latitude":53.08072,"longitude":6.25671},{"name":"Balk","countryCode":"NL","stateCode":"FR","latitude":52.89756,"longitude":5.57964},{"name":"Ballast","countryCode":"NL","stateCode":"DR","latitude":52.67218,"longitude":6.73299},{"name":"Bangert","countryCode":"NL","stateCode":"NH","latitude":52.73582,"longitude":5.1801},{"name":"Banholt","countryCode":"NL","stateCode":"LI","latitude":50.79,"longitude":5.80833},{"name":"Barendrecht","countryCode":"NL","stateCode":"ZH","latitude":51.85667,"longitude":4.53472},{"name":"Barger-Oosterveld","countryCode":"NL","stateCode":"DR","latitude":52.77,"longitude":6.95833},{"name":"Bargeres","countryCode":"NL","stateCode":"DR","latitude":52.76152,"longitude":6.88145},{"name":"Barneveld","countryCode":"NL","stateCode":"GE","latitude":52.14,"longitude":5.58472},{"name":"Bavel","countryCode":"NL","stateCode":"NB","latitude":51.56583,"longitude":4.83056},{"name":"Bedum","countryCode":"NL","stateCode":"GR","latitude":53.30083,"longitude":6.60278},{"name":"Beegden","countryCode":"NL","stateCode":"LI","latitude":51.18917,"longitude":5.91944},{"name":"Beek","countryCode":"NL","stateCode":"LI","latitude":50.94083,"longitude":5.79722},{"name":"Beek","countryCode":"NL","stateCode":"NB","latitude":51.5289,"longitude":5.63382},{"name":"Beek gem Montferland","countryCode":"NL","stateCode":"GE","latitude":51.90667,"longitude":6.1875},{"name":"Beekbergen","countryCode":"NL","stateCode":"GE","latitude":52.16,"longitude":5.96389},{"name":"Beers","countryCode":"NL","stateCode":"NB","latitude":51.72583,"longitude":5.82778},{"name":"Beersdal","countryCode":"NL","stateCode":"LI","latitude":50.90597,"longitude":5.9644},{"name":"Beesd","countryCode":"NL","stateCode":"GE","latitude":51.8875,"longitude":5.19167},{"name":"Beesel","countryCode":"NL","stateCode":"LI","latitude":51.26833,"longitude":6.03889},{"name":"Beetsterzwaag","countryCode":"NL","stateCode":"FR","latitude":53.05914,"longitude":6.07711},{"name":"Beilen","countryCode":"NL","stateCode":"DR","latitude":52.86333,"longitude":6.51389},{"name":"Belcrum","countryCode":"NL","stateCode":"NB","latitude":51.59911,"longitude":4.76994},{"name":"Belfort","countryCode":"NL","stateCode":"LI","latitude":50.84698,"longitude":5.65991},{"name":"Bellingwolde","countryCode":"NL","stateCode":"GR","latitude":53.11583,"longitude":7.16528},{"name":"Beltrum","countryCode":"NL","stateCode":"GE","latitude":52.06667,"longitude":6.56389},{"name":"Bemmel","countryCode":"NL","stateCode":"GE","latitude":51.89167,"longitude":5.89861},{"name":"Bennebroek","countryCode":"NL","stateCode":"NH","latitude":52.32083,"longitude":4.59861},{"name":"Bennekom","countryCode":"NL","stateCode":"GE","latitude":51.99833,"longitude":5.67639},{"name":"Benthuizen","countryCode":"NL","stateCode":"ZH","latitude":52.0775,"longitude":4.54444},{"name":"Berg","countryCode":"NL","stateCode":"LI","latitude":50.86167,"longitude":5.78333},{"name":"Berg en Bos","countryCode":"NL","stateCode":"GE","latitude":52.22009,"longitude":5.9334},{"name":"Berg en Dal","countryCode":"NL","stateCode":"GE","latitude":51.82167,"longitude":5.91667},{"name":"Bergeijk","countryCode":"NL","stateCode":"NB","latitude":51.30182,"longitude":5.33946},{"name":"Bergen op Zoom","countryCode":"NL","stateCode":"NB","latitude":51.495,"longitude":4.29167},{"name":"Bergharen","countryCode":"NL","stateCode":"GE","latitude":51.85083,"longitude":5.66944},{"name":"Berghem","countryCode":"NL","stateCode":"NB","latitude":51.76991,"longitude":5.56827},{"name":"Bergschenhoek","countryCode":"NL","stateCode":"ZH","latitude":51.99,"longitude":4.49861},{"name":"Bergstoep","countryCode":"NL","stateCode":"ZH","latitude":51.9225,"longitude":4.78472},{"name":"Beringe","countryCode":"NL","stateCode":"LI","latitude":51.33667,"longitude":5.94861},{"name":"Berkel en Rodenrijs","countryCode":"NL","stateCode":"ZH","latitude":51.99313,"longitude":4.47865},{"name":"Berkelland","countryCode":"NL","stateCode":"GE","latitude":52.10606,"longitude":6.56748},{"name":"Berkenwoude","countryCode":"NL","stateCode":"ZH","latitude":51.945,"longitude":4.70694},{"name":"Berkhout","countryCode":"NL","stateCode":"NH","latitude":52.64083,"longitude":5.00139},{"name":"Berkum","countryCode":"NL","stateCode":"OV","latitude":52.52395,"longitude":6.13655},{"name":"Berlicum","countryCode":"NL","stateCode":"NB","latitude":51.6775,"longitude":5.4},{"name":"Berltsum","countryCode":"NL","stateCode":"FR","latitude":53.2437,"longitude":5.65101},{"name":"Besoijen","countryCode":"NL","stateCode":"NB","latitude":51.68333,"longitude":5.05},{"name":"Best","countryCode":"NL","stateCode":"NB","latitude":51.5075,"longitude":5.39028},{"name":"Besterd","countryCode":"NL","stateCode":"NB","latitude":51.5638,"longitude":5.08658},{"name":"Beuningen","countryCode":"NL","stateCode":"GE","latitude":51.86083,"longitude":5.76667},{"name":"Beusichem","countryCode":"NL","stateCode":"GE","latitude":51.95,"longitude":5.29167},{"name":"Beverwijk","countryCode":"NL","stateCode":"NH","latitude":52.48333,"longitude":4.65694},{"name":"Biddinghuizen","countryCode":"NL","stateCode":"FL","latitude":52.455,"longitude":5.69306},{"name":"Biesdonk","countryCode":"NL","stateCode":"NB","latitude":51.60613,"longitude":4.78515},{"name":"Biesland","countryCode":"NL","stateCode":"LI","latitude":50.8411,"longitude":5.67573},{"name":"Bijvanck","countryCode":"NL","stateCode":"NH","latitude":52.28585,"longitude":5.26534},{"name":"Bilgaard","countryCode":"NL","stateCode":"FR","latitude":53.21551,"longitude":5.79574},{"name":"Binnenhof","countryCode":"NL","stateCode":"ZH","latitude":52.16418,"longitude":4.53644},{"name":"Binnenstad","countryCode":"NL","stateCode":"GE","latitude":52.21304,"longitude":5.95957},{"name":"Bitswijk","countryCode":"NL","stateCode":"NB","latitude":51.6687,"longitude":5.60921},{"name":"Blaarthem","countryCode":"NL","stateCode":"NB","latitude":51.42501,"longitude":5.45784},{"name":"Bladel","countryCode":"NL","stateCode":"NB","latitude":51.36833,"longitude":5.22083},{"name":"Blaricum","countryCode":"NL","stateCode":"NH","latitude":52.2725,"longitude":5.24167},{"name":"Bleijerheide","countryCode":"NL","stateCode":"LI","latitude":50.85538,"longitude":6.06789},{"name":"Bleiswijk","countryCode":"NL","stateCode":"ZH","latitude":52.01083,"longitude":4.53194},{"name":"Bleskensgraaf","countryCode":"NL","stateCode":"ZH","latitude":51.8725,"longitude":4.78333},{"name":"Blijham","countryCode":"NL","stateCode":"GR","latitude":53.10917,"longitude":7.07639},{"name":"Blitterswijck","countryCode":"NL","stateCode":"LI","latitude":51.53083,"longitude":6.10833},{"name":"Bloemendaal","countryCode":"NL","stateCode":"NH","latitude":52.4025,"longitude":4.62222},{"name":"Bloemendaal","countryCode":"NL","stateCode":"ZH","latitude":52.02878,"longitude":4.6944},{"name":"Bloemhof","countryCode":"NL","stateCode":"ZH","latitude":51.89723,"longitude":4.49943},{"name":"Blokzijl","countryCode":"NL","stateCode":"OV","latitude":52.72667,"longitude":5.96111},{"name":"Bocholtz","countryCode":"NL","stateCode":"LI","latitude":50.81833,"longitude":6.00556},{"name":"Bodegraven","countryCode":"NL","stateCode":"ZH","latitude":52.0825,"longitude":4.75},{"name":"Bodegraven-Reeuwijk","countryCode":"NL","stateCode":"ZH","latitude":52.06541,"longitude":4.76634},{"name":"Boekel","countryCode":"NL","stateCode":"NB","latitude":51.60333,"longitude":5.675},{"name":"Bolnes","countryCode":"NL","stateCode":"ZH","latitude":51.895,"longitude":4.57917},{"name":"Bolsward","countryCode":"NL","stateCode":"FR","latitude":53.06555,"longitude":5.53176},{"name":"Boornbergum","countryCode":"NL","stateCode":"FR","latitude":53.08284,"longitude":6.04578},{"name":"Borculo","countryCode":"NL","stateCode":"GE","latitude":52.11583,"longitude":6.52222},{"name":"Borgele","countryCode":"NL","stateCode":"OV","latitude":52.2763,"longitude":6.14926},{"name":"Borger","countryCode":"NL","stateCode":"DR","latitude":52.92333,"longitude":6.79306},{"name":"Borgharen","countryCode":"NL","stateCode":"LI","latitude":50.8775,"longitude":5.6875},{"name":"Born","countryCode":"NL","stateCode":"LI","latitude":51.03167,"longitude":5.80972},{"name":"Borne","countryCode":"NL","stateCode":"OV","latitude":52.30136,"longitude":6.7482},{"name":"Borssele","countryCode":"NL","stateCode":"ZE","latitude":51.42333,"longitude":3.73472},{"name":"Bosch en Duin","countryCode":"NL","stateCode":"UT","latitude":52.11667,"longitude":5.24167},{"name":"Boskamp","countryCode":"NL","stateCode":"OV","latitude":52.33083,"longitude":6.12778},{"name":"Boskoop","countryCode":"NL","stateCode":"ZH","latitude":52.075,"longitude":4.65556},{"name":"Bosschenhoofd","countryCode":"NL","stateCode":"NB","latitude":51.56083,"longitude":4.54028},{"name":"Boven-Hardinxveld","countryCode":"NL","stateCode":"ZH","latitude":51.82333,"longitude":4.88194},{"name":"Boxmeer","countryCode":"NL","stateCode":"NB","latitude":51.64667,"longitude":5.94722},{"name":"Boxtel","countryCode":"NL","stateCode":"NB","latitude":51.59083,"longitude":5.32917},{"name":"Brabander","countryCode":"NL","stateCode":"LI","latitude":51.53583,"longitude":5.96806},{"name":"Brachterbeek","countryCode":"NL","stateCode":"LI","latitude":51.14694,"longitude":5.90446},{"name":"Brakel","countryCode":"NL","stateCode":"GE","latitude":51.8175,"longitude":5.09028},{"name":"Brakkenstein","countryCode":"NL","stateCode":"GE","latitude":51.81324,"longitude":5.86539},{"name":"Brand","countryCode":"NL","stateCode":"NB","latitude":51.45839,"longitude":5.62427},{"name":"Breda","countryCode":"NL","stateCode":"NB","latitude":51.58656,"longitude":4.77596},{"name":"Bredevoort","countryCode":"NL","stateCode":"GE","latitude":51.94167,"longitude":6.62083},{"name":"Bredeweg","countryCode":"NL","stateCode":"GE","latitude":51.76019,"longitude":5.94189},{"name":"Breezand","countryCode":"NL","stateCode":"NH","latitude":52.89,"longitude":4.80417},{"name":"Breskens","countryCode":"NL","stateCode":"ZE","latitude":51.39583,"longitude":3.55556},{"name":"Breugel","countryCode":"NL","stateCode":"NB","latitude":51.5175,"longitude":5.51111},{"name":"Breukelen","countryCode":"NL","stateCode":"UT","latitude":52.17417,"longitude":5.00139},{"name":"Brielle","countryCode":"NL","stateCode":"ZH","latitude":51.90167,"longitude":4.1625},{"name":"Brinkhorst","countryCode":"NL","stateCode":"GE","latitude":52.21302,"longitude":5.95167},{"name":"Broek in Waterland","countryCode":"NL","stateCode":"NH","latitude":52.43417,"longitude":4.99583},{"name":"Broek op Langedijk","countryCode":"NL","stateCode":"NH","latitude":52.67417,"longitude":4.80556},{"name":"Broekhem","countryCode":"NL","stateCode":"LI","latitude":50.87119,"longitude":5.82069},{"name":"Broekhoven","countryCode":"NL","stateCode":"NB","latitude":51.54801,"longitude":5.09175},{"name":"Broeksittard","countryCode":"NL","stateCode":"LI","latitude":51.0029,"longitude":5.89511},{"name":"Broeksterwâld","countryCode":"NL","stateCode":"FR","latitude":53.27466,"longitude":5.99648},{"name":"Brouwershaven","countryCode":"NL","stateCode":"ZE","latitude":51.72667,"longitude":3.9125},{"name":"Bruchem","countryCode":"NL","stateCode":"GE","latitude":51.78667,"longitude":5.23611},{"name":"Bruinisse","countryCode":"NL","stateCode":"ZE","latitude":51.66167,"longitude":4.09444},{"name":"Brukske","countryCode":"NL","stateCode":"LI","latitude":51.52101,"longitude":5.9927},{"name":"Brummelhof","countryCode":"NL","stateCode":"GE","latitude":52.20503,"longitude":5.96789},{"name":"Brummen","countryCode":"NL","stateCode":"GE","latitude":52.09,"longitude":6.15556},{"name":"Brunnepe","countryCode":"NL","stateCode":"OV","latitude":52.56185,"longitude":5.90343},{"name":"Brunssum","countryCode":"NL","stateCode":"LI","latitude":50.94667,"longitude":5.97083},{"name":"Buchten","countryCode":"NL","stateCode":"LI","latitude":51.04333,"longitude":5.80972},{"name":"Budel","countryCode":"NL","stateCode":"NB","latitude":51.27167,"longitude":5.575},{"name":"Budel-Dorplein","countryCode":"NL","stateCode":"NB","latitude":51.23667,"longitude":5.5875},{"name":"Budel-Schoot","countryCode":"NL","stateCode":"NB","latitude":51.2475,"longitude":5.56528},{"name":"Budschop","countryCode":"NL","stateCode":"LI","latitude":51.28511,"longitude":5.75898},{"name":"Buitenpost","countryCode":"NL","stateCode":"FR","latitude":53.25166,"longitude":6.14483},{"name":"Bunde","countryCode":"NL","stateCode":"LI","latitude":50.89667,"longitude":5.73194},{"name":"Bunnik","countryCode":"NL","stateCode":"UT","latitude":52.06667,"longitude":5.19861},{"name":"Bunschoten","countryCode":"NL","stateCode":"UT","latitude":52.24304,"longitude":5.37884},{"name":"Burdaard","countryCode":"NL","stateCode":"FR","latitude":53.29421,"longitude":5.87897},{"name":"Burgemeesterswijk","countryCode":"NL","stateCode":"GE","latitude":51.98943,"longitude":5.89597},{"name":"Burgum","countryCode":"NL","stateCode":"FR","latitude":53.19243,"longitude":5.99009},{"name":"Bussum","countryCode":"NL","stateCode":"NH","latitude":52.27333,"longitude":5.16111},{"name":"Callantsoog","countryCode":"NL","stateCode":"NH","latitude":52.84,"longitude":4.69583},{"name":"Camminghaburen","countryCode":"NL","stateCode":"FR","latitude":53.20973,"longitude":5.84318},{"name":"Capelle aan den IJssel","countryCode":"NL","stateCode":"ZH","latitude":51.92917,"longitude":4.57778},{"name":"Capelle-West","countryCode":"NL","stateCode":"ZH","latitude":51.91667,"longitude":4.56667},{"name":"Carnisse","countryCode":"NL","stateCode":"ZH","latitude":51.88932,"longitude":4.47758},{"name":"Castricum","countryCode":"NL","stateCode":"NH","latitude":52.54833,"longitude":4.66944},{"name":"Chaam","countryCode":"NL","stateCode":"NB","latitude":51.50583,"longitude":4.86111},{"name":"Chevremont","countryCode":"NL","stateCode":"LI","latitude":50.87554,"longitude":6.05981},{"name":"Coendersborg","countryCode":"NL","stateCode":"GR","latitude":53.1941,"longitude":6.58944},{"name":"Coevering","countryCode":"NL","stateCode":"NB","latitude":51.41742,"longitude":5.57463},{"name":"Coevorden","countryCode":"NL","stateCode":"DR","latitude":52.66103,"longitude":6.74046},{"name":"Colijnsplaat","countryCode":"NL","stateCode":"ZE","latitude":51.59917,"longitude":3.84861},{"name":"Commandeurs","countryCode":"NL","stateCode":"NH","latitude":52.50902,"longitude":4.65843},{"name":"Componistenkwartier","countryCode":"NL","stateCode":"GE","latitude":52.18977,"longitude":5.96609},{"name":"Corlaer","countryCode":"NL","stateCode":"GE","latitude":52.21639,"longitude":5.46535},{"name":"Cothen","countryCode":"NL","stateCode":"UT","latitude":51.99667,"longitude":5.30833},{"name":"Cranendonck","countryCode":"NL","stateCode":"NB","latitude":51.30417,"longitude":5.58889},{"name":"Cuijk","countryCode":"NL","stateCode":"NB","latitude":51.73083,"longitude":5.87917},{"name":"Culemborg","countryCode":"NL","stateCode":"GE","latitude":51.955,"longitude":5.22778},{"name":"Dalen","countryCode":"NL","stateCode":"DR","latitude":52.69917,"longitude":6.75556},{"name":"Dalfsen","countryCode":"NL","stateCode":"OV","latitude":52.51167,"longitude":6.25694},{"name":"Damwâld","countryCode":"NL","stateCode":"FR","latitude":53.29046,"longitude":5.99785},{"name":"Dauwendaele","countryCode":"NL","stateCode":"ZE","latitude":51.49299,"longitude":3.62624},{"name":"De Bilt","countryCode":"NL","stateCode":"UT","latitude":52.11,"longitude":5.18056},{"name":"De Blaak","countryCode":"NL","stateCode":"NB","latitude":51.54626,"longitude":5.04465},{"name":"De Bouwhof","countryCode":"NL","stateCode":"GE","latitude":52.18546,"longitude":5.94704},{"name":"De Domp","countryCode":"NL","stateCode":"FR","latitude":53.03113,"longitude":5.67716},{"name":"De Doornakkers","countryCode":"NL","stateCode":"NB","latitude":51.43844,"longitude":5.50887},{"name":"De Drait","countryCode":"NL","stateCode":"FR","latitude":53.09743,"longitude":6.06791},{"name":"De Fryske Marren","countryCode":"NL","stateCode":"FR","latitude":52.96906,"longitude":5.77246},{"name":"De Glip","countryCode":"NL","stateCode":"NH","latitude":52.33083,"longitude":4.61111},{"name":"De Goorn","countryCode":"NL","stateCode":"NH","latitude":52.62583,"longitude":4.94722},{"name":"De Greiden","countryCode":"NL","stateCode":"FR","latitude":52.9496,"longitude":5.91366},{"name":"De Hagen","countryCode":"NL","stateCode":"UT","latitude":51.99381,"longitude":5.10263},{"name":"De Haven","countryCode":"NL","stateCode":"GE","latitude":52.21045,"longitude":5.97407},{"name":"De Heeg","countryCode":"NL","stateCode":"LI","latitude":50.82454,"longitude":5.72309},{"name":"De Heeze","countryCode":"NL","stateCode":"GE","latitude":52.20061,"longitude":5.95365},{"name":"De Hoven","countryCode":"NL","stateCode":"OV","latitude":52.24901,"longitude":6.14367},{"name":"De Kieviet","countryCode":"NL","stateCode":"ZH","latitude":52.12333,"longitude":4.35839},{"name":"De Knipe","countryCode":"NL","stateCode":"FR","latitude":52.96829,"longitude":5.97116},{"name":"De Koog","countryCode":"NL","stateCode":"NH","latitude":53.0975,"longitude":4.76111},{"name":"De Kruiskamp","countryCode":"NL","stateCode":"NB","latitude":51.69978,"longitude":5.26032},{"name":"De Lier","countryCode":"NL","stateCode":"ZH","latitude":51.975,"longitude":4.24861},{"name":"De Loo","countryCode":"NL","stateCode":"DR","latitude":52.67167,"longitude":6.73967},{"name":"De Maer","countryCode":"NL","stateCode":"NH","latitude":52.51901,"longitude":4.68171},{"name":"De Mheen","countryCode":"NL","stateCode":"GE","latitude":52.21954,"longitude":5.99141},{"name":"De Noord","countryCode":"NL","stateCode":"NH","latitude":52.7075,"longitude":4.85139},{"name":"De Peulen","countryCode":"NL","stateCode":"ZH","latitude":51.82362,"longitude":4.82165},{"name":"De Reit","countryCode":"NL","stateCode":"NB","latitude":51.56038,"longitude":5.04932},{"name":"De Rijp","countryCode":"NL","stateCode":"NH","latitude":52.55667,"longitude":4.84583},{"name":"De Rompert","countryCode":"NL","stateCode":"NB","latitude":51.71667,"longitude":5.31667},{"name":"De Uithof","countryCode":"NL","stateCode":"UT","latitude":52.08526,"longitude":5.17456},{"name":"De Westereen","countryCode":"NL","stateCode":"FR","latitude":53.25731,"longitude":6.0363},{"name":"De Wijert","countryCode":"NL","stateCode":"GR","latitude":53.1945,"longitude":6.57117},{"name":"De Wijk","countryCode":"NL","stateCode":"DR","latitude":52.67333,"longitude":6.29028},{"name":"Deest","countryCode":"NL","stateCode":"GE","latitude":51.89,"longitude":5.66667},{"name":"Deil","countryCode":"NL","stateCode":"GE","latitude":51.88417,"longitude":5.24306},{"name":"Delden","countryCode":"NL","stateCode":"OV","latitude":52.26,"longitude":6.71111},{"name":"Delfshaven","countryCode":"NL","stateCode":"ZH","latitude":51.90488,"longitude":4.45315},{"name":"Delft","countryCode":"NL","stateCode":"ZH","latitude":52.00667,"longitude":4.35556},{"name":"Delfzijl","countryCode":"NL","stateCode":"GR","latitude":53.33,"longitude":6.91806},{"name":"Den Burg","countryCode":"NL","stateCode":"NH","latitude":53.05417,"longitude":4.79722},{"name":"Den Dungen","countryCode":"NL","stateCode":"NB","latitude":51.665,"longitude":5.37222},{"name":"Den Ham","countryCode":"NL","stateCode":"OV","latitude":52.46583,"longitude":6.49583},{"name":"Den Helder","countryCode":"NL","stateCode":"NH","latitude":52.95988,"longitude":4.75933},{"name":"Den Oever","countryCode":"NL","stateCode":"NH","latitude":52.93353,"longitude":5.03079},{"name":"Deuteren","countryCode":"NL","stateCode":"NB","latitude":51.68667,"longitude":5.26667},{"name":"Deventer","countryCode":"NL","stateCode":"OV","latitude":52.255,"longitude":6.16389},{"name":"Diemen","countryCode":"NL","stateCode":"NH","latitude":52.33964,"longitude":4.96256},{"name":"Diepenheim","countryCode":"NL","stateCode":"OV","latitude":52.2,"longitude":6.55556},{"name":"Dieren","countryCode":"NL","stateCode":"GE","latitude":52.0525,"longitude":6.1},{"name":"Diessen","countryCode":"NL","stateCode":"NB","latitude":51.47583,"longitude":5.175},{"name":"Diever","countryCode":"NL","stateCode":"DR","latitude":52.85417,"longitude":6.31806},{"name":"Dinteloord","countryCode":"NL","stateCode":"NB","latitude":51.635,"longitude":4.36944},{"name":"Dirkshorn","countryCode":"NL","stateCode":"NH","latitude":52.75,"longitude":4.775},{"name":"Dirksland","countryCode":"NL","stateCode":"ZH","latitude":51.74917,"longitude":4.1},{"name":"Doenrade","countryCode":"NL","stateCode":"LI","latitude":50.9675,"longitude":5.90694},{"name":"Doesburg","countryCode":"NL","stateCode":"GE","latitude":52.0125,"longitude":6.13889},{"name":"Doetinchem","countryCode":"NL","stateCode":"GE","latitude":51.965,"longitude":6.28889},{"name":"Dokkum","countryCode":"NL","stateCode":"FR","latitude":53.32224,"longitude":5.99697},{"name":"Domburg","countryCode":"NL","stateCode":"ZE","latitude":51.56333,"longitude":3.49583},{"name":"Dommelen","countryCode":"NL","stateCode":"NB","latitude":51.34624,"longitude":5.43394},{"name":"Dongen","countryCode":"NL","stateCode":"NB","latitude":51.62667,"longitude":4.93889},{"name":"Donk","countryCode":"NL","stateCode":"NB","latitude":51.53843,"longitude":5.62914},{"name":"Donkerbroek","countryCode":"NL","stateCode":"FR","latitude":53.01734,"longitude":6.23927},{"name":"Doonheide","countryCode":"NL","stateCode":"NB","latitude":51.56667,"longitude":5.69444},{"name":"Doorn","countryCode":"NL","stateCode":"UT","latitude":52.03343,"longitude":5.34571},{"name":"Doornenburg","countryCode":"NL","stateCode":"GE","latitude":51.89,"longitude":6},{"name":"Doornspijk","countryCode":"NL","stateCode":"GE","latitude":52.41833,"longitude":5.81806},{"name":"Doornsteeg","countryCode":"NL","stateCode":"GE","latitude":52.23,"longitude":5.45417},{"name":"Doorwerth","countryCode":"NL","stateCode":"GE","latitude":51.97917,"longitude":5.79722},{"name":"Dordrecht","countryCode":"NL","stateCode":"ZH","latitude":51.81,"longitude":4.67361},{"name":"Dorst","countryCode":"NL","stateCode":"NB","latitude":51.59,"longitude":4.85694},{"name":"Drachten","countryCode":"NL","stateCode":"FR","latitude":53.11254,"longitude":6.0989},{"name":"Drachtstercompagnie","countryCode":"NL","stateCode":"FR","latitude":53.13462,"longitude":6.14153},{"name":"Driebergen-Rijsenburg","countryCode":"NL","stateCode":"UT","latitude":52.05333,"longitude":5.28056},{"name":"Driebruggen","countryCode":"NL","stateCode":"ZH","latitude":52.04417,"longitude":4.8},{"name":"Driehuizen","countryCode":"NL","stateCode":"GE","latitude":52.20879,"longitude":5.94442},{"name":"Driel","countryCode":"NL","stateCode":"GE","latitude":51.95917,"longitude":5.81389},{"name":"Driemanspolder","countryCode":"NL","stateCode":"ZH","latitude":52.05176,"longitude":4.48504},{"name":"Driemond","countryCode":"NL","stateCode":"NH","latitude":52.30583,"longitude":5.01667},{"name":"Drogeham","countryCode":"NL","stateCode":"FR","latitude":53.20213,"longitude":6.11183},{"name":"Dronryp","countryCode":"NL","stateCode":"FR","latitude":53.2,"longitude":5.65},{"name":"Dronten","countryCode":"NL","stateCode":"FL","latitude":52.525,"longitude":5.71806},{"name":"Drumpt","countryCode":"NL","stateCode":"GE","latitude":51.897,"longitude":5.41043},{"name":"Druten","countryCode":"NL","stateCode":"GE","latitude":51.88833,"longitude":5.60556},{"name":"Duindorp","countryCode":"NL","stateCode":"ZH","latitude":52.09078,"longitude":4.26038},{"name":"Duinzigt","countryCode":"NL","stateCode":"ZH","latitude":52.10485,"longitude":4.32494},{"name":"Duiven","countryCode":"NL","stateCode":"GE","latitude":51.94667,"longitude":6.01389},{"name":"Duivendrecht","countryCode":"NL","stateCode":"NH","latitude":52.32941,"longitude":4.93964},{"name":"Duizel","countryCode":"NL","stateCode":"NB","latitude":51.36833,"longitude":5.29722},{"name":"Dwingeloo","countryCode":"NL","stateCode":"DR","latitude":52.83417,"longitude":6.36944},{"name":"Eastermar","countryCode":"NL","stateCode":"FR","latitude":53.17466,"longitude":6.05999},{"name":"Echtenerbrug","countryCode":"NL","stateCode":"FR","latitude":52.87141,"longitude":5.82147},{"name":"Eckart","countryCode":"NL","stateCode":"NB","latitude":51.4732,"longitude":5.49449},{"name":"Edam","countryCode":"NL","stateCode":"NH","latitude":52.51215,"longitude":5.04805},{"name":"Ede","countryCode":"NL","stateCode":"GE","latitude":52.03333,"longitude":5.65833},{"name":"Ederveen","countryCode":"NL","stateCode":"GE","latitude":52.06333,"longitude":5.57778},{"name":"Eefde","countryCode":"NL","stateCode":"GE","latitude":52.16667,"longitude":6.225},{"name":"Eelde","countryCode":"NL","stateCode":"DR","latitude":53.13583,"longitude":6.5625},{"name":"Eenrum","countryCode":"NL","stateCode":"GR","latitude":53.3625,"longitude":6.45833},{"name":"Eerbeek","countryCode":"NL","stateCode":"GE","latitude":52.105,"longitude":6.05833},{"name":"Eerde","countryCode":"NL","stateCode":"NB","latitude":51.60417,"longitude":5.49861},{"name":"Eerschot","countryCode":"NL","stateCode":"NB","latitude":51.56833,"longitude":5.47361},{"name":"Eersel","countryCode":"NL","stateCode":"NB","latitude":51.3575,"longitude":5.31806},{"name":"Eext","countryCode":"NL","stateCode":"DR","latitude":53.0175,"longitude":6.73472},{"name":"Eexta","countryCode":"NL","stateCode":"GR","latitude":53.16386,"longitude":6.98344},{"name":"Egchel","countryCode":"NL","stateCode":"LI","latitude":51.31417,"longitude":5.97222},{"name":"Egmond aan Zee","countryCode":"NL","stateCode":"NH","latitude":52.6204,"longitude":4.62705},{"name":"Egmond-Binnen","countryCode":"NL","stateCode":"NH","latitude":52.59583,"longitude":4.65556},{"name":"Eibergen","countryCode":"NL","stateCode":"GE","latitude":52.1,"longitude":6.64861},{"name":"Eijsden","countryCode":"NL","stateCode":"LI","latitude":50.78,"longitude":5.7177},{"name":"Eijsden-Margraten","countryCode":"NL","stateCode":"LI","latitude":50.8009,"longitude":5.77408},{"name":"Eindhoven","countryCode":"NL","stateCode":"NB","latitude":51.44083,"longitude":5.47778},{"name":"Einighausen","countryCode":"NL","stateCode":"LI","latitude":51.00167,"longitude":5.82778},{"name":"Ekenrooi","countryCode":"NL","stateCode":"NB","latitude":51.39656,"longitude":5.48624},{"name":"Elburg","countryCode":"NL","stateCode":"GE","latitude":52.4475,"longitude":5.84306},{"name":"Elden","countryCode":"NL","stateCode":"GE","latitude":51.95833,"longitude":5.88194},{"name":"Ellecom","countryCode":"NL","stateCode":"GE","latitude":52.0325,"longitude":6.0875},{"name":"Elshout","countryCode":"NL","stateCode":"NB","latitude":51.70083,"longitude":5.14167},{"name":"Elsloo","countryCode":"NL","stateCode":"LI","latitude":50.94917,"longitude":5.77083},{"name":"Elspeet","countryCode":"NL","stateCode":"GE","latitude":52.29167,"longitude":5.78889},{"name":"Elst","countryCode":"NL","stateCode":"GE","latitude":51.91917,"longitude":5.84167},{"name":"Emmeloord","countryCode":"NL","stateCode":"FL","latitude":52.71083,"longitude":5.74861},{"name":"Emmen","countryCode":"NL","stateCode":"DR","latitude":52.77917,"longitude":6.90694},{"name":"Emmer-Compascuum","countryCode":"NL","stateCode":"DR","latitude":52.81167,"longitude":7.04722},{"name":"Emmer-Erfscheidenveen","countryCode":"NL","stateCode":"DR","latitude":52.80667,"longitude":6.98889},{"name":"Emmerhout","countryCode":"NL","stateCode":"DR","latitude":52.78755,"longitude":6.93881},{"name":"Emmermeer","countryCode":"NL","stateCode":"DR","latitude":52.80071,"longitude":6.89315},{"name":"Emmerschans","countryCode":"NL","stateCode":"DR","latitude":52.80083,"longitude":6.93889},{"name":"Emst","countryCode":"NL","stateCode":"GE","latitude":52.31583,"longitude":5.97361},{"name":"Enkhuizen","countryCode":"NL","stateCode":"NH","latitude":52.70333,"longitude":5.29167},{"name":"Ens","countryCode":"NL","stateCode":"FL","latitude":52.63667,"longitude":5.82778},{"name":"Enschede","countryCode":"NL","stateCode":"OV","latitude":52.21833,"longitude":6.89583},{"name":"Enschot","countryCode":"NL","stateCode":"NB","latitude":51.57846,"longitude":5.13885},{"name":"Epe","countryCode":"NL","stateCode":"GE","latitude":52.3475,"longitude":5.98333},{"name":"Epse","countryCode":"NL","stateCode":"GE","latitude":52.225,"longitude":6.2},{"name":"Ermelo","countryCode":"NL","stateCode":"GE","latitude":52.29833,"longitude":5.62222},{"name":"Erp","countryCode":"NL","stateCode":"NB","latitude":51.6,"longitude":5.60694},{"name":"Esch","countryCode":"NL","stateCode":"NB","latitude":51.61083,"longitude":5.29028},{"name":"Essesteijn","countryCode":"NL","stateCode":"ZH","latitude":52.08534,"longitude":4.37263},{"name":"Etten","countryCode":"NL","stateCode":"GE","latitude":51.91667,"longitude":6.33611},{"name":"Exloo","countryCode":"NL","stateCode":"DR","latitude":52.8825,"longitude":6.86389},{"name":"Farmsum","countryCode":"NL","stateCode":"GR","latitude":53.32167,"longitude":6.92639},{"name":"Feanwâlden","countryCode":"NL","stateCode":"FR","latitude":53.23558,"longitude":5.98832},{"name":"Feijenoord","countryCode":"NL","stateCode":"ZH","latitude":51.91169,"longitude":4.50645},{"name":"Ferwert","countryCode":"NL","stateCode":"FR","latitude":53.33784,"longitude":5.82533},{"name":"Fijnaart","countryCode":"NL","stateCode":"NB","latitude":51.6375,"longitude":4.46944},{"name":"Flevowijk","countryCode":"NL","stateCode":"OV","latitude":52.54583,"longitude":5.91338},{"name":"Franeker","countryCode":"NL","stateCode":"FR","latitude":53.18546,"longitude":5.54123},{"name":"Frankhuis","countryCode":"NL","stateCode":"OV","latitude":52.525,"longitude":6.06806},{"name":"Gageldonk","countryCode":"NL","stateCode":"NB","latitude":51.60167,"longitude":4.73889},{"name":"Gameren","countryCode":"NL","stateCode":"GE","latitude":51.80083,"longitude":5.20417},{"name":"Garderen","countryCode":"NL","stateCode":"GE","latitude":52.23083,"longitude":5.71389},{"name":"Garyp","countryCode":"NL","stateCode":"FR","latitude":53.16667,"longitude":5.96667},{"name":"Gasselte","countryCode":"NL","stateCode":"DR","latitude":52.97167,"longitude":6.79444},{"name":"Gasselternijveen","countryCode":"NL","stateCode":"DR","latitude":52.98833,"longitude":6.85278},{"name":"Geenhoven","countryCode":"NL","stateCode":"NB","latitude":51.35935,"longitude":5.46021},{"name":"Geertruidenberg","countryCode":"NL","stateCode":"NB","latitude":51.70167,"longitude":4.85694},{"name":"Geffen","countryCode":"NL","stateCode":"NB","latitude":51.74,"longitude":5.46389},{"name":"Geitenkamp","countryCode":"NL","stateCode":"GE","latitude":52.00379,"longitude":5.93862},{"name":"Geldermalsen","countryCode":"NL","stateCode":"GE","latitude":51.88083,"longitude":5.28889},{"name":"Geldermalsen-West","countryCode":"NL","stateCode":"GE","latitude":51.87968,"longitude":5.28015},{"name":"Geldrop","countryCode":"NL","stateCode":"NB","latitude":51.42167,"longitude":5.55972},{"name":"Geleen","countryCode":"NL","stateCode":"LI","latitude":50.97417,"longitude":5.82917},{"name":"Gemeente  Oldambt","countryCode":"NL","stateCode":"GR","latitude":53.16859,"longitude":7.04224},{"name":"Gemeente 's-Hertogenbosch","countryCode":"NL","stateCode":"NB","latitude":51.68267,"longitude":5.30056},{"name":"Gemeente Aa en Hunze","countryCode":"NL","stateCode":"DR","latitude":53.00445,"longitude":6.74908},{"name":"Gemeente Aalsmeer","countryCode":"NL","stateCode":"NH","latitude":52.26406,"longitude":4.76532},{"name":"Gemeente Aalten","countryCode":"NL","stateCode":"GE","latitude":51.9242,"longitude":6.56574},{"name":"Gemeente Achtkarspelen","countryCode":"NL","stateCode":"FR","latitude":53.21167,"longitude":6.13776},{"name":"Gemeente Alblasserdam","countryCode":"NL","stateCode":"ZH","latitude":51.85985,"longitude":4.66321},{"name":"Gemeente Albrandswaard","countryCode":"NL","stateCode":"ZH","latitude":51.85792,"longitude":4.40833},{"name":"Gemeente Alkmaar","countryCode":"NL","stateCode":"NH","latitude":52.6289,"longitude":4.74403},{"name":"Gemeente Almelo","countryCode":"NL","stateCode":"OV","latitude":52.34463,"longitude":6.65942},{"name":"Gemeente Almere","countryCode":"NL","stateCode":"FL","latitude":52.36861,"longitude":5.2375},{"name":"Gemeente Alphen aan den Rijn","countryCode":"NL","stateCode":"ZH","latitude":52.12974,"longitude":4.68892},{"name":"Gemeente Alphen-Chaam","countryCode":"NL","stateCode":"NB","latitude":51.50341,"longitude":4.88013},{"name":"Gemeente Ameland","countryCode":"NL","stateCode":"FR","latitude":53.45024,"longitude":5.78277},{"name":"Gemeente Amersfoort","countryCode":"NL","stateCode":"UT","latitude":52.17375,"longitude":5.38954},{"name":"Gemeente Amstelveen","countryCode":"NL","stateCode":"NH","latitude":52.2984,"longitude":4.85767},{"name":"Gemeente Amsterdam","countryCode":"NL","stateCode":"NH","latitude":52.37302,"longitude":4.89856},{"name":"Gemeente Apeldoorn","countryCode":"NL","stateCode":"GE","latitude":52.18722,"longitude":5.91969},{"name":"Gemeente Appingedam","countryCode":"NL","stateCode":"GR","latitude":53.31926,"longitude":6.84864},{"name":"Gemeente Arnhem","countryCode":"NL","stateCode":"GE","latitude":52.00113,"longitude":5.89641},{"name":"Gemeente Assen","countryCode":"NL","stateCode":"DR","latitude":52.99635,"longitude":6.55255},{"name":"Gemeente Asten","countryCode":"NL","stateCode":"NB","latitude":51.39231,"longitude":5.7791},{"name":"Gemeente Baarle-Nassau","countryCode":"NL","stateCode":"NB","latitude":51.43544,"longitude":4.9118},{"name":"Gemeente Baarn","countryCode":"NL","stateCode":"UT","latitude":52.20602,"longitude":5.27144},{"name":"Gemeente Barendrecht","countryCode":"NL","stateCode":"ZH","latitude":51.84974,"longitude":4.5254},{"name":"Gemeente Barneveld","countryCode":"NL","stateCode":"GE","latitude":52.1688,"longitude":5.63985},{"name":"Gemeente Beek","countryCode":"NL","stateCode":"LI","latitude":50.93237,"longitude":5.80587},{"name":"Gemeente Beemster","countryCode":"NL","stateCode":"NH","latitude":52.55402,"longitude":4.9181},{"name":"Gemeente Beesel","countryCode":"NL","stateCode":"LI","latitude":51.27016,"longitude":6.06771},{"name":"Gemeente Berg en Dal","countryCode":"NL","stateCode":"GE","latitude":51.78412,"longitude":5.92968},{"name":"Gemeente Bergen","countryCode":"NL","stateCode":"LI","latitude":51.57717,"longitude":6.09014},{"name":"Gemeente Bergen","countryCode":"NL","stateCode":"NH","latitude":52.65783,"longitude":4.6761},{"name":"Gemeente Bergen op Zoom","countryCode":"NL","stateCode":"NB","latitude":51.50451,"longitude":4.29108},{"name":"Gemeente Bernheze","countryCode":"NL","stateCode":"NB","latitude":51.68556,"longitude":5.52378},{"name":"Gemeente Best","countryCode":"NL","stateCode":"NB","latitude":51.5,"longitude":5.38333},{"name":"Gemeente Beuningen","countryCode":"NL","stateCode":"GE","latitude":51.8595,"longitude":5.74362},{"name":"Gemeente Beverwijk","countryCode":"NL","stateCode":"NH","latitude":52.48273,"longitude":4.65468},{"name":"Gemeente Bladel","countryCode":"NL","stateCode":"NB","latitude":51.35,"longitude":5.21667},{"name":"Gemeente Blaricum","countryCode":"NL","stateCode":"NH","latitude":52.28548,"longitude":5.2683},{"name":"Gemeente Bloemendaal","countryCode":"NL","stateCode":"NH","latitude":52.3623,"longitude":4.58968},{"name":"Gemeente Boekel","countryCode":"NL","stateCode":"NB","latitude":51.60489,"longitude":5.69357},{"name":"Gemeente Borger-Odoorn","countryCode":"NL","stateCode":"DR","latitude":52.90501,"longitude":6.88042},{"name":"Gemeente Borne","countryCode":"NL","stateCode":"OV","latitude":52.3112,"longitude":6.74404},{"name":"Gemeente Borsele","countryCode":"NL","stateCode":"ZE","latitude":51.44191,"longitude":3.81127},{"name":"Gemeente Boxmeer","countryCode":"NL","stateCode":"NB","latitude":51.63333,"longitude":5.95},{"name":"Gemeente Boxtel","countryCode":"NL","stateCode":"NB","latitude":51.58472,"longitude":5.32654},{"name":"Gemeente Breda","countryCode":"NL","stateCode":"NB","latitude":51.5779,"longitude":4.76039},{"name":"Gemeente Brielle","countryCode":"NL","stateCode":"ZH","latitude":51.88819,"longitude":4.18481},{"name":"Gemeente Bronckhorst","countryCode":"NL","stateCode":"GE","latitude":52.04401,"longitude":6.30378},{"name":"Gemeente Brummen","countryCode":"NL","stateCode":"GE","latitude":52.11063,"longitude":6.11791},{"name":"Gemeente Brunssum","countryCode":"NL","stateCode":"LI","latitude":50.94451,"longitude":5.97618},{"name":"Gemeente Bunnik","countryCode":"NL","stateCode":"UT","latitude":52.04228,"longitude":5.21664},{"name":"Gemeente Bunschoten","countryCode":"NL","stateCode":"UT","latitude":52.24249,"longitude":5.35837},{"name":"Gemeente Buren","countryCode":"NL","stateCode":"GE","latitude":51.90901,"longitude":5.33403},{"name":"Gemeente Capelle aan den IJssel","countryCode":"NL","stateCode":"ZH","latitude":51.93567,"longitude":4.57819},{"name":"Gemeente Castricum","countryCode":"NL","stateCode":"NH","latitude":52.55577,"longitude":4.68945},{"name":"Gemeente Coevorden","countryCode":"NL","stateCode":"DR","latitude":52.74344,"longitude":6.72487},{"name":"Gemeente Cranendonck","countryCode":"NL","stateCode":"NB","latitude":51.27746,"longitude":5.58373},{"name":"Gemeente Cuijk","countryCode":"NL","stateCode":"NB","latitude":51.71739,"longitude":5.85773},{"name":"Gemeente Culemborg","countryCode":"NL","stateCode":"GE","latitude":51.94465,"longitude":5.20946},{"name":"Gemeente Dalfsen","countryCode":"NL","stateCode":"OV","latitude":52.52461,"longitude":6.27214},{"name":"Gemeente Dantumadiel","countryCode":"NL","stateCode":"FR","latitude":53.29113,"longitude":5.99545},{"name":"Gemeente De Bilt","countryCode":"NL","stateCode":"UT","latitude":52.14137,"longitude":5.16828},{"name":"Gemeente De Ronde Venen","countryCode":"NL","stateCode":"UT","latitude":52.21515,"longitude":4.90123},{"name":"Gemeente De Wolden","countryCode":"NL","stateCode":"DR","latitude":52.70102,"longitude":6.37277},{"name":"Gemeente Delft","countryCode":"NL","stateCode":"ZH","latitude":51.99968,"longitude":4.36405},{"name":"Gemeente Delfzijl","countryCode":"NL","stateCode":"GR","latitude":53.30019,"longitude":6.93129},{"name":"Gemeente Den Haag","countryCode":"NL","stateCode":"ZH","latitude":52.06866,"longitude":4.28635},{"name":"Gemeente Den Helder","countryCode":"NL","stateCode":"NH","latitude":52.92366,"longitude":4.75793},{"name":"Gemeente Deurne","countryCode":"NL","stateCode":"NB","latitude":51.43701,"longitude":5.82245},{"name":"Gemeente Deventer","countryCode":"NL","stateCode":"OV","latitude":52.26927,"longitude":6.23795},{"name":"Gemeente Diemen","countryCode":"NL","stateCode":"NH","latitude":52.34163,"longitude":4.96805},{"name":"Gemeente Dinkelland","countryCode":"NL","stateCode":"OV","latitude":52.37108,"longitude":6.89294},{"name":"Gemeente Doesburg","countryCode":"NL","stateCode":"GE","latitude":52.01935,"longitude":6.14855},{"name":"Gemeente Doetinchem","countryCode":"NL","stateCode":"GE","latitude":51.96216,"longitude":6.27955},{"name":"Gemeente Dongen","countryCode":"NL","stateCode":"NB","latitude":51.63754,"longitude":4.95361},{"name":"Gemeente Dordrecht","countryCode":"NL","stateCode":"ZH","latitude":51.79901,"longitude":4.74159},{"name":"Gemeente Drechterland","countryCode":"NL","stateCode":"NH","latitude":52.66454,"longitude":5.16569},{"name":"Gemeente Drimmelen","countryCode":"NL","stateCode":"NB","latitude":51.66667,"longitude":4.78333},{"name":"Gemeente Dronten","countryCode":"NL","stateCode":"FL","latitude":52.5,"longitude":5.71667},{"name":"Gemeente Druten","countryCode":"NL","stateCode":"GE","latitude":51.87184,"longitude":5.61322},{"name":"Gemeente Duiven","countryCode":"NL","stateCode":"GE","latitude":51.9474,"longitude":6.0172},{"name":"Gemeente Echt-Susteren","countryCode":"NL","stateCode":"LI","latitude":51.1,"longitude":5.86667},{"name":"Gemeente Edam-Volendam","countryCode":"NL","stateCode":"NH","latitude":52.50556,"longitude":5.0592},{"name":"Gemeente Ede","countryCode":"NL","stateCode":"GE","latitude":52.08118,"longitude":5.7449},{"name":"Gemeente Eemnes","countryCode":"NL","stateCode":"UT","latitude":52.25253,"longitude":5.28391},{"name":"Gemeente Eersel","countryCode":"NL","stateCode":"NB","latitude":51.39579,"longitude":5.31956},{"name":"Gemeente Eindhoven","countryCode":"NL","stateCode":"NB","latitude":51.45037,"longitude":5.45279},{"name":"Gemeente Elburg","countryCode":"NL","stateCode":"GE","latitude":52.41487,"longitude":5.84868},{"name":"Gemeente Emmen","countryCode":"NL","stateCode":"DR","latitude":52.75243,"longitude":6.95938},{"name":"Gemeente Enkhuizen","countryCode":"NL","stateCode":"NH","latitude":52.71653,"longitude":5.27615},{"name":"Gemeente Enschede","countryCode":"NL","stateCode":"OV","latitude":52.21909,"longitude":6.88041},{"name":"Gemeente Epe","countryCode":"NL","stateCode":"GE","latitude":52.33394,"longitude":5.96175},{"name":"Gemeente Ermelo","countryCode":"NL","stateCode":"GE","latitude":52.28826,"longitude":5.65538},{"name":"Gemeente Etten-Leur","countryCode":"NL","stateCode":"NB","latitude":51.57711,"longitude":4.64253},{"name":"Gemeente Geertruidenberg","countryCode":"NL","stateCode":"NB","latitude":51.69634,"longitude":4.87836},{"name":"Gemeente Geldrop-Mierlo","countryCode":"NL","stateCode":"NB","latitude":51.43372,"longitude":5.59926},{"name":"Gemeente Gemert-Bakel","countryCode":"NL","stateCode":"NB","latitude":51.52554,"longitude":5.72802},{"name":"Gemeente Gennep","countryCode":"NL","stateCode":"LI","latitude":51.70063,"longitude":5.98447},{"name":"Gemeente Gilze en Rijen","countryCode":"NL","stateCode":"NB","latitude":51.55656,"longitude":4.91253},{"name":"Gemeente Goeree-Overflakkee","countryCode":"NL","stateCode":"ZH","latitude":51.75351,"longitude":4.11264},{"name":"Gemeente Goes","countryCode":"NL","stateCode":"ZE","latitude":51.515,"longitude":3.83949},{"name":"Gemeente Goirle","countryCode":"NL","stateCode":"NB","latitude":51.50875,"longitude":5.03381},{"name":"Gemeente Gorinchem","countryCode":"NL","stateCode":"ZH","latitude":51.83873,"longitude":4.97713},{"name":"Gemeente Gouda","countryCode":"NL","stateCode":"ZH","latitude":52.01917,"longitude":4.7079},{"name":"Gemeente Grave","countryCode":"NL","stateCode":"NB","latitude":51.7397,"longitude":5.74366},{"name":"Gemeente Groningen","countryCode":"NL","stateCode":"GR","latitude":53.22369,"longitude":6.56479},{"name":"Gemeente Haaksbergen","countryCode":"NL","stateCode":"OV","latitude":52.15514,"longitude":6.75404},{"name":"Gemeente Haaren","countryCode":"NL","stateCode":"NB","latitude":51.61831,"longitude":5.22779},{"name":"Gemeente Haarlem","countryCode":"NL","stateCode":"NH","latitude":52.38074,"longitude":4.644},{"name":"Gemeente Haarlemmermeer","countryCode":"NL","stateCode":"NH","latitude":52.30623,"longitude":4.68418},{"name":"Gemeente Halderberge","countryCode":"NL","stateCode":"NB","latitude":51.58925,"longitude":4.50597},{"name":"Gemeente Hardenberg","countryCode":"NL","stateCode":"OV","latitude":52.59312,"longitude":6.53476},{"name":"Gemeente Harderwijk","countryCode":"NL","stateCode":"GE","latitude":52.3454,"longitude":5.63948},{"name":"Gemeente Hardinxveld-Giessendam","countryCode":"NL","stateCode":"ZH","latitude":51.82594,"longitude":4.86428},{"name":"Gemeente Harlingen","countryCode":"NL","stateCode":"FR","latitude":53.17525,"longitude":5.41806},{"name":"Gemeente Hattem","countryCode":"NL","stateCode":"GE","latitude":52.47566,"longitude":6.05195},{"name":"Gemeente Heemskerk","countryCode":"NL","stateCode":"NH","latitude":52.50945,"longitude":4.65386},{"name":"Gemeente Heemstede","countryCode":"NL","stateCode":"NH","latitude":52.34719,"longitude":4.61838},{"name":"Gemeente Heerde","countryCode":"NL","stateCode":"GE","latitude":52.38833,"longitude":6.03889},{"name":"Gemeente Heerenveen","countryCode":"NL","stateCode":"FR","latitude":52.9422,"longitude":6.0441},{"name":"Gemeente Heerhugowaard","countryCode":"NL","stateCode":"NH","latitude":52.6821,"longitude":4.84363},{"name":"Gemeente Heerlen","countryCode":"NL","stateCode":"LI","latitude":50.88777,"longitude":5.97407},{"name":"Gemeente Heeze-Leende","countryCode":"NL","stateCode":"NB","latitude":51.36404,"longitude":5.5587},{"name":"Gemeente Heiloo","countryCode":"NL","stateCode":"NH","latitude":52.60122,"longitude":4.70945},{"name":"Gemeente Hellendoorn","countryCode":"NL","stateCode":"OV","latitude":52.39022,"longitude":6.46434},{"name":"Gemeente Hellevoetsluis","countryCode":"NL","stateCode":"ZH","latitude":51.83333,"longitude":4.13333},{"name":"Gemeente Helmond","countryCode":"NL","stateCode":"NB","latitude":51.47968,"longitude":5.65559},{"name":"Gemeente Hendrik-Ido-Ambacht","countryCode":"NL","stateCode":"ZH","latitude":51.84273,"longitude":4.63975},{"name":"Gemeente Hengelo","countryCode":"NL","stateCode":"OV","latitude":52.2591,"longitude":6.77876},{"name":"Gemeente Heumen","countryCode":"NL","stateCode":"GE","latitude":51.77438,"longitude":5.81312},{"name":"Gemeente Heusden","countryCode":"NL","stateCode":"NB","latitude":51.69975,"longitude":5.16598},{"name":"Gemeente Hillegom","countryCode":"NL","stateCode":"ZH","latitude":52.29616,"longitude":4.57822},{"name":"Gemeente Hilvarenbeek","countryCode":"NL","stateCode":"NB","latitude":51.47772,"longitude":5.14778},{"name":"Gemeente Hilversum","countryCode":"NL","stateCode":"NH","latitude":52.22252,"longitude":5.16789},{"name":"Gemeente Hof van Twente","countryCode":"NL","stateCode":"OV","latitude":52.24341,"longitude":6.59749},{"name":"Gemeente Hollands Kroon","countryCode":"NL","stateCode":"NH","latitude":52.84882,"longitude":4.90711},{"name":"Gemeente Hoogeveen","countryCode":"NL","stateCode":"DR","latitude":52.7182,"longitude":6.51803},{"name":"Gemeente Hoorn","countryCode":"NL","stateCode":"NH","latitude":52.64312,"longitude":5.05779},{"name":"Gemeente Horst aan de Maas","countryCode":"NL","stateCode":"LI","latitude":51.45931,"longitude":6.10254},{"name":"Gemeente Houten","countryCode":"NL","stateCode":"UT","latitude":52.02683,"longitude":5.16941},{"name":"Gemeente Huizen","countryCode":"NL","stateCode":"NH","latitude":52.29664,"longitude":5.24132},{"name":"Gemeente Hulst","countryCode":"NL","stateCode":"ZE","latitude":51.31897,"longitude":4.0869},{"name":"Gemeente IJsselstein","countryCode":"NL","stateCode":"UT","latitude":52.02912,"longitude":5.02868},{"name":"Gemeente Kaag en Braassem","countryCode":"NL","stateCode":"ZH","latitude":52.19393,"longitude":4.65516},{"name":"Gemeente Kampen","countryCode":"NL","stateCode":"OV","latitude":52.56181,"longitude":5.91535},{"name":"Gemeente Kapelle","countryCode":"NL","stateCode":"ZE","latitude":51.48223,"longitude":3.96524},{"name":"Gemeente Katwijk","countryCode":"NL","stateCode":"ZH","latitude":52.19029,"longitude":4.42129},{"name":"Gemeente Kerkrade","countryCode":"NL","stateCode":"LI","latitude":50.87337,"longitude":6.04876},{"name":"Gemeente Koggenland","countryCode":"NL","stateCode":"NH","latitude":52.64163,"longitude":4.94909},{"name":"Gemeente Krimpen aan den IJssel","countryCode":"NL","stateCode":"ZH","latitude":51.91458,"longitude":4.58819},{"name":"Gemeente Laarbeek","countryCode":"NL","stateCode":"NB","latitude":51.52643,"longitude":5.61283},{"name":"Gemeente Landerd","countryCode":"NL","stateCode":"NB","latitude":51.71151,"longitude":5.6658},{"name":"Gemeente Landsmeer","countryCode":"NL","stateCode":"NH","latitude":52.431,"longitude":4.9157},{"name":"Gemeente Langedijk","countryCode":"NL","stateCode":"NH","latitude":52.69151,"longitude":4.78659},{"name":"Gemeente Lansingerland","countryCode":"NL","stateCode":"ZH","latitude":52.00389,"longitude":4.51088},{"name":"Gemeente Laren","countryCode":"NL","stateCode":"NH","latitude":52.24518,"longitude":5.21701},{"name":"Gemeente Leeuwarden","countryCode":"NL","stateCode":"FR","latitude":53.18602,"longitude":5.81111},{"name":"Gemeente Leiden","countryCode":"NL","stateCode":"ZH","latitude":52.15274,"longitude":4.4836},{"name":"Gemeente Leiderdorp","countryCode":"NL","stateCode":"ZH","latitude":52.15707,"longitude":4.54318},{"name":"Gemeente Leidschendam-Voorburg","countryCode":"NL","stateCode":"ZH","latitude":52.07833,"longitude":4.40139},{"name":"Gemeente Lelystad","countryCode":"NL","stateCode":"FL","latitude":52.47542,"longitude":5.43811},{"name":"Gemeente Leudal","countryCode":"NL","stateCode":"LI","latitude":51.24371,"longitude":5.89815},{"name":"Gemeente Leusden","countryCode":"NL","stateCode":"UT","latitude":52.12418,"longitude":5.41245},{"name":"Gemeente Lingewaard","countryCode":"NL","stateCode":"GE","latitude":51.89558,"longitude":5.94577},{"name":"Gemeente Lisse","countryCode":"NL","stateCode":"ZH","latitude":52.25601,"longitude":4.54526},{"name":"Gemeente Lochem","countryCode":"NL","stateCode":"GE","latitude":52.18478,"longitude":6.337},{"name":"Gemeente Loon op Zand","countryCode":"NL","stateCode":"NB","latitude":51.63782,"longitude":5.0486},{"name":"Gemeente Lopik","countryCode":"NL","stateCode":"UT","latitude":51.98991,"longitude":4.94851},{"name":"Gemeente Loppersum","countryCode":"NL","stateCode":"GR","latitude":53.33849,"longitude":6.72149},{"name":"Gemeente Losser","countryCode":"NL","stateCode":"OV","latitude":52.29819,"longitude":7.00106},{"name":"Gemeente Maasdriel","countryCode":"NL","stateCode":"GE","latitude":51.77337,"longitude":5.29711},{"name":"Gemeente Maasgouw","countryCode":"NL","stateCode":"LI","latitude":51.15426,"longitude":5.87712},{"name":"Gemeente Maassluis","countryCode":"NL","stateCode":"ZH","latitude":51.92332,"longitude":4.24722},{"name":"Gemeente Maastricht","countryCode":"NL","stateCode":"LI","latitude":50.85,"longitude":5.7},{"name":"Gemeente Medemblik","countryCode":"NL","stateCode":"NH","latitude":52.72496,"longitude":5.12204},{"name":"Gemeente Meerssen","countryCode":"NL","stateCode":"LI","latitude":50.89518,"longitude":5.75711},{"name":"Gemeente Meppel","countryCode":"NL","stateCode":"DR","latitude":52.70885,"longitude":6.19727},{"name":"Gemeente Middelburg","countryCode":"NL","stateCode":"ZE","latitude":51.49719,"longitude":3.65459},{"name":"Gemeente Midden-Delfland","countryCode":"NL","stateCode":"ZH","latitude":51.96528,"longitude":4.30525},{"name":"Gemeente Midden-Drenthe","countryCode":"NL","stateCode":"DR","latitude":52.86716,"longitude":6.5384},{"name":"Gemeente Mill en Sint Hubert","countryCode":"NL","stateCode":"NB","latitude":51.68712,"longitude":5.77077},{"name":"Gemeente Moerdijk","countryCode":"NL","stateCode":"NB","latitude":51.63933,"longitude":4.56379},{"name":"Gemeente Montferland","countryCode":"NL","stateCode":"GE","latitude":51.91925,"longitude":6.21333},{"name":"Gemeente Montfoort","countryCode":"NL","stateCode":"UT","latitude":52.04767,"longitude":4.94844},{"name":"Gemeente Mook en Middelaar","countryCode":"NL","stateCode":"LI","latitude":51.74777,"longitude":5.902},{"name":"Gemeente Neder-Betuwe","countryCode":"NL","stateCode":"GE","latitude":51.91442,"longitude":5.57147},{"name":"Gemeente Nederweert","countryCode":"NL","stateCode":"LI","latitude":51.28813,"longitude":5.77157},{"name":"Gemeente Nieuwegein","countryCode":"NL","stateCode":"UT","latitude":52.02843,"longitude":5.09539},{"name":"Gemeente Nieuwkoop","countryCode":"NL","stateCode":"ZH","latitude":52.17198,"longitude":4.78006},{"name":"Gemeente Nijkerk","countryCode":"NL","stateCode":"GE","latitude":52.217,"longitude":5.483},{"name":"Gemeente Nijmegen","countryCode":"NL","stateCode":"GE","latitude":51.84168,"longitude":5.83813},{"name":"Gemeente Noord-Beveland","countryCode":"NL","stateCode":"ZE","latitude":51.57226,"longitude":3.78353},{"name":"Gemeente Noordenveld","countryCode":"NL","stateCode":"DR","latitude":53.11494,"longitude":6.44622},{"name":"Gemeente Noordoostpolder","countryCode":"NL","stateCode":"FL","latitude":52.71703,"longitude":5.77248},{"name":"Gemeente Noordwijk","countryCode":"NL","stateCode":"ZH","latitude":52.26953,"longitude":4.46354},{"name":"Gemeente Nuenen, Gerwen en Nederwetten","countryCode":"NL","stateCode":"NB","latitude":51.46667,"longitude":5.53333},{"name":"Gemeente Nunspeet","countryCode":"NL","stateCode":"GE","latitude":52.33524,"longitude":5.78771},{"name":"Gemeente Oegstgeest","countryCode":"NL","stateCode":"ZH","latitude":52.18256,"longitude":4.46676},{"name":"Gemeente Oirschot","countryCode":"NL","stateCode":"NB","latitude":51.49062,"longitude":5.28959},{"name":"Gemeente Oisterwijk","countryCode":"NL","stateCode":"NB","latitude":51.55289,"longitude":5.20188},{"name":"Gemeente Oldebroek","countryCode":"NL","stateCode":"GE","latitude":52.44502,"longitude":5.90086},{"name":"Gemeente Oldenzaal","countryCode":"NL","stateCode":"OV","latitude":52.3075,"longitude":6.9075},{"name":"Gemeente Olst-Wijhe","countryCode":"NL","stateCode":"OV","latitude":52.35734,"longitude":6.13481},{"name":"Gemeente Ommen","countryCode":"NL","stateCode":"OV","latitude":52.51659,"longitude":6.45631},{"name":"Gemeente Oosterhout","countryCode":"NL","stateCode":"NB","latitude":51.63435,"longitude":4.86399},{"name":"Gemeente Ooststellingwerf","countryCode":"NL","stateCode":"FR","latitude":52.98264,"longitude":6.27515},{"name":"Gemeente Oostzaan","countryCode":"NL","stateCode":"NH","latitude":52.4378,"longitude":4.87604},{"name":"Gemeente Opmeer","countryCode":"NL","stateCode":"NH","latitude":52.71468,"longitude":4.95334},{"name":"Gemeente Opsterland","countryCode":"NL","stateCode":"FR","latitude":53.04849,"longitude":6.12128},{"name":"Gemeente Oss","countryCode":"NL","stateCode":"NB","latitude":51.78103,"longitude":5.58111},{"name":"Gemeente Ouder-Amstel","countryCode":"NL","stateCode":"NH","latitude":52.30659,"longitude":4.91432},{"name":"Gemeente Oudewater","countryCode":"NL","stateCode":"UT","latitude":52.0284,"longitude":4.86243},{"name":"Gemeente Overbetuwe","countryCode":"NL","stateCode":"GE","latitude":51.91843,"longitude":5.78686},{"name":"Gemeente Papendrecht","countryCode":"NL","stateCode":"ZH","latitude":51.83175,"longitude":4.69125},{"name":"Gemeente Peel en Maas","countryCode":"NL","stateCode":"LI","latitude":51.32353,"longitude":5.97261},{"name":"Gemeente Pekela","countryCode":"NL","stateCode":"GR","latitude":53.05969,"longitude":6.9651},{"name":"Gemeente Pijnacker-Nootdorp","countryCode":"NL","stateCode":"ZH","latitude":52.02615,"longitude":4.41944},{"name":"Gemeente Purmerend","countryCode":"NL","stateCode":"NH","latitude":52.50515,"longitude":4.95243},{"name":"Gemeente Putten","countryCode":"NL","stateCode":"GE","latitude":52.24438,"longitude":5.57827},{"name":"Gemeente Raalte","countryCode":"NL","stateCode":"OV","latitude":52.40299,"longitude":6.28773},{"name":"Gemeente Reimerswaal","countryCode":"NL","stateCode":"ZE","latitude":51.4204,"longitude":4.13169},{"name":"Gemeente Renkum","countryCode":"NL","stateCode":"GE","latitude":51.99036,"longitude":5.78723},{"name":"Gemeente Renswoude","countryCode":"NL","stateCode":"UT","latitude":52.07294,"longitude":5.53352},{"name":"Gemeente Reusel-De Mierden","countryCode":"NL","stateCode":"NB","latitude":51.38047,"longitude":5.1579},{"name":"Gemeente Rheden","countryCode":"NL","stateCode":"GE","latitude":52.03386,"longitude":6.04547},{"name":"Gemeente Rhenen","countryCode":"NL","stateCode":"UT","latitude":51.96151,"longitude":5.57058},{"name":"Gemeente Ridderkerk","countryCode":"NL","stateCode":"ZH","latitude":51.86969,"longitude":4.59785},{"name":"Gemeente Rijssen-Holten","countryCode":"NL","stateCode":"OV","latitude":52.29,"longitude":6.42515},{"name":"Gemeente Rijswijk","countryCode":"NL","stateCode":"ZH","latitude":52.0349,"longitude":4.32785},{"name":"Gemeente Roerdalen","countryCode":"NL","stateCode":"LI","latitude":51.13492,"longitude":6.03542},{"name":"Gemeente Roermond","countryCode":"NL","stateCode":"LI","latitude":51.19999,"longitude":6.009},{"name":"Gemeente Rotterdam","countryCode":"NL","stateCode":"ZH","latitude":51.88246,"longitude":4.28784},{"name":"Gemeente Rozendaal","countryCode":"NL","stateCode":"GE","latitude":52.03913,"longitude":5.97268},{"name":"Gemeente Rucphen","countryCode":"NL","stateCode":"NB","latitude":51.52357,"longitude":4.56586},{"name":"Gemeente Schagen","countryCode":"NL","stateCode":"NH","latitude":52.78823,"longitude":4.79965},{"name":"Gemeente Scherpenzeel","countryCode":"NL","stateCode":"GE","latitude":52.08773,"longitude":5.48698},{"name":"Gemeente Schiedam","countryCode":"NL","stateCode":"ZH","latitude":51.9265,"longitude":4.38675},{"name":"Gemeente Schiermonnikoog","countryCode":"NL","stateCode":"FR","latitude":53.48707,"longitude":6.22917},{"name":"Gemeente Simpelveld","countryCode":"NL","stateCode":"LI","latitude":50.82901,"longitude":5.9841},{"name":"Gemeente Sint Anthonis","countryCode":"NL","stateCode":"NB","latitude":51.61826,"longitude":5.84354},{"name":"Gemeente Sint-Michielsgestel","countryCode":"NL","stateCode":"NB","latitude":51.66076,"longitude":5.37851},{"name":"Gemeente Sittard-Geleen","countryCode":"NL","stateCode":"LI","latitude":51.01074,"longitude":5.82288},{"name":"Gemeente Sliedrecht","countryCode":"NL","stateCode":"ZH","latitude":51.82999,"longitude":4.77191},{"name":"Gemeente Sluis","countryCode":"NL","stateCode":"ZE","latitude":51.3349,"longitude":3.51974},{"name":"Gemeente Smallingerland","countryCode":"NL","stateCode":"FR","latitude":53.11667,"longitude":6.03333},{"name":"Gemeente Soest","countryCode":"NL","stateCode":"UT","latitude":52.15636,"longitude":5.29854},{"name":"Gemeente Someren","countryCode":"NL","stateCode":"NB","latitude":51.38233,"longitude":5.71049},{"name":"Gemeente Son en Breugel","countryCode":"NL","stateCode":"NB","latitude":51.5097,"longitude":5.49934},{"name":"Gemeente Stadskanaal","countryCode":"NL","stateCode":"GR","latitude":53.00005,"longitude":6.98906},{"name":"Gemeente Staphorst","countryCode":"NL","stateCode":"OV","latitude":52.63241,"longitude":6.20737},{"name":"Gemeente Stede Broec","countryCode":"NL","stateCode":"NH","latitude":52.69617,"longitude":5.22389},{"name":"Gemeente Steenbergen","countryCode":"NL","stateCode":"NB","latitude":51.60081,"longitude":4.32077},{"name":"Gemeente Steenwijkerland","countryCode":"NL","stateCode":"OV","latitude":52.75587,"longitude":6.04028},{"name":"Gemeente Stein","countryCode":"NL","stateCode":"LI","latitude":50.97358,"longitude":5.76126},{"name":"Gemeente Terneuzen","countryCode":"NL","stateCode":"ZE","latitude":51.2855,"longitude":3.82817},{"name":"Gemeente Terschelling","countryCode":"NL","stateCode":"FR","latitude":53.4,"longitude":5.35},{"name":"Gemeente Texel","countryCode":"NL","stateCode":"NH","latitude":53.07883,"longitude":4.81166},{"name":"Gemeente Teylingen","countryCode":"NL","stateCode":"ZH","latitude":52.21556,"longitude":4.50648},{"name":"Gemeente Tholen","countryCode":"NL","stateCode":"ZE","latitude":51.58336,"longitude":4.13373},{"name":"Gemeente Tiel","countryCode":"NL","stateCode":"GE","latitude":51.88463,"longitude":5.40429},{"name":"Gemeente Tilburg","countryCode":"NL","stateCode":"NB","latitude":51.57787,"longitude":5.06555},{"name":"Gemeente Tubbergen","countryCode":"NL","stateCode":"OV","latitude":52.40451,"longitude":6.78241},{"name":"Gemeente Twenterand","countryCode":"NL","stateCode":"OV","latitude":52.44974,"longitude":6.56122},{"name":"Gemeente Tynaarlo","countryCode":"NL","stateCode":"DR","latitude":53.10417,"longitude":6.60271},{"name":"Gemeente Tytsjerksteradiel","countryCode":"NL","stateCode":"FR","latitude":53.19966,"longitude":5.95802},{"name":"Gemeente Uden","countryCode":"NL","stateCode":"NB","latitude":51.65682,"longitude":5.61258},{"name":"Gemeente Uitgeest","countryCode":"NL","stateCode":"NH","latitude":52.52855,"longitude":4.71176},{"name":"Gemeente Uithoorn","countryCode":"NL","stateCode":"NH","latitude":52.23999,"longitude":4.83072},{"name":"Gemeente Urk","countryCode":"NL","stateCode":"FL","latitude":52.66585,"longitude":5.62371},{"name":"Gemeente Utrecht","countryCode":"NL","stateCode":"UT","latitude":52.09675,"longitude":5.03708},{"name":"Gemeente Utrechtse Heuvelrug","countryCode":"NL","stateCode":"UT","latitude":52.03486,"longitude":5.35738},{"name":"Gemeente Vaals","countryCode":"NL","stateCode":"LI","latitude":50.77848,"longitude":5.97674},{"name":"Gemeente Valkenswaard","countryCode":"NL","stateCode":"NB","latitude":51.32575,"longitude":5.45323},{"name":"Gemeente Veendam","countryCode":"NL","stateCode":"GR","latitude":53.08951,"longitude":6.87923},{"name":"Gemeente Veenendaal","countryCode":"NL","stateCode":"UT","latitude":52.02459,"longitude":5.55562},{"name":"Gemeente Veere","countryCode":"NL","stateCode":"ZE","latitude":51.53902,"longitude":3.55688},{"name":"Gemeente Veldhoven","countryCode":"NL","stateCode":"NB","latitude":51.41253,"longitude":5.38052},{"name":"Gemeente Velsen","countryCode":"NL","stateCode":"NH","latitude":52.45182,"longitude":4.63211},{"name":"Gemeente Venlo","countryCode":"NL","stateCode":"LI","latitude":51.39277,"longitude":6.16041},{"name":"Gemeente Venray","countryCode":"NL","stateCode":"LI","latitude":51.51412,"longitude":5.95927},{"name":"Gemeente Vlaardingen","countryCode":"NL","stateCode":"ZH","latitude":51.91754,"longitude":4.3257},{"name":"Gemeente Vlieland","countryCode":"NL","stateCode":"FR","latitude":53.2532,"longitude":4.95071},{"name":"Gemeente Vlissingen","countryCode":"NL","stateCode":"ZE","latitude":51.45914,"longitude":3.62325},{"name":"Gemeente Voerendaal","countryCode":"NL","stateCode":"LI","latitude":50.87117,"longitude":5.91495},{"name":"Gemeente Voorschoten","countryCode":"NL","stateCode":"ZH","latitude":52.12533,"longitude":4.44014},{"name":"Gemeente Voorst","countryCode":"NL","stateCode":"GE","latitude":52.22965,"longitude":6.09992},{"name":"Gemeente Vught","countryCode":"NL","stateCode":"NB","latitude":51.65822,"longitude":5.26746},{"name":"Gemeente Waalre","countryCode":"NL","stateCode":"NB","latitude":51.38757,"longitude":5.4638},{"name":"Gemeente Waalwijk","countryCode":"NL","stateCode":"NB","latitude":51.6897,"longitude":5.01721},{"name":"Gemeente Waddinxveen","countryCode":"NL","stateCode":"ZH","latitude":52.04247,"longitude":4.64486},{"name":"Gemeente Wageningen","countryCode":"NL","stateCode":"GE","latitude":51.96876,"longitude":5.66675},{"name":"Gemeente Wassenaar","countryCode":"NL","stateCode":"ZH","latitude":52.13791,"longitude":4.37546},{"name":"Gemeente Waterland","countryCode":"NL","stateCode":"NH","latitude":52.4376,"longitude":5.01371},{"name":"Gemeente Weert","countryCode":"NL","stateCode":"LI","latitude":51.23418,"longitude":5.69067},{"name":"Gemeente Weesp","countryCode":"NL","stateCode":"NH","latitude":52.30575,"longitude":5.04152},{"name":"Gemeente West Maas en Waal","countryCode":"NL","stateCode":"GE","latitude":51.84494,"longitude":5.51074},{"name":"Gemeente Westerveld","countryCode":"NL","stateCode":"DR","latitude":52.827,"longitude":6.2906},{"name":"Gemeente Westervoort","countryCode":"NL","stateCode":"GE","latitude":51.95949,"longitude":5.97435},{"name":"Gemeente Westland","countryCode":"NL","stateCode":"ZH","latitude":51.99671,"longitude":4.22729},{"name":"Gemeente Weststellingwerf","countryCode":"NL","stateCode":"FR","latitude":52.87647,"longitude":6.01998},{"name":"Gemeente Westvoorne","countryCode":"NL","stateCode":"ZH","latitude":51.89308,"longitude":4.08922},{"name":"Gemeente Wierden","countryCode":"NL","stateCode":"OV","latitude":52.34247,"longitude":6.55795},{"name":"Gemeente Wijchen","countryCode":"NL","stateCode":"GE","latitude":51.81884,"longitude":5.69862},{"name":"Gemeente Wijdemeren","countryCode":"NL","stateCode":"NH","latitude":52.22756,"longitude":5.08445},{"name":"Gemeente Wijk bij Duurstede","countryCode":"NL","stateCode":"UT","latitude":51.97452,"longitude":5.33661},{"name":"Gemeente Winterswijk","countryCode":"NL","stateCode":"GE","latitude":51.97226,"longitude":6.72544},{"name":"Gemeente Woensdrecht","countryCode":"NL","stateCode":"NB","latitude":51.40948,"longitude":4.33512},{"name":"Gemeente Woerden","countryCode":"NL","stateCode":"UT","latitude":52.10675,"longitude":4.90066},{"name":"Gemeente Wormerland","countryCode":"NL","stateCode":"NH","latitude":52.497,"longitude":4.83364},{"name":"Gemeente Woudenberg","countryCode":"NL","stateCode":"UT","latitude":52.08055,"longitude":5.3981},{"name":"Gemeente Zaanstad","countryCode":"NL","stateCode":"NH","latitude":52.45308,"longitude":4.81253},{"name":"Gemeente Zaltbommel","countryCode":"NL","stateCode":"GE","latitude":51.7868,"longitude":5.15254},{"name":"Gemeente Zandvoort","countryCode":"NL","stateCode":"NH","latitude":52.35769,"longitude":4.54388},{"name":"Gemeente Zeewolde","countryCode":"NL","stateCode":"FL","latitude":52.3442,"longitude":5.45904},{"name":"Gemeente Zeist","countryCode":"NL","stateCode":"UT","latitude":52.08847,"longitude":5.23275},{"name":"Gemeente Zevenaar","countryCode":"NL","stateCode":"GE","latitude":51.95376,"longitude":6.07727},{"name":"Gemeente Zoetermeer","countryCode":"NL","stateCode":"ZH","latitude":52.05954,"longitude":4.48832},{"name":"Gemeente Zoeterwoude","countryCode":"NL","stateCode":"ZH","latitude":52.1141,"longitude":4.51142},{"name":"Gemeente Zuidplas","countryCode":"NL","stateCode":"ZH","latitude":52.01574,"longitude":4.61048},{"name":"Gemeente Zundert","countryCode":"NL","stateCode":"NB","latitude":51.47352,"longitude":4.6418},{"name":"Gemeente Zutphen","countryCode":"NL","stateCode":"GE","latitude":52.13145,"longitude":6.23132},{"name":"Gemeente Zwartewaterland","countryCode":"NL","stateCode":"OV","latitude":52.6024,"longitude":6.07402},{"name":"Gemeente Zwijndrecht","countryCode":"NL","stateCode":"ZH","latitude":51.82399,"longitude":4.61258},{"name":"Gemeente Zwolle","countryCode":"NL","stateCode":"OV","latitude":52.51264,"longitude":6.09359},{"name":"Gemert","countryCode":"NL","stateCode":"NB","latitude":51.55583,"longitude":5.69028},{"name":"Gemonde","countryCode":"NL","stateCode":"NB","latitude":51.61833,"longitude":5.35694},{"name":"Genderen","countryCode":"NL","stateCode":"NB","latitude":51.73583,"longitude":5.0875},{"name":"Gendringen","countryCode":"NL","stateCode":"GE","latitude":51.87333,"longitude":6.37639},{"name":"Gendt","countryCode":"NL","stateCode":"GE","latitude":51.8775,"longitude":5.97083},{"name":"Gennep","countryCode":"NL","stateCode":"LI","latitude":51.69833,"longitude":5.97361},{"name":"Genoenhuis","countryCode":"NL","stateCode":"NB","latitude":51.40917,"longitude":5.53889},{"name":"Gerwen","countryCode":"NL","stateCode":"NB","latitude":51.49,"longitude":5.5625},{"name":"Giesbeek","countryCode":"NL","stateCode":"GE","latitude":51.99333,"longitude":6.06667},{"name":"Giessen","countryCode":"NL","stateCode":"NB","latitude":51.79,"longitude":5.03056},{"name":"Giessenburg","countryCode":"NL","stateCode":"ZH","latitude":51.85083,"longitude":4.89028},{"name":"Giessendam","countryCode":"NL","stateCode":"ZH","latitude":51.83257,"longitude":4.83583},{"name":"Gieten","countryCode":"NL","stateCode":"DR","latitude":53.005,"longitude":6.76389},{"name":"Giethoorn","countryCode":"NL","stateCode":"OV","latitude":52.74,"longitude":6.07917},{"name":"Gilze","countryCode":"NL","stateCode":"NB","latitude":51.54417,"longitude":4.94028},{"name":"Ginneken","countryCode":"NL","stateCode":"NB","latitude":51.56593,"longitude":4.7931},{"name":"Glimmen","countryCode":"NL","stateCode":"GR","latitude":53.13917,"longitude":6.62917},{"name":"Goedereede","countryCode":"NL","stateCode":"ZH","latitude":51.8175,"longitude":3.98056},{"name":"Goes","countryCode":"NL","stateCode":"ZE","latitude":51.50417,"longitude":3.88889},{"name":"Goirle","countryCode":"NL","stateCode":"NB","latitude":51.52083,"longitude":5.06667},{"name":"Gooise Meren","countryCode":"NL","stateCode":"NH","latitude":52.29735,"longitude":5.13371},{"name":"Goor","countryCode":"NL","stateCode":"OV","latitude":52.23333,"longitude":6.58611},{"name":"Gorinchem","countryCode":"NL","stateCode":"ZH","latitude":51.83652,"longitude":4.97243},{"name":"Gorredijk","countryCode":"NL","stateCode":"FR","latitude":53.00659,"longitude":6.06402},{"name":"Gorssel","countryCode":"NL","stateCode":"GE","latitude":52.20167,"longitude":6.20139},{"name":"Gouda","countryCode":"NL","stateCode":"ZH","latitude":52.01667,"longitude":4.70833},{"name":"Gouderak","countryCode":"NL","stateCode":"ZH","latitude":51.98417,"longitude":4.67778},{"name":"Goudswaard","countryCode":"NL","stateCode":"ZH","latitude":51.79417,"longitude":4.27639},{"name":"Goutum","countryCode":"NL","stateCode":"FR","latitude":53.17734,"longitude":5.8037},{"name":"Gouwsluis","countryCode":"NL","stateCode":"ZH","latitude":52.11943,"longitude":4.66899},{"name":"Gracht","countryCode":"NL","stateCode":"LI","latitude":50.85175,"longitude":6.02793},{"name":"Grafhorst","countryCode":"NL","stateCode":"OV","latitude":52.5825,"longitude":5.93333},{"name":"Grashoek","countryCode":"NL","stateCode":"LI","latitude":51.36083,"longitude":5.94306},{"name":"Grasrijk","countryCode":"NL","stateCode":"NB","latitude":51.43916,"longitude":5.41544},{"name":"Grave","countryCode":"NL","stateCode":"NB","latitude":51.75902,"longitude":5.73882},{"name":"Grevenbicht","countryCode":"NL","stateCode":"LI","latitude":51.03833,"longitude":5.775},{"name":"Griffioen","countryCode":"NL","stateCode":"ZE","latitude":51.50548,"longitude":3.59598},{"name":"Grijpskerk","countryCode":"NL","stateCode":"GR","latitude":53.2625,"longitude":6.30833},{"name":"Grijpskerke","countryCode":"NL","stateCode":"ZE","latitude":51.53417,"longitude":3.56111},{"name":"Groenekan","countryCode":"NL","stateCode":"UT","latitude":52.12333,"longitude":5.15278},{"name":"Groenewoud","countryCode":"NL","stateCode":"NB","latitude":51.5386,"longitude":5.09028},{"name":"Groenswaard","countryCode":"NL","stateCode":"ZH","latitude":52.05154,"longitude":4.64541},{"name":"Groesbeek","countryCode":"NL","stateCode":"GE","latitude":51.77667,"longitude":5.93611},{"name":"Groessen","countryCode":"NL","stateCode":"GE","latitude":51.93167,"longitude":6.02639},{"name":"Groningen","countryCode":"NL","stateCode":"GR","latitude":53.21917,"longitude":6.56667},{"name":"Gronsveld","countryCode":"NL","stateCode":"LI","latitude":50.81083,"longitude":5.73056},{"name":"Groot IJsselmonde","countryCode":"NL","stateCode":"ZH","latitude":51.88264,"longitude":4.54937},{"name":"Groot-Ammers","countryCode":"NL","stateCode":"ZH","latitude":51.92333,"longitude":4.82361},{"name":"Grootegast","countryCode":"NL","stateCode":"GR","latitude":53.2125,"longitude":6.27361},{"name":"Grou","countryCode":"NL","stateCode":"FR","latitude":53.09456,"longitude":5.83745},{"name":"Gulden Bodem","countryCode":"NL","stateCode":"GE","latitude":51.99428,"longitude":5.8908},{"name":"Gulpen","countryCode":"NL","stateCode":"LI","latitude":50.81583,"longitude":5.88889},{"name":"Gulpen-Wittem","countryCode":"NL","stateCode":"LI","latitude":50.81374,"longitude":5.89296},{"name":"Guttecoven","countryCode":"NL","stateCode":"LI","latitude":51.015,"longitude":5.81806},{"name":"Gytsjerk","countryCode":"NL","stateCode":"FR","latitude":53.24293,"longitude":5.89502},{"name":"Haaften","countryCode":"NL","stateCode":"GE","latitude":51.81583,"longitude":5.21111},{"name":"Haaksbergen","countryCode":"NL","stateCode":"OV","latitude":52.15667,"longitude":6.73889},{"name":"Haalderen","countryCode":"NL","stateCode":"GE","latitude":51.8875,"longitude":5.92917},{"name":"Haamstede","countryCode":"NL","stateCode":"ZE","latitude":51.69682,"longitude":3.74299},{"name":"Haanrade","countryCode":"NL","stateCode":"LI","latitude":50.87981,"longitude":6.07411},{"name":"Haaren","countryCode":"NL","stateCode":"NB","latitude":51.6025,"longitude":5.22222},{"name":"Haarle","countryCode":"NL","stateCode":"OV","latitude":52.35917,"longitude":6.38056},{"name":"Haarlem","countryCode":"NL","stateCode":"NH","latitude":52.38084,"longitude":4.63683},{"name":"Haarsteeg","countryCode":"NL","stateCode":"NB","latitude":51.71167,"longitude":5.19861},{"name":"Haastrecht","countryCode":"NL","stateCode":"ZH","latitude":52.00074,"longitude":4.77639},{"name":"Haelen","countryCode":"NL","stateCode":"LI","latitude":51.23583,"longitude":5.95694},{"name":"Halfweg","countryCode":"NL","stateCode":"NH","latitude":52.3825,"longitude":4.75417},{"name":"Hallum","countryCode":"NL","stateCode":"FR","latitude":53.30657,"longitude":5.78379},{"name":"Halsteren","countryCode":"NL","stateCode":"NB","latitude":51.52834,"longitude":4.26785},{"name":"Handel","countryCode":"NL","stateCode":"NB","latitude":51.58,"longitude":5.70972},{"name":"Hapert","countryCode":"NL","stateCode":"NB","latitude":51.36833,"longitude":5.25694},{"name":"Haps","countryCode":"NL","stateCode":"NB","latitude":51.68917,"longitude":5.86111},{"name":"Hardenberg","countryCode":"NL","stateCode":"OV","latitude":52.57583,"longitude":6.61944},{"name":"Harderwijk","countryCode":"NL","stateCode":"GE","latitude":52.34167,"longitude":5.62083},{"name":"Haren","countryCode":"NL","stateCode":"GR","latitude":53.17209,"longitude":6.60931},{"name":"Harenkarspel","countryCode":"NL","stateCode":"NH","latitude":52.73416,"longitude":4.77682},{"name":"Harkema","countryCode":"NL","stateCode":"FR","latitude":53.18333,"longitude":6.13333},{"name":"Harkstede","countryCode":"NL","stateCode":"GR","latitude":53.21333,"longitude":6.69861},{"name":"Harlingen","countryCode":"NL","stateCode":"FR","latitude":53.17477,"longitude":5.42244},{"name":"Harskamp","countryCode":"NL","stateCode":"GE","latitude":52.13,"longitude":5.75278},{"name":"Hasselt","countryCode":"NL","stateCode":"OV","latitude":52.59267,"longitude":6.09527},{"name":"Hatert","countryCode":"NL","stateCode":"GE","latitude":51.80635,"longitude":5.83057},{"name":"Hattem","countryCode":"NL","stateCode":"GE","latitude":52.475,"longitude":6.06389},{"name":"Hattemerbroek","countryCode":"NL","stateCode":"GE","latitude":52.47417,"longitude":6.02222},{"name":"Haulerwijk","countryCode":"NL","stateCode":"FR","latitude":53.06468,"longitude":6.33453},{"name":"Havelte","countryCode":"NL","stateCode":"DR","latitude":52.76941,"longitude":6.24015},{"name":"Hedel","countryCode":"NL","stateCode":"GE","latitude":51.74802,"longitude":5.26134},{"name":"Heechterp","countryCode":"NL","stateCode":"FR","latitude":53.20963,"longitude":5.8225},{"name":"Heeg","countryCode":"NL","stateCode":"FR","latitude":52.9686,"longitude":5.61075},{"name":"Heel","countryCode":"NL","stateCode":"LI","latitude":51.17917,"longitude":5.89444},{"name":"Heelsum","countryCode":"NL","stateCode":"GE","latitude":51.98417,"longitude":5.75833},{"name":"Heemskerk","countryCode":"NL","stateCode":"NH","latitude":52.51108,"longitude":4.67165},{"name":"Heemstede","countryCode":"NL","stateCode":"NH","latitude":52.34992,"longitude":4.62301},{"name":"Heer","countryCode":"NL","stateCode":"LI","latitude":50.83836,"longitude":5.72989},{"name":"Heerde","countryCode":"NL","stateCode":"GE","latitude":52.38723,"longitude":6.04016},{"name":"Heerenveen","countryCode":"NL","stateCode":"FR","latitude":52.95929,"longitude":5.91854},{"name":"Heerewaarden","countryCode":"NL","stateCode":"GE","latitude":51.81769,"longitude":5.393},{"name":"Heerhugowaard","countryCode":"NL","stateCode":"NH","latitude":52.67144,"longitude":4.84862},{"name":"Heerjansdam","countryCode":"NL","stateCode":"ZH","latitude":51.83583,"longitude":4.56389},{"name":"Heerle","countryCode":"NL","stateCode":"NB","latitude":51.51917,"longitude":4.35972},{"name":"Heerlen","countryCode":"NL","stateCode":"LI","latitude":50.88365,"longitude":5.98154},{"name":"Hees","countryCode":"NL","stateCode":"GE","latitude":51.84136,"longitude":5.82846},{"name":"Heesch","countryCode":"NL","stateCode":"NB","latitude":51.73362,"longitude":5.52672},{"name":"Heesterakker","countryCode":"NL","stateCode":"NB","latitude":51.4861,"longitude":5.49681},{"name":"Heeswijk-Dinther","countryCode":"NL","stateCode":"NB","latitude":51.65083,"longitude":5.475},{"name":"Heeze","countryCode":"NL","stateCode":"NB","latitude":51.3828,"longitude":5.57145},{"name":"Hegelsom","countryCode":"NL","stateCode":"LI","latitude":51.43917,"longitude":6.03889},{"name":"Heide","countryCode":"NL","stateCode":"LI","latitude":51.06833,"longitude":5.87222},{"name":"Heijen","countryCode":"NL","stateCode":"LI","latitude":51.675,"longitude":5.98056},{"name":"Heijplaat","countryCode":"NL","stateCode":"ZH","latitude":51.89333,"longitude":4.42083},{"name":"Heiligerlee","countryCode":"NL","stateCode":"GR","latitude":53.15667,"longitude":7.00972},{"name":"Heiloo","countryCode":"NL","stateCode":"NH","latitude":52.60252,"longitude":4.68815},{"name":"Heino","countryCode":"NL","stateCode":"OV","latitude":52.43661,"longitude":6.23282},{"name":"Heksenberg","countryCode":"NL","stateCode":"LI","latitude":50.92068,"longitude":5.97373},{"name":"Helden","countryCode":"NL","stateCode":"LI","latitude":51.31917,"longitude":6},{"name":"Hellevoetsluis","countryCode":"NL","stateCode":"ZH","latitude":51.83333,"longitude":4.13333},{"name":"Helmond","countryCode":"NL","stateCode":"NB","latitude":51.48167,"longitude":5.66111},{"name":"Helpman","countryCode":"NL","stateCode":"GR","latitude":53.19794,"longitude":6.57978},{"name":"Helvoirt","countryCode":"NL","stateCode":"NB","latitude":51.63167,"longitude":5.23056},{"name":"Hem","countryCode":"NL","stateCode":"NH","latitude":52.66083,"longitude":5.18333},{"name":"Hendrik-Ido-Ambacht","countryCode":"NL","stateCode":"ZH","latitude":51.84417,"longitude":4.63889},{"name":"Hengelo","countryCode":"NL","stateCode":"GE","latitude":52.05083,"longitude":6.30972},{"name":"Hengelo","countryCode":"NL","stateCode":"OV","latitude":52.26583,"longitude":6.79306},{"name":"Hengevelde","countryCode":"NL","stateCode":"OV","latitude":52.19917,"longitude":6.63611},{"name":"Hengstdal","countryCode":"NL","stateCode":"GE","latitude":51.83333,"longitude":5.88333},{"name":"Hensbroek","countryCode":"NL","stateCode":"NH","latitude":52.65833,"longitude":4.88472},{"name":"Herkenbosch","countryCode":"NL","stateCode":"LI","latitude":51.15333,"longitude":6.06389},{"name":"Herpen","countryCode":"NL","stateCode":"NB","latitude":51.77167,"longitude":5.64167},{"name":"Herten","countryCode":"NL","stateCode":"LI","latitude":51.18083,"longitude":5.9625},{"name":"Herwijnen","countryCode":"NL","stateCode":"GE","latitude":51.82667,"longitude":5.12917},{"name":"Het Loo","countryCode":"NL","stateCode":"GE","latitude":52.2339,"longitude":5.95275},{"name":"Het Oostrik","countryCode":"NL","stateCode":"OV","latitude":52.25,"longitude":6.21667},{"name":"Heteren","countryCode":"NL","stateCode":"GE","latitude":51.95667,"longitude":5.75556},{"name":"Heugem","countryCode":"NL","stateCode":"LI","latitude":50.82791,"longitude":5.70774},{"name":"Heumen","countryCode":"NL","stateCode":"GE","latitude":51.765,"longitude":5.84444},{"name":"Heusden","countryCode":"NL","stateCode":"NB","latitude":51.38417,"longitude":5.76389},{"name":"Heusdenhout","countryCode":"NL","stateCode":"NB","latitude":51.58811,"longitude":4.8193},{"name":"Heythuysen","countryCode":"NL","stateCode":"LI","latitude":51.25,"longitude":5.89861},{"name":"Hillegom","countryCode":"NL","stateCode":"ZH","latitude":52.29083,"longitude":4.58333},{"name":"Hilvarenbeek","countryCode":"NL","stateCode":"NB","latitude":51.48583,"longitude":5.1375},{"name":"Hilversum","countryCode":"NL","stateCode":"NH","latitude":52.22333,"longitude":5.17639},{"name":"Hilversumse Meent","countryCode":"NL","stateCode":"NH","latitude":52.27115,"longitude":5.13729},{"name":"Hippolytushoef","countryCode":"NL","stateCode":"NH","latitude":52.9075,"longitude":4.9625},{"name":"Hoek","countryCode":"NL","stateCode":"FR","latitude":53.20455,"longitude":5.80192},{"name":"Hoek van Holland","countryCode":"NL","stateCode":"ZH","latitude":51.9775,"longitude":4.13333},{"name":"Hoensbroek","countryCode":"NL","stateCode":"LI","latitude":50.92387,"longitude":5.92528},{"name":"Hoeven","countryCode":"NL","stateCode":"NB","latitude":51.57917,"longitude":4.58333},{"name":"Hofgeest","countryCode":"NL","stateCode":"NH","latitude":52.44333,"longitude":4.65833},{"name":"Hoge Mors","countryCode":"NL","stateCode":"ZH","latitude":52.15616,"longitude":4.46025},{"name":"Hoge Vucht","countryCode":"NL","stateCode":"NB","latitude":51.60794,"longitude":4.7915},{"name":"Hollandsche Rading","countryCode":"NL","stateCode":"UT","latitude":52.175,"longitude":5.17778},{"name":"Hollum","countryCode":"NL","stateCode":"FR","latitude":53.4394,"longitude":5.63805},{"name":"Holtum","countryCode":"NL","stateCode":"LI","latitude":51.0475,"longitude":5.82222},{"name":"Holwerd","countryCode":"NL","stateCode":"FR","latitude":53.36815,"longitude":5.90073},{"name":"Holz","countryCode":"NL","stateCode":"LI","latitude":50.86415,"longitude":6.07424},{"name":"Honselersdijk","countryCode":"NL","stateCode":"ZH","latitude":52.00665,"longitude":4.22441},{"name":"Hoofddorp","countryCode":"NL","stateCode":"NH","latitude":52.3025,"longitude":4.68889},{"name":"Hoogblokland","countryCode":"NL","stateCode":"ZH","latitude":51.875,"longitude":4.97639},{"name":"Hooge Mierde","countryCode":"NL","stateCode":"NB","latitude":51.3875,"longitude":5.12917},{"name":"Hooge Zwaluwe","countryCode":"NL","stateCode":"NB","latitude":51.6875,"longitude":4.74444},{"name":"Hoogeloon","countryCode":"NL","stateCode":"NB","latitude":51.3975,"longitude":5.26806},{"name":"Hoogerheide","countryCode":"NL","stateCode":"NB","latitude":51.42417,"longitude":4.325},{"name":"Hoogeveen","countryCode":"NL","stateCode":"DR","latitude":52.7225,"longitude":6.47639},{"name":"Hoogezand","countryCode":"NL","stateCode":"GR","latitude":53.16167,"longitude":6.76111},{"name":"Hoogkamp","countryCode":"NL","stateCode":"GE","latitude":51.9963,"longitude":5.88026},{"name":"Hoogmade","countryCode":"NL","stateCode":"ZH","latitude":52.16917,"longitude":4.58194},{"name":"Hoogwoud","countryCode":"NL","stateCode":"NH","latitude":52.71583,"longitude":4.93889},{"name":"Hoorn","countryCode":"NL","stateCode":"NH","latitude":52.6425,"longitude":5.05972},{"name":"Hopel","countryCode":"NL","stateCode":"LI","latitude":50.89245,"longitude":6.05046},{"name":"Horssen","countryCode":"NL","stateCode":"GE","latitude":51.85583,"longitude":5.60972},{"name":"Houten","countryCode":"NL","stateCode":"UT","latitude":52.02833,"longitude":5.16806},{"name":"Houthem","countryCode":"NL","stateCode":"LI","latitude":50.8725,"longitude":5.79306},{"name":"Huijbergen","countryCode":"NL","stateCode":"NB","latitude":51.4325,"longitude":4.37639},{"name":"Huizen","countryCode":"NL","stateCode":"NH","latitude":52.29917,"longitude":5.24167},{"name":"Huizum","countryCode":"NL","stateCode":"FR","latitude":53.1917,"longitude":5.81119},{"name":"Hulsberg","countryCode":"NL","stateCode":"LI","latitude":50.88917,"longitude":5.85556},{"name":"Hulst","countryCode":"NL","stateCode":"ZE","latitude":51.28,"longitude":4.05278},{"name":"Hummelo","countryCode":"NL","stateCode":"GE","latitude":52.00417,"longitude":6.23333},{"name":"Hunnerberg","countryCode":"NL","stateCode":"GE","latitude":51.84209,"longitude":5.87876},{"name":"Hurdegaryp","countryCode":"NL","stateCode":"FR","latitude":53.21333,"longitude":5.94137},{"name":"Husken","countryCode":"NL","stateCode":"LI","latitude":50.89567,"longitude":5.95648},{"name":"IJlst","countryCode":"NL","stateCode":"FR","latitude":53.01009,"longitude":5.62312},{"name":"IJsselstein","countryCode":"NL","stateCode":"UT","latitude":52.02,"longitude":5.04306},{"name":"IJzendijke","countryCode":"NL","stateCode":"ZE","latitude":51.32167,"longitude":3.61667},{"name":"Ilpendam","countryCode":"NL","stateCode":"NH","latitude":52.46333,"longitude":4.95},{"name":"Ingen","countryCode":"NL","stateCode":"GE","latitude":51.95917,"longitude":5.48472},{"name":"Jagershoef","countryCode":"NL","stateCode":"NB","latitude":51.4733,"longitude":5.4672},{"name":"Jirnsum","countryCode":"NL","stateCode":"FR","latitude":53.07753,"longitude":5.79254},{"name":"Joure","countryCode":"NL","stateCode":"FR","latitude":52.9657,"longitude":5.80301},{"name":"Jubbega","countryCode":"NL","stateCode":"FR","latitude":53.00396,"longitude":6.12183},{"name":"Kaalheide","countryCode":"NL","stateCode":"LI","latitude":50.86505,"longitude":6.03643},{"name":"Kadoelen","countryCode":"NL","stateCode":"NH","latitude":52.4175,"longitude":4.90561},{"name":"Kakert","countryCode":"NL","stateCode":"LI","latitude":50.90414,"longitude":6.00463},{"name":"Kalsdonk","countryCode":"NL","stateCode":"NB","latitude":51.53973,"longitude":4.47111},{"name":"Kampen","countryCode":"NL","stateCode":"OV","latitude":52.555,"longitude":5.91111},{"name":"Kamperland","countryCode":"NL","stateCode":"ZE","latitude":51.57167,"longitude":3.70417},{"name":"Kapelle","countryCode":"NL","stateCode":"ZE","latitude":51.48627,"longitude":3.95804},{"name":"Katendrecht","countryCode":"NL","stateCode":"ZH","latitude":51.90074,"longitude":4.48254},{"name":"Katwijk aan den Rijn","countryCode":"NL","stateCode":"ZH","latitude":52.19417,"longitude":4.42222},{"name":"Katwijk aan Zee","countryCode":"NL","stateCode":"ZH","latitude":52.20333,"longitude":4.39861},{"name":"Kedichem","countryCode":"NL","stateCode":"UT","latitude":51.86,"longitude":5.05},{"name":"Keent","countryCode":"NL","stateCode":"LI","latitude":51.24218,"longitude":5.70079},{"name":"Keijenborg","countryCode":"NL","stateCode":"GE","latitude":52.02917,"longitude":6.29444},{"name":"Kelpen-Oler","countryCode":"NL","stateCode":"LI","latitude":51.21817,"longitude":5.82602},{"name":"Kerckebosch","countryCode":"NL","stateCode":"UT","latitude":52.07844,"longitude":5.26584},{"name":"Kerensheide","countryCode":"NL","stateCode":"LI","latitude":50.9721,"longitude":5.77666},{"name":"Kerkdriel","countryCode":"NL","stateCode":"GE","latitude":51.77167,"longitude":5.33472},{"name":"Kerkehout","countryCode":"NL","stateCode":"ZH","latitude":52.11018,"longitude":4.37957},{"name":"Kerkelanden","countryCode":"NL","stateCode":"NH","latitude":52.21755,"longitude":5.13575},{"name":"Kerkrade","countryCode":"NL","stateCode":"LI","latitude":50.86583,"longitude":6.0625},{"name":"Kerschoten","countryCode":"NL","stateCode":"GE","latitude":52.23333,"longitude":5.96667},{"name":"Kessel","countryCode":"NL","stateCode":"LI","latitude":51.29167,"longitude":6.05417},{"name":"Kesteren","countryCode":"NL","stateCode":"GE","latitude":51.935,"longitude":5.56944},{"name":"Kijkduin","countryCode":"NL","stateCode":"ZH","latitude":52.06765,"longitude":4.22188},{"name":"Klaaswaal","countryCode":"NL","stateCode":"ZH","latitude":51.77,"longitude":4.44583},{"name":"Klarenbeek","countryCode":"NL","stateCode":"ZE","latitude":51.50964,"longitude":3.61132},{"name":"Klazienaveen","countryCode":"NL","stateCode":"DR","latitude":52.72417,"longitude":6.99028},{"name":"Klein Driene","countryCode":"NL","stateCode":"OV","latitude":52.26935,"longitude":6.81613},{"name":"Klein-Zundert","countryCode":"NL","stateCode":"NB","latitude":51.48083,"longitude":4.65417},{"name":"Klimmen","countryCode":"NL","stateCode":"LI","latitude":50.87583,"longitude":5.88056},{"name":"Kloetinge","countryCode":"NL","stateCode":"ZE","latitude":51.49833,"longitude":3.91528},{"name":"Klundert","countryCode":"NL","stateCode":"NB","latitude":51.665,"longitude":4.53472},{"name":"Koekange","countryCode":"NL","stateCode":"DR","latitude":52.69917,"longitude":6.31667},{"name":"Koewacht","countryCode":"NL","stateCode":"ZE","latitude":51.22833,"longitude":3.97361},{"name":"Kollum","countryCode":"NL","stateCode":"FR","latitude":53.27695,"longitude":6.15293},{"name":"Kollumerzwaag","countryCode":"NL","stateCode":"FR","latitude":53.26224,"longitude":6.07544},{"name":"Koningsbosch","countryCode":"NL","stateCode":"LI","latitude":51.05167,"longitude":5.95833},{"name":"Koningslust","countryCode":"NL","stateCode":"LI","latitude":51.3575,"longitude":5.99306},{"name":"Kootstertille","countryCode":"NL","stateCode":"FR","latitude":53.21261,"longitude":6.09209},{"name":"Kootwijkerbroek","countryCode":"NL","stateCode":"GE","latitude":52.15083,"longitude":5.66944},{"name":"Kop van Zuid","countryCode":"NL","stateCode":"ZH","latitude":51.90553,"longitude":4.48706},{"name":"Korrewegwijk","countryCode":"NL","stateCode":"GR","latitude":53.23235,"longitude":6.56804},{"name":"Kortenhoef","countryCode":"NL","stateCode":"NH","latitude":52.23917,"longitude":5.10694},{"name":"Korvel","countryCode":"NL","stateCode":"NB","latitude":51.54954,"longitude":5.07079},{"name":"Koudekerke","countryCode":"NL","stateCode":"ZE","latitude":51.48167,"longitude":3.55417},{"name":"Koudum","countryCode":"NL","stateCode":"FR","latitude":52.91551,"longitude":5.44834},{"name":"Krakeel","countryCode":"NL","stateCode":"DR","latitude":52.72339,"longitude":6.51146},{"name":"Krimpen aan den IJssel","countryCode":"NL","stateCode":"ZH","latitude":51.91667,"longitude":4.60278},{"name":"Krimpenerwaard","countryCode":"NL","stateCode":"ZH","latitude":51.98171,"longitude":4.77828},{"name":"Krooswijk","countryCode":"NL","stateCode":"NB","latitude":51.64665,"longitude":4.59203},{"name":"Kruisberg","countryCode":"NL","stateCode":"LI","latitude":50.94234,"longitude":5.96519},{"name":"Kruisland","countryCode":"NL","stateCode":"NB","latitude":51.56917,"longitude":4.40972},{"name":"Kudelstaart","countryCode":"NL","stateCode":"NH","latitude":52.23417,"longitude":4.75139},{"name":"Kunrade","countryCode":"NL","stateCode":"LI","latitude":50.87769,"longitude":5.93107},{"name":"Kwintsheul","countryCode":"NL","stateCode":"ZH","latitude":52.01333,"longitude":4.25556},{"name":"Lage Mierde","countryCode":"NL","stateCode":"NB","latitude":51.40583,"longitude":5.14722},{"name":"Lakerlopen","countryCode":"NL","stateCode":"NB","latitude":51.43791,"longitude":5.50106},{"name":"Lammerenburg","countryCode":"NL","stateCode":"ZE","latitude":51.46667,"longitude":3.55833},{"name":"Landgraaf","countryCode":"NL","stateCode":"LI","latitude":50.91333,"longitude":6.05722},{"name":"Landsmeer","countryCode":"NL","stateCode":"NH","latitude":52.43083,"longitude":4.91528},{"name":"Langeheit","countryCode":"NL","stateCode":"NH","latitude":52.492,"longitude":4.75849},{"name":"Langenboom","countryCode":"NL","stateCode":"NB","latitude":51.70417,"longitude":5.73056},{"name":"Langenoord","countryCode":"NL","stateCode":"UT","latitude":52.18768,"longitude":5.38034},{"name":"Langweer","countryCode":"NL","stateCode":"FR","latitude":52.95836,"longitude":5.72173},{"name":"Laren","countryCode":"NL","stateCode":"GE","latitude":52.19417,"longitude":6.36528},{"name":"Laren","countryCode":"NL","stateCode":"NH","latitude":52.25667,"longitude":5.22778},{"name":"Lauradorp","countryCode":"NL","stateCode":"LI","latitude":50.91229,"longitude":6.04591},{"name":"Leek","countryCode":"NL","stateCode":"GR","latitude":53.1625,"longitude":6.37639},{"name":"Leende","countryCode":"NL","stateCode":"NB","latitude":51.35083,"longitude":5.55417},{"name":"Leens","countryCode":"NL","stateCode":"GR","latitude":53.36,"longitude":6.37917},{"name":"Leerdam","countryCode":"NL","stateCode":"UT","latitude":51.89333,"longitude":5.09167},{"name":"Leersum","countryCode":"NL","stateCode":"UT","latitude":52.01167,"longitude":5.42778},{"name":"Leest","countryCode":"NL","stateCode":"NB","latitude":51.60983,"longitude":5.54312},{"name":"Leesten","countryCode":"NL","stateCode":"GE","latitude":52.1279,"longitude":6.23217},{"name":"Leeuwarden","countryCode":"NL","stateCode":"FR","latitude":53.20139,"longitude":5.80859},{"name":"Leeuwen","countryCode":"NL","stateCode":"LI","latitude":51.21032,"longitude":5.99862},{"name":"Leiden","countryCode":"NL","stateCode":"ZH","latitude":52.15833,"longitude":4.49306},{"name":"Leiderdorp","countryCode":"NL","stateCode":"ZH","latitude":52.15833,"longitude":4.52917},{"name":"Leimuiden","countryCode":"NL","stateCode":"ZH","latitude":52.22417,"longitude":4.66944},{"name":"Lelystad","countryCode":"NL","stateCode":"FL","latitude":52.50833,"longitude":5.475},{"name":"Lemmer","countryCode":"NL","stateCode":"FR","latitude":52.84618,"longitude":5.70912},{"name":"Lent","countryCode":"NL","stateCode":"GE","latitude":51.86167,"longitude":5.86667},{"name":"Lepelstraat","countryCode":"NL","stateCode":"NB","latitude":51.54833,"longitude":4.27639},{"name":"Leuken","countryCode":"NL","stateCode":"LI","latitude":51.25288,"longitude":5.7346},{"name":"Leunen","countryCode":"NL","stateCode":"LI","latitude":51.51,"longitude":5.97917},{"name":"Leusden","countryCode":"NL","stateCode":"UT","latitude":52.1325,"longitude":5.43194},{"name":"Leuth","countryCode":"NL","stateCode":"GE","latitude":51.83917,"longitude":5.99167},{"name":"Lichtenberg","countryCode":"NL","stateCode":"LI","latitude":50.9022,"longitude":6.02523},{"name":"Lichtenvoorde","countryCode":"NL","stateCode":"GE","latitude":51.98667,"longitude":6.56667},{"name":"Liempde","countryCode":"NL","stateCode":"NB","latitude":51.56917,"longitude":5.37222},{"name":"Lienden","countryCode":"NL","stateCode":"GE","latitude":51.94833,"longitude":5.51806},{"name":"Lierop","countryCode":"NL","stateCode":"NB","latitude":51.41917,"longitude":5.67917},{"name":"Lieshout","countryCode":"NL","stateCode":"NB","latitude":51.52036,"longitude":5.59479},{"name":"Liessel","countryCode":"NL","stateCode":"NB","latitude":51.41333,"longitude":5.82083},{"name":"Liesveld","countryCode":"NL","stateCode":"ZH","latitude":51.9325,"longitude":4.83194},