[{"name":"Å i Åfjord","countryCode":"NO","stateCode":"50","latitude":63.96068,"longitude":10.22468},{"name":"Åfjord","countryCode":"NO","stateCode":"50","latitude":63.96196,"longitude":10.22587},{"name":"Agdenes","countryCode":"NO","stateCode":"50","latitude":63.50575,"longitude":9.82623},{"name":"Ågotnes","countryCode":"NO","stateCode":"12","latitude":60.40306,"longitude":5.01927},{"name":"Åkrehamn","countryCode":"NO","stateCode":"11","latitude":59.26053,"longitude":5.18689},{"name":"Ål","countryCode":"NO","stateCode":"06","latitude":60.63028,"longitude":8.56115},{"name":"Ålesund","countryCode":"NO","stateCode":"15","latitude":62.47225,"longitude":6.15492},{"name":"Alstahaug","countryCode":"NO","stateCode":"18","latitude":65.97556,"longitude":12.56836},{"name":"Alta","countryCode":"NO","stateCode":"20","latitude":69.97675,"longitude":23.29634},{"name":"Alvdal","countryCode":"NO","stateCode":"04","latitude":62.10854,"longitude":10.63483},{"name":"Åmot","countryCode":"NO","stateCode":"04","latitude":61.13199,"longitude":11.37328},{"name":"Åndalsnes","countryCode":"NO","stateCode":"15","latitude":62.56749,"longitude":7.68709},{"name":"Andenes","countryCode":"NO","stateCode":"18","latitude":69.31428,"longitude":16.11939},{"name":"Andøy","countryCode":"NO","stateCode":"18","latitude":69.08033,"longitude":15.77637},{"name":"Åneby","countryCode":"NO","stateCode":"02","latitude":60.08926,"longitude":10.86998},{"name":"Årdal","countryCode":"NO","stateCode":"14","latitude":61.23639,"longitude":7.70204},{"name":"Årdalstangen","countryCode":"NO","stateCode":"14","latitude":61.23581,"longitude":7.7037},{"name":"Aremark","countryCode":"NO","stateCode":"01","latitude":59.22198,"longitude":11.69582},{"name":"Årnes","countryCode":"NO","stateCode":"02","latitude":60.12237,"longitude":11.47005},{"name":"Åros","countryCode":"NO","stateCode":"06","latitude":59.7061,"longitude":10.51092},{"name":"Årøysund","countryCode":"NO","stateCode":"07","latitude":59.18321,"longitude":10.45743},{"name":"Ås","countryCode":"NO","stateCode":"02","latitude":59.66366,"longitude":10.79101},{"name":"Åseral","countryCode":"NO","stateCode":"10","latitude":58.6173,"longitude":7.41118},{"name":"Åsgårdstrand","countryCode":"NO","stateCode":"07","latitude":59.34938,"longitude":10.46948},{"name":"Ask","countryCode":"NO","stateCode":"02","latitude":60.07131,"longitude":11.0362},{"name":"Asker","countryCode":"NO","stateCode":"02","latitude":59.83734,"longitude":10.43595},{"name":"Askim","countryCode":"NO","stateCode":"01","latitude":59.58464,"longitude":11.16084},{"name":"Askøy","countryCode":"NO","stateCode":"12","latitude":60.40916,"longitude":5.22599},{"name":"Askvoll","countryCode":"NO","stateCode":"14","latitude":61.3485,"longitude":5.05318},{"name":"Åsnes","countryCode":"NO","stateCode":"04","latitude":60.61363,"longitude":12.012},{"name":"Audnedal","countryCode":"NO","stateCode":"10","latitude":58.28378,"longitude":7.35487},{"name":"Aukra","countryCode":"NO","stateCode":"15","latitude":62.805,"longitude":6.88722},{"name":"Auli","countryCode":"NO","stateCode":"02","latitude":60.0345,"longitude":11.36046},{"name":"Aure","countryCode":"NO","stateCode":"15","latitude":63.2675,"longitude":8.52778},{"name":"Aurland","countryCode":"NO","stateCode":"14","latitude":60.90556,"longitude":7.18734},{"name":"Aurskog-Høland","countryCode":"NO","stateCode":"02","latitude":59.88321,"longitude":11.56491},{"name":"Aursmoen","countryCode":"NO","stateCode":"02","latitude":59.92763,"longitude":11.44275},{"name":"Austevoll","countryCode":"NO","stateCode":"12","latitude":60.09578,"longitude":5.22722},{"name":"Austrheim","countryCode":"NO","stateCode":"12","latitude":60.77742,"longitude":4.93227},{"name":"Ávanuorri","countryCode":"NO","stateCode":"20","latitude":70.99634,"longitude":24.66217},{"name":"Averøy","countryCode":"NO","stateCode":"15","latitude":63.05344,"longitude":7.63265},{"name":"Bærum","countryCode":"NO","stateCode":"02","latitude":59.88996,"longitude":10.52649},{"name":"Bagn","countryCode":"NO","stateCode":"05","latitude":60.82249,"longitude":9.55207},{"name":"Balestrand","countryCode":"NO","stateCode":"14","latitude":61.20809,"longitude":6.53551},{"name":"Ballangen","countryCode":"NO","stateCode":"18","latitude":68.34365,"longitude":16.83317},{"name":"Balsfjord","countryCode":"NO","stateCode":"19","latitude":69.24024,"longitude":19.22653},{"name":"Bamble","countryCode":"NO","stateCode":"08","latitude":59.00146,"longitude":9.74573},{"name":"Bardu","countryCode":"NO","stateCode":"19","latitude":68.86058,"longitude":18.35052},{"name":"Barkåker","countryCode":"NO","stateCode":"07","latitude":59.31859,"longitude":10.38963},{"name":"Batnfjordsøra","countryCode":"NO","stateCode":"15","latitude":62.89463,"longitude":7.67251},{"name":"Båtsfjord","countryCode":"NO","stateCode":"20","latitude":70.63428,"longitude":29.7175},{"name":"Beiarn","countryCode":"NO","stateCode":"18","latitude":67.00725,"longitude":14.57304},{"name":"Berg","countryCode":"NO","stateCode":"19","latitude":69.44444,"longitude":17.2995},{"name":"Bergen","countryCode":"NO","stateCode":"12","latitude":60.392,"longitude":5.328},{"name":"Berger","countryCode":"NO","stateCode":"07","latitude":59.54994,"longitude":10.38641},{"name":"Berkåk","countryCode":"NO","stateCode":"50","latitude":62.82496,"longitude":10.01177},{"name":"Berlevåg","countryCode":"NO","stateCode":"20","latitude":70.85778,"longitude":29.08636},{"name":"Billingstad","countryCode":"NO","stateCode":"02","latitude":59.87548,"longitude":10.4823},{"name":"Bindal","countryCode":"NO","stateCode":"18","latitude":65.0878,"longitude":12.37747},{"name":"Bjerkreim","countryCode":"NO","stateCode":"11","latitude":58.6305,"longitude":6.0813},{"name":"Bjerkvik","countryCode":"NO","stateCode":"18","latitude":68.54917,"longitude":17.55709},{"name":"Bjørkelangen","countryCode":"NO","stateCode":"02","latitude":59.88357,"longitude":11.56396},{"name":"Bjørnevatn","countryCode":"NO","stateCode":"20","latitude":69.66745,"longitude":29.98722},{"name":"Bjugn","countryCode":"NO","stateCode":"50","latitude":63.76522,"longitude":9.8094},{"name":"Blakstad","countryCode":"NO","stateCode":"02","latitude":59.8191,"longitude":10.4645},{"name":"Bø","countryCode":"NO","stateCode":"08","latitude":59.41281,"longitude":9.06618},{"name":"Bø","countryCode":"NO","stateCode":"18","latitude":68.68823,"longitude":14.47899},{"name":"Bodø","countryCode":"NO","stateCode":"18","latitude":67.28325,"longitude":14.38319},{"name":"Bogen","countryCode":"NO","stateCode":"18","latitude":68.52647,"longitude":16.9928},{"name":"Bokn","countryCode":"NO","stateCode":"11","latitude":59.23062,"longitude":5.43524},{"name":"Bømlo","countryCode":"NO","stateCode":"12","latitude":59.79384,"longitude":5.17624},{"name":"Borkenes","countryCode":"NO","stateCode":"19","latitude":68.77261,"longitude":16.17115},{"name":"Botngård","countryCode":"NO","stateCode":"50","latitude":63.76484,"longitude":9.80863},{"name":"Brattvåg","countryCode":"NO","stateCode":"15","latitude":62.59991,"longitude":6.44426},{"name":"Brekstad","countryCode":"NO","stateCode":"50","latitude":63.68697,"longitude":9.66541},{"name":"Bremanger","countryCode":"NO","stateCode":"14","latitude":61.76862,"longitude":5.28907},{"name":"Brønnøy","countryCode":"NO","stateCode":"18","latitude":65.46786,"longitude":12.20626},{"name":"Brønnøysund","countryCode":"NO","stateCode":"18","latitude":65.47487,"longitude":12.21285},{"name":"Brumunddal","countryCode":"NO","stateCode":"04","latitude":60.88095,"longitude":10.93948},{"name":"Bryne","countryCode":"NO","stateCode":"11","latitude":58.73536,"longitude":5.64766},{"name":"Dale","countryCode":"NO","stateCode":"12","latitude":60.58639,"longitude":5.81888},{"name":"Dale","countryCode":"NO","stateCode":"14","latitude":61.36353,"longitude":5.40036},{"name":"Dalen","countryCode":"NO","stateCode":"08","latitude":59.44499,"longitude":8.00492},{"name":"Dokka","countryCode":"NO","stateCode":"05","latitude":60.835,"longitude":10.07362},{"name":"Dombås","countryCode":"NO","stateCode":"05","latitude":62.07554,"longitude":9.12785},{"name":"Dønna","countryCode":"NO","stateCode":"18","latitude":66.10606,"longitude":12.48189},{"name":"Dovre","countryCode":"NO","stateCode":"05","latitude":61.98582,"longitude":9.24947},{"name":"Drammen","countryCode":"NO","stateCode":"06","latitude":59.74389,"longitude":10.20449},{"name":"Drangedal","countryCode":"NO","stateCode":"08","latitude":59.09655,"longitude":9.0596},{"name":"Drøbak","countryCode":"NO","stateCode":"02","latitude":59.66333,"longitude":10.62975},{"name":"Dyrøy","countryCode":"NO","stateCode":"19","latitude":69.09154,"longitude":17.69094},{"name":"Egersund","countryCode":"NO","stateCode":"11","latitude":58.45133,"longitude":5.9997},{"name":"Eid","countryCode":"NO","stateCode":"14","latitude":61.90684,"longitude":5.99321},{"name":"Eide","countryCode":"NO","stateCode":"15","latitude":62.9157,"longitude":7.44496},{"name":"Eidfjord","countryCode":"NO","stateCode":"12","latitude":60.46741,"longitude":7.06971},{"name":"Eidsberg","countryCode":"NO","stateCode":"01","latitude":59.55148,"longitude":11.33587},{"name":"Eidskog","countryCode":"NO","stateCode":"04","latitude":59.98556,"longitude":12.12502},{"name":"Eidsvåg","countryCode":"NO","stateCode":"15","latitude":62.77656,"longitude":8.0655},{"name":"Eidsvoll","countryCode":"NO","stateCode":"02","latitude":60.32893,"longitude":11.26119},{"name":"Eigersund","countryCode":"NO","stateCode":"11","latitude":58.45236,"longitude":6.00314},{"name":"Eike","countryCode":"NO","stateCode":"11","latitude":59.39833,"longitude":5.36389},{"name":"Eikelandsosen","countryCode":"NO","stateCode":"12","latitude":60.24175,"longitude":5.74433},{"name":"Eivindvik","countryCode":"NO","stateCode":"14","latitude":60.98133,"longitude":5.07497},{"name":"Elnesvågen","countryCode":"NO","stateCode":"15","latitude":62.85426,"longitude":7.13769},{"name":"Elverum","countryCode":"NO","stateCode":"04","latitude":60.88159,"longitude":11.56314},{"name":"Enebakk","countryCode":"NO","stateCode":"02","latitude":59.76452,"longitude":11.14492},{"name":"Engerdal","countryCode":"NO","stateCode":"04","latitude":61.75774,"longitude":11.95966},{"name":"Espeland","countryCode":"NO","stateCode":"12","latitude":60.38249,"longitude":5.4657},{"name":"Etne","countryCode":"NO","stateCode":"12","latitude":59.66472,"longitude":5.93438},{"name":"Etnedal","countryCode":"NO","stateCode":"05","latitude":60.88872,"longitude":9.64031},{"name":"Evenes","countryCode":"NO","stateCode":"18","latitude":68.52334,"longitude":17.00888},{"name":"Evenskjer","countryCode":"NO","stateCode":"19","latitude":68.58283,"longitude":16.57203},{"name":"Evjen","countryCode":"NO","stateCode":"18","latitude":68.26667,"longitude":13.73333},{"name":"Færder","countryCode":"NO","stateCode":"07","latitude":59.22791,"longitude":10.4153},{"name":"Fagernes","countryCode":"NO","stateCode":"05","latitude":60.98584,"longitude":9.23236},{"name":"Fagerstrand","countryCode":"NO","stateCode":"02","latitude":59.73746,"longitude":10.59404},{"name":"Farnes","countryCode":"NO","stateCode":"14","latitude":61.3085,"longitude":7.79694},{"name":"Farsund","countryCode":"NO","stateCode":"10","latitude":58.09538,"longitude":6.80403},{"name":"Fauske","countryCode":"NO","stateCode":"18","latitude":67.25963,"longitude":15.3941},{"name":"Fedje","countryCode":"NO","stateCode":"12","latitude":60.77873,"longitude":4.71965},{"name":"Fet","countryCode":"NO","stateCode":"02","latitude":59.92216,"longitude":11.16778},{"name":"Fetsund","countryCode":"NO","stateCode":"02","latitude":59.92463,"longitude":11.15711},{"name":"Fillan","countryCode":"NO","stateCode":"50","latitude":63.60638,"longitude":8.96961},{"name":"Finnøy","countryCode":"NO","stateCode":"11","latitude":59.17117,"longitude":5.87398},{"name":"Finnsnes","countryCode":"NO","stateCode":"19","latitude":69.22959,"longitude":17.98114},{"name":"Fitjar","countryCode":"NO","stateCode":"12","latitude":59.91742,"longitude":5.31637},{"name":"Fjaler","countryCode":"NO","stateCode":"14","latitude":61.36383,"longitude":5.39808},{"name":"Fjell","countryCode":"NO","stateCode":"12","latitude":60.36267,"longitude":5.12194},{"name":"Fjellfoten","countryCode":"NO","stateCode":"02","latitude":60.08967,"longitude":11.47222},{"name":"Flå","countryCode":"NO","stateCode":"06","latitude":60.4291,"longitude":9.46611},{"name":"Flakstad","countryCode":"NO","stateCode":"18","latitude":68.09292,"longitude":13.2331},{"name":"Flatanger","countryCode":"NO","stateCode":"50","latitude":64.41282,"longitude":11.03285},{"name":"Flateby","countryCode":"NO","stateCode":"02","latitude":59.82951,"longitude":11.15345},{"name":"Flekkefjord","countryCode":"NO","stateCode":"10","latitude":58.29791,"longitude":6.66345},{"name":"Flesberg","countryCode":"NO","stateCode":"06","latitude":59.83283,"longitude":9.58308},{"name":"Flora","countryCode":"NO","stateCode":"14","latitude":61.59994,"longitude":5.03144},{"name":"Florø","countryCode":"NO","stateCode":"14","latitude":61.59957,"longitude":5.0328},{"name":"Folldal","countryCode":"NO","stateCode":"04","latitude":62.13329,"longitude":9.9971},{"name":"Førde","countryCode":"NO","stateCode":"14","latitude":61.45045,"longitude":5.85397},{"name":"Forsand","countryCode":"NO","stateCode":"11","latitude":58.89929,"longitude":6.09642},{"name":"Fosnes","countryCode":"NO","stateCode":"50","latitude":64.6591,"longitude":11.26535},{"name":"Fossbergom","countryCode":"NO","stateCode":"05","latitude":61.83772,"longitude":8.56842},{"name":"Fossby","countryCode":"NO","stateCode":"01","latitude":59.22218,"longitude":11.69928},{"name":"Fræna","countryCode":"NO","stateCode":"15","latitude":62.85375,"longitude":7.1538},{"name":"Fredrikstad","countryCode":"NO","stateCode":"01","latitude":59.21759,"longitude":10.93787},{"name":"Frekhaug","countryCode":"NO","stateCode":"12","latitude":60.51321,"longitude":5.24252},{"name":"Frogn","countryCode":"NO","stateCode":"02","latitude":59.66665,"longitude":10.63566},{"name":"Frogner","countryCode":"NO","stateCode":"02","latitude":60.02463,"longitude":11.10284},{"name":"Frosta","countryCode":"NO","stateCode":"50","latitude":63.5891,"longitude":10.7423},{"name":"Frøya","countryCode":"NO","stateCode":"50","latitude":63.73005,"longitude":8.82426},{"name":"Fusa","countryCode":"NO","stateCode":"12","latitude":60.24072,"longitude":5.74458},{"name":"Fyresdal","countryCode":"NO","stateCode":"08","latitude":59.18651,"longitude":8.08953},{"name":"Gamvik","countryCode":"NO","stateCode":"20","latitude":71.04107,"longitude":27.85144},{"name":"Gaular","countryCode":"NO","stateCode":"14","latitude":61.32564,"longitude":5.79523},{"name":"Gaupne","countryCode":"NO","stateCode":"14","latitude":61.40472,"longitude":7.29458},{"name":"Gausdal","countryCode":"NO","stateCode":"05","latitude":61.22685,"longitude":10.22145},{"name":"Geilo","countryCode":"NO","stateCode":"06","latitude":60.53369,"longitude":8.20539},{"name":"Gildeskål","countryCode":"NO","stateCode":"18","latitude":67.03394,"longitude":14.02582},{"name":"Giske","countryCode":"NO","stateCode":"15","latitude":62.5007,"longitude":6.13472},{"name":"Gjemnes","countryCode":"NO","stateCode":"15","latitude":62.89379,"longitude":7.67714},{"name":"Gjerdrum","countryCode":"NO","stateCode":"02","latitude":60.07159,"longitude":11.03597},{"name":"Gjesdal","countryCode":"NO","stateCode":"11","latitude":58.76478,"longitude":5.855},{"name":"Gjøvik","countryCode":"NO","stateCode":"05","latitude":60.79472,"longitude":10.69287},{"name":"Gladstad","countryCode":"NO","stateCode":"18","latitude":65.67683,"longitude":11.96218},{"name":"Glomfjord","countryCode":"NO","stateCode":"18","latitude":66.81663,"longitude":13.94404},{"name":"Gloppen","countryCode":"NO","stateCode":"14","latitude":61.77728,"longitude":6.21561},{"name":"Gol","countryCode":"NO","stateCode":"06","latitude":60.69953,"longitude":8.95024},{"name":"Gran","countryCode":"NO","stateCode":"05","latitude":60.39293,"longitude":10.56045},{"name":"Grane","countryCode":"NO","stateCode":"18","latitude":65.53865,"longitude":13.38499},{"name":"Granvin","countryCode":"NO","stateCode":"12","latitude":60.52629,"longitude":6.72178},{"name":"Gratangen","countryCode":"NO","stateCode":"19","latitude":68.69273,"longitude":17.53186},{"name":"Gravdal","countryCode":"NO","stateCode":"18","latitude":68.11832,"longitude":13.55339},{"name":"Grong","countryCode":"NO","stateCode":"50","latitude":64.46397,"longitude":12.31114},{"name":"Grua","countryCode":"NO","stateCode":"05","latitude":60.25701,"longitude":10.66222},{"name":"Grue","countryCode":"NO","stateCode":"04","latitude":60.45133,"longitude":12.05489},{"name":"Gryllefjord","countryCode":"NO","stateCode":"19","latitude":69.36304,"longitude":17.05284},{"name":"Gulen","countryCode":"NO","stateCode":"14","latitude":60.98192,"longitude":5.07408},{"name":"Gullhaug","countryCode":"NO","stateCode":"07","latitude":59.5013,"longitude":10.25224},{"name":"Gvarv","countryCode":"NO","stateCode":"08","latitude":59.38767,"longitude":9.1724},{"name":"Hå","countryCode":"NO","stateCode":"11","latitude":58.6161,"longitude":5.64497},{"name":"Hadsel","countryCode":"NO","stateCode":"18","latitude":68.56328,"longitude":14.90835},{"name":"Hægebostad","countryCode":"NO","stateCode":"10","latitude":58.37572,"longitude":7.21973},{"name":"Hagavik","countryCode":"NO","stateCode":"12","latitude":60.18076,"longitude":5.40146},{"name":"Halden","countryCode":"NO","stateCode":"01","latitude":59.12258,"longitude":11.38709},{"name":"Halsa","countryCode":"NO","stateCode":"15","latitude":63.11855,"longitude":8.31536},{"name":"Hamar","countryCode":"NO","stateCode":"04","latitude":60.7945,"longitude":11.06798},{"name":"Hamarøy","countryCode":"NO","stateCode":"18","latitude":68.08381,"longitude":15.61671},{"name":"Hammerfest","countryCode":"NO","stateCode":"20","latitude":70.66257,"longitude":23.68295},{"name":"Hansnes","countryCode":"NO","stateCode":"19","latitude":69.96701,"longitude":19.62752},{"name":"Haram","countryCode":"NO","stateCode":"15","latitude":62.59898,"longitude":6.44483},{"name":"Hardbakke","countryCode":"NO","stateCode":"14","latitude":61.07562,"longitude":4.84111},{"name":"Hareid","countryCode":"NO","stateCode":"15","latitude":62.36742,"longitude":6.02114},{"name":"Harstad","countryCode":"NO","stateCode":"19","latitude":68.79896,"longitude":16.5293},{"name":"Hasvik","countryCode":"NO","stateCode":"20","latitude":70.59164,"longitude":22.30272},{"name":"Hattfjelldal","countryCode":"NO","stateCode":"18","latitude":65.59765,"longitude":13.98948},{"name":"Hauge i Dalane","countryCode":"NO","stateCode":"11","latitude":58.34361,"longitude":6.28121},{"name":"Haugesund","countryCode":"NO","stateCode":"11","latitude":59.41015,"longitude":5.27551},{"name":"Hauknes","countryCode":"NO","stateCode":"18","latitude":66.28333,"longitude":14.06667},{"name":"Hemne","countryCode":"NO","stateCode":"50","latitude":63.29095,"longitude":9.08893},{"name":"Hemnes","countryCode":"NO","stateCode":"18","latitude":66.07712,"longitude":13.8135},{"name":"Hemnesberget","countryCode":"NO","stateCode":"18","latitude":66.22489,"longitude":13.61643},{"name":"Hemsedal","countryCode":"NO","stateCode":"06","latitude":60.86114,"longitude":8.56537},{"name":"Hermansverk","countryCode":"NO","stateCode":"14","latitude":61.18461,"longitude":6.85016},{"name":"Herøy","countryCode":"NO","stateCode":"15","latitude":62.33333,"longitude":5.63598},{"name":"Herøy","countryCode":"NO","stateCode":"18","latitude":65.98427,"longitude":12.28916},{"name":"Herre","countryCode":"NO","stateCode":"08","latitude":59.10351,"longitude":9.56195},{"name":"Hitra","countryCode":"NO","stateCode":"50","latitude":63.54528,"longitude":8.78029},{"name":"Hjartdal","countryCode":"NO","stateCode":"08","latitude":59.61276,"longitude":8.94942},{"name":"Hjelmeland","countryCode":"NO","stateCode":"11","latitude":59.23668,"longitude":6.17912},{"name":"Hjelset","countryCode":"NO","stateCode":"15","latitude":62.7805,"longitude":7.49277},{"name":"Hobøl","countryCode":"NO","stateCode":"01","latitude":59.62252,"longitude":10.94979},{"name":"Hol","countryCode":"NO","stateCode":"06","latitude":60.61528,"longitude":8.30194},{"name":"Hole","countryCode":"NO","stateCode":"06","latitude":60.08017,"longitude":10.2784},{"name":"Holmestrand","countryCode":"NO","stateCode":"07","latitude":59.48976,"longitude":10.31515},{"name":"Holtålen","countryCode":"NO","stateCode":"50","latitude":62.84318,"longitude":11.29284},{"name":"Hommelvik","countryCode":"NO","stateCode":"50","latitude":63.41083,"longitude":10.79424},{"name":"Hommersåk","countryCode":"NO","stateCode":"11","latitude":58.92556,"longitude":5.85104},{"name":"Hønefoss","countryCode":"NO","stateCode":"06","latitude":60.16804,"longitude":10.25647},{"name":"Honningsvåg","countryCode":"NO","stateCode":"20","latitude":70.98209,"longitude":25.97037},{"name":"Hopen","countryCode":"NO","stateCode":"15","latitude":63.46539,"longitude":8.01437},{"name":"Hornindal","countryCode":"NO","stateCode":"14","latitude":61.96925,"longitude":6.52249},{"name":"Horten","countryCode":"NO","stateCode":"07","latitude":59.41547,"longitude":10.48527},{"name":"Hov","countryCode":"NO","stateCode":"05","latitude":60.6987,"longitude":10.35193},{"name":"Høyanger","countryCode":"NO","stateCode":"14","latitude":61.2188,"longitude":6.07308},{"name":"Høylandet","countryCode":"NO","stateCode":"50","latitude":64.62759,"longitude":12.30041},{"name":"Hundorp","countryCode":"NO","stateCode":"05","latitude":61.55523,"longitude":9.94069},{"name":"Hurdal","countryCode":"NO","stateCode":"02","latitude":60.43518,"longitude":11.06707},{"name":"Hurum","countryCode":"NO","stateCode":"06","latitude":59.61401,"longitude":10.45763},{"name":"Hvaler","countryCode":"NO","stateCode":"01","latitude":59.02809,"longitude":11.0311},{"name":"Hvittingfoss","countryCode":"NO","stateCode":"06","latitude":59.48572,"longitude":10.01173},{"name":"Hylkje","countryCode":"NO","stateCode":"12","latitude":60.51028,"longitude":5.35444},{"name":"Hyllestad","countryCode":"NO","stateCode":"14","latitude":61.17036,"longitude":5.29614},{"name":"Ibestad","countryCode":"NO","stateCode":"19","latitude":68.77866,"longitude":17.17661},{"name":"Inderøy","countryCode":"NO","stateCode":"50","latitude":63.87826,"longitude":11.28424},{"name":"Indre Arna","countryCode":"NO","stateCode":"12","latitude":60.41768,"longitude":5.47087},{"name":"Indre Fosen","countryCode":"NO","stateCode":"50","latitude":63.58897,"longitude":9.95847},{"name":"Innbygda","countryCode":"NO","stateCode":"04","latitude":61.31484,"longitude":12.26374},{"name":"Inndyr","countryCode":"NO","stateCode":"18","latitude":67.03353,"longitude":14.02663},{"name":"Jessheim","countryCode":"NO","stateCode":"02","latitude":60.14151,"longitude":11.17515},{"name":"Jevnaker","countryCode":"NO","stateCode":"05","latitude":60.2406,"longitude":10.38587},{"name":"Jølster","countryCode":"NO","stateCode":"14","latitude":61.56923,"longitude":6.48351},{"name":"Jondal","countryCode":"NO","stateCode":"12","latitude":60.2762,"longitude":6.25257},{"name":"Jørpeland","countryCode":"NO","stateCode":"11","latitude":59.02251,"longitude":6.04078},{"name":"Judaberg","countryCode":"NO","stateCode":"11","latitude":59.17204,"longitude":5.87617},{"name":"Justvik","countryCode":"NO","stateCode":"10","latitude":58.19691,"longitude":8.03107},{"name":"Kabelvåg","countryCode":"NO","stateCode":"18","latitude":68.21066,"longitude":14.47554},{"name":"Kåfjord","countryCode":"NO","stateCode":"19","latitude":69.604,"longitude":20.53456},{"name":"Kárášjohka","countryCode":"NO","stateCode":"20","latitude":69.47187,"longitude":25.51122},{"name":"Karasjok","countryCode":"NO","stateCode":"20","latitude":69.47224,"longitude":25.51885},{"name":"Karlshus","countryCode":"NO","stateCode":"01","latitude":59.35195,"longitude":10.87226},{"name":"Karlsøy","countryCode":"NO","stateCode":"19","latitude":69.96185,"longitude":19.61811},{"name":"Karmøy","countryCode":"NO","stateCode":"11","latitude":59.28079,"longitude":5.30529},{"name":"Kautokeino","countryCode":"NO","stateCode":"20","latitude":69.01151,"longitude":23.04151},{"name":"Kinsarvik","countryCode":"NO","stateCode":"12","latitude":60.37567,"longitude":6.71948},{"name":"Kirkenær","countryCode":"NO","stateCode":"04","latitude":60.4579,"longitude":12.05855},{"name":"Kirkenes","countryCode":"NO","stateCode":"20","latitude":69.72706,"longitude":30.04578},{"name":"Kjøllefjord","countryCode":"NO","stateCode":"20","latitude":70.94574,"longitude":27.3465},{"name":"Kjøpsvik","countryCode":"NO","stateCode":"18","latitude":68.09696,"longitude":16.37416},{"name":"Klæbu","countryCode":"NO","stateCode":"50","latitude":63.3006,"longitude":10.48188},{"name":"Klepp","countryCode":"NO","stateCode":"11","latitude":58.77655,"longitude":5.63009},{"name":"Kløfta","countryCode":"NO","stateCode":"02","latitude":60.07407,"longitude":11.13805},{"name":"Knappskog","countryCode":"NO","stateCode":"12","latitude":60.37906,"longitude":5.05602},{"name":"Knappstad","countryCode":"NO","stateCode":"01","latitude":59.62424,"longitude":11.03274},{"name":"Knarvik","countryCode":"NO","stateCode":"12","latitude":60.5453,"longitude":5.28208},{"name":"Kolvereid","countryCode":"NO","stateCode":"50","latitude":64.86549,"longitude":11.60465},{"name":"Kongsberg","countryCode":"NO","stateCode":"06","latitude":59.66516,"longitude":9.64653},{"name":"Kongsvinger","countryCode":"NO","stateCode":"04","latitude":60.19117,"longitude":11.99916},{"name":"Kopervik","countryCode":"NO","stateCode":"11","latitude":59.28354,"longitude":5.30669},{"name":"Koppang","countryCode":"NO","stateCode":"04","latitude":61.57219,"longitude":11.04659},{"name":"Korgen","countryCode":"NO","stateCode":"18","latitude":66.07662,"longitude":13.8216},{"name":"Kragerø","countryCode":"NO","stateCode":"08","latitude":58.86792,"longitude":9.41099},{"name":"Kristiansand","countryCode":"NO","stateCode":"10","latitude":58.14642,"longitude":7.99687},{"name":"Kristiansund","countryCode":"NO","stateCode":"15","latitude":63.11152,"longitude":7.73198},{"name":"Krødsherad","countryCode":"NO","stateCode":"06","latitude":60.17944,"longitude":9.62124},{"name":"Kvæfjord","countryCode":"NO","stateCode":"19","latitude":68.77201,"longitude":16.17294},{"name":"Kvænangen","countryCode":"NO","stateCode":"19","latitude":69.9389,"longitude":22.04935},{"name":"Kvalsund","countryCode":"NO","stateCode":"20","latitude":70.4991,"longitude":23.97393},{"name":"Kvam","countryCode":"NO","stateCode":"12","latitude":60.36977,"longitude":6.14344},{"name":"Kvinesdal","countryCode":"NO","stateCode":"10","latitude":58.23894,"longitude":6.71445},{"name":"Kvinnherad","countryCode":"NO","stateCode":"12","latitude":59.98421,"longitude":6.01227},{"name":"Kviteseid","countryCode":"NO","stateCode":"08","latitude":59.40194,"longitude":8.49459},{"name":"Kvitsøy","countryCode":"NO","stateCode":"11","latitude":59.06471,"longitude":5.40537},{"name":"Kyrksæterøra","countryCode":"NO","stateCode":"50","latitude":63.29057,"longitude":9.08909},{"name":"Lærdal","countryCode":"NO","stateCode":"14","latitude":61.09842,"longitude":7.48101},{"name":"Lærdalsøyri","countryCode":"NO","stateCode":"14","latitude":61.10001,"longitude":7.47374},{"name":"Lakselv","countryCode":"NO","stateCode":"20","latitude":70.05133,"longitude":24.97182},{"name":"Larkollen","countryCode":"NO","stateCode":"01","latitude":59.33196,"longitude":10.66687},{"name":"Larsnes","countryCode":"NO","stateCode":"15","latitude":62.20282,"longitude":5.57729},{"name":"Larvik","countryCode":"NO","stateCode":"07","latitude":59.05234,"longitude":10.02701},{"name":"Lauvsnes","countryCode":"NO","stateCode":"50","latitude":64.50061,"longitude":10.89396},{"name":"Lavangen","countryCode":"NO","stateCode":"19","latitude":68.74722,"longitude":17.80558},{"name":"Lebesby","countryCode":"NO","stateCode":"20","latitude":70.94535,"longitude":27.35134},{"name":"Leikanger","countryCode":"NO","stateCode":"14","latitude":61.18556,"longitude":6.82199},{"name":"Leirfjord","countryCode":"NO","stateCode":"18","latitude":66.06348,"longitude":12.93667},{"name":"Leirsund","countryCode":"NO","stateCode":"02","latitude":59.99682,"longitude":11.08746},{"name":"Leirvik","countryCode":"NO","stateCode":"12","latitude":59.77977,"longitude":5.50051},{"name":"Leka","countryCode":"NO","stateCode":"50","latitude":65.09244,"longitude":11.70513},{"name":"Leknes","countryCode":"NO","stateCode":"18","latitude":68.14746,"longitude":13.61151},{"name":"Leland","countryCode":"NO","stateCode":"18","latitude":66.06406,"longitude":12.94325},{"name":"Lena","countryCode":"NO","stateCode":"05","latitude":60.67391,"longitude":10.81317},{"name":"Lenvik","countryCode":"NO","stateCode":"19","latitude":69.23111,"longitude":17.98739},{"name":"Lervik","countryCode":"NO","stateCode":"01","latitude":59.27119,"longitude":10.7461},{"name":"Lesja","countryCode":"NO","stateCode":"05","latitude":62.11785,"longitude":8.86262},{"name":"Levanger","countryCode":"NO","stateCode":"50","latitude":63.74585,"longitude":11.29991},{"name":"Lier","countryCode":"NO","stateCode":"06","latitude":59.78663,"longitude":10.2459},{"name":"Lierne","countryCode":"NO","stateCode":"50","latitude":64.46413,"longitude":13.59249},{"name":"Liknes","countryCode":"NO","stateCode":"10","latitude":58.31216,"longitude":6.9618},{"name":"Lillehammer","countryCode":"NO","stateCode":"05","latitude":61.11464,"longitude":10.46743},{"name":"Lillestrøm","countryCode":"NO","stateCode":"02","latitude":59.95597,"longitude":11.04918},{"name":"Lindås","countryCode":"NO","stateCode":"12","latitude":60.5491,"longitude":5.28559},{"name":"Lindesnes","countryCode":"NO","stateCode":"10","latitude":58.08435,"longitude":7.30162},{"name":"Løding","countryCode":"NO","stateCode":"18","latitude":67.30055,"longitude":14.73852},{"name":"Lødingen","countryCode":"NO","stateCode":"18","latitude":68.40998,"longitude":15.99012},{"name":"Lom","countryCode":"NO","stateCode":"05","latitude":61.83639,"longitude":8.56811},{"name":"Lonevåg","countryCode":"NO","stateCode":"12","latitude":60.52556,"longitude":5.49563},{"name":"Loppa","countryCode":"NO","stateCode":"20","latitude":70.23952,"longitude":22.35136},{"name":"Løpsmarka","countryCode":"NO","stateCode":"18","latitude":67.31343,"longitude":14.44934},{"name":"Lørenskog","countryCode":"NO","stateCode":"02","latitude":59.93209,"longitude":10.96079},{"name":"Løten","countryCode":"NO","stateCode":"04","latitude":60.81771,"longitude":11.34373},{"name":"Lund","countryCode":"NO","stateCode":"11","latitude":58.45715,"longitude":6.54871},{"name":"Lundamo","countryCode":"NO","stateCode":"50","latitude":63.15216,"longitude":10.28555},{"name":"Lunde","countryCode":"NO","stateCode":"08","latitude":59.29832,"longitude":9.10268},{"name":"Lunner","countryCode":"NO","stateCode":"05","latitude":60.29462,"longitude":10.6086},{"name":"Lurøy","countryCode":"NO","stateCode":"18","latitude":66.41887,"longitude":12.84248},{"name":"Luster","countryCode":"NO","stateCode":"14","latitude":61.4031,"longitude":7.29793},{"name":"Lyefjell","countryCode":"NO","stateCode":"11","latitude":58.73539,"longitude":5.73615},{"name":"Lyngdal","countryCode":"NO","stateCode":"10","latitude":58.13829,"longitude":7.06836},{"name":"Lyngen","countryCode":"NO","stateCode":"19","latitude":69.57621,"longitude":20.21702},{"name":"Lyngseidet","countryCode":"NO","stateCode":"19","latitude":69.57629,"longitude":20.21887},{"name":"Lysaker","countryCode":"NO","stateCode":"02","latitude":59.90994,"longitude":10.63545},{"name":"Malm","countryCode":"NO","stateCode":"50","latitude":64.07534,"longitude":11.22398},{"name":"Måløy","countryCode":"NO","stateCode":"14","latitude":61.93535,"longitude":5.11362},{"name":"Målselv","countryCode":"NO","stateCode":"19","latitude":69.12389,"longitude":18.61498},{"name":"Malvik","countryCode":"NO","stateCode":"50","latitude":63.41057,"longitude":10.79382},{"name":"Mandal","countryCode":"NO","stateCode":"10","latitude":58.02633,"longitude":7.45014},{"name":"Manger","countryCode":"NO","stateCode":"12","latitude":60.64145,"longitude":5.04136},{"name":"Marker","countryCode":"NO","stateCode":"01","latitude":59.47952,"longitude":11.65917},{"name":"Marnardal","countryCode":"NO","stateCode":"10","latitude":58.19802,"longitude":7.52802},{"name":"Masfjorden","countryCode":"NO","stateCode":"12","latitude":60.79947,"longitude":5.30035},{"name":"Måsøy","countryCode":"NO","stateCode":"20","latitude":70.99654,"longitude":24.66146},{"name":"Maura","countryCode":"NO","stateCode":"02","latitude":60.2583,"longitude":11.03192},{"name":"Mehamn","countryCode":"NO","stateCode":"20","latitude":71.04137,"longitude":27.85133},{"name":"Meland","countryCode":"NO","stateCode":"12","latitude":60.51777,"longitude":5.24063},{"name":"Melbu","countryCode":"NO","stateCode":"18","latitude":68.50246,"longitude":14.79962},{"name":"Meldal","countryCode":"NO","stateCode":"50","latitude":63.04598,"longitude":9.71088},{"name":"Melhus","countryCode":"NO","stateCode":"50","latitude":63.28755,"longitude":10.27686},{"name":"Meløy","countryCode":"NO","stateCode":"18","latitude":66.87204,"longitude":13.70763},{"name":"Melsomvik","countryCode":"NO","stateCode":"07","latitude":59.22394,"longitude":10.33616},{"name":"Meråker","countryCode":"NO","stateCode":"50","latitude":63.41423,"longitude":11.74558},{"name":"Midsund","countryCode":"NO","stateCode":"15","latitude":62.67614,"longitude":6.67776},{"name":"Midtre Gauldal","countryCode":"NO","stateCode":"50","latitude":63.03902,"longitude":10.28701},{"name":"Mo i Rana","countryCode":"NO","stateCode":"18","latitude":66.31278,"longitude":14.14278},{"name":"Modalen","countryCode":"NO","stateCode":"12","latitude":60.81735,"longitude":5.8079},{"name":"Modum","countryCode":"NO","stateCode":"06","latitude":59.97346,"longitude":10.00468},{"name":"Moelv","countryCode":"NO","stateCode":"04","latitude":60.93333,"longitude":10.7},{"name":"Moen","countryCode":"NO","stateCode":"19","latitude":69.13043,"longitude":18.61226},{"name":"Moi","countryCode":"NO","stateCode":"11","latitude":58.45674,"longitude":6.55184},{"name":"Molde","countryCode":"NO","stateCode":"15","latitude":62.73807,"longitude":7.15882},{"name":"Mosjøen","countryCode":"NO","stateCode":"18","latitude":65.83599,"longitude":13.19076},{"name":"Moskenes","countryCode":"NO","stateCode":"18","latitude":67.93467,"longitude":13.09109},{"name":"Moss","countryCode":"NO","stateCode":"01","latitude":59.43436,"longitude":10.65968},{"name":"Mosterhamn","countryCode":"NO","stateCode":"12","latitude":59.69919,"longitude":5.38585},{"name":"Myre","countryCode":"NO","stateCode":"18","latitude":68.914,"longitude":15.07843},{"name":"Mysen","countryCode":"NO","stateCode":"01","latitude":59.55354,"longitude":11.32578},{"name":"Nærbø","countryCode":"NO","stateCode":"11","latitude":58.66546,"longitude":5.63788},{"name":"Nærøy","countryCode":"NO","stateCode":"50","latitude":64.86298,"longitude":11.60505},{"name":"Namdalseid","countryCode":"NO","stateCode":"50","latitude":64.10843,"longitude":10.91862},{"name":"Namsos","countryCode":"NO","stateCode":"50","latitude":64.47842,"longitude":11.54182},{"name":"Namsskogan","countryCode":"NO","stateCode":"50","latitude":64.92597,"longitude":13.15932},{"name":"Nannestad","countryCode":"NO","stateCode":"02","latitude":60.21707,"longitude":11.012},{"name":"Narvik","countryCode":"NO","stateCode":"18","latitude":68.43896,"longitude":17.42775},{"name":"Naustdal","countryCode":"NO","stateCode":"14","latitude":61.51034,"longitude":5.71719},{"name":"Nedre Eiker","countryCode":"NO","stateCode":"06","latitude":59.75023,"longitude":10.00736},{"name":"Nes","countryCode":"NO","stateCode":"02","latitude":60.12252,"longitude":11.4657},{"name":"Nes","countryCode":"NO","stateCode":"06","latitude":60.56804,"longitude":9.10169},{"name":"Nesbyen","countryCode":"NO","stateCode":"06","latitude":60.56809,"longitude":9.10274},{"name":"Neskollen","countryCode":"NO","stateCode":"02","latitude":60.12159,"longitude":11.33926},{"name":"Nesna","countryCode":"NO","stateCode":"18","latitude":66.19796,"longitude":13.02229},{"name":"Nesodden","countryCode":"NO","stateCode":"02","latitude":59.8422,"longitude":10.6494},{"name":"Nesoddtangen","countryCode":"NO","stateCode":"02","latitude":59.86244,"longitude":10.66308},{"name":"Nesseby","countryCode":"NO","stateCode":"20","latitude":69.88541,"longitude":28.43368},{"name":"Nesset","countryCode":"NO","stateCode":"15","latitude":62.77619,"longitude":8.06623},{"name":"Nissedal","countryCode":"NO","stateCode":"08","latitude":59.01958,"longitude":8.52127},{"name":"Nittedal","countryCode":"NO","stateCode":"02","latitude":60.04278,"longitude":10.88167},{"name":"Nodeland","countryCode":"NO","stateCode":"10","latitude":58.15517,"longitude":7.83576},{"name":"Nome","countryCode":"NO","stateCode":"08","latitude":59.28136,"longitude":9.25678},{"name":"Nord-Aurdal","countryCode":"NO","stateCode":"05","latitude":60.98531,"longitude":9.23661},{"name":"Nord-Fron","countryCode":"NO","stateCode":"05","latitude":61.59556,"longitude":9.7483},{"name":"Nord-Odal","countryCode":"NO","stateCode":"04","latitude":60.39195,"longitude":11.54151},{"name":"Norddal","countryCode":"NO","stateCode":"15","latitude":62.2991,"longitude":7.26145},{"name":"Nordfjordeid","countryCode":"NO","stateCode":"14","latitude":61.9122,"longitude":5.98557},{"name":"Nordkapp","countryCode":"NO","stateCode":"20","latitude":70.97808,"longitude":25.97473},{"name":"Nordre Land","countryCode":"NO","stateCode":"05","latitude":60.83471,"longitude":10.07543},{"name":"Nordreisa","countryCode":"NO","stateCode":"19","latitude":69.76825,"longitude":21.02569},{"name":"Nordstranda","countryCode":"NO","stateCode":"15","latitude":62.51384,"longitude":6.13166},{"name":"Nore og Uvdal","countryCode":"NO","stateCode":"06","latitude":60.26706,"longitude":8.94635},{"name":"Noresund","countryCode":"NO","stateCode":"06","latitude":60.17985,"longitude":9.62411},{"name":"Norheimsund","countryCode":"NO","stateCode":"12","latitude":60.37089,"longitude":6.14562},{"name":"Notodden","countryCode":"NO","stateCode":"08","latitude":59.55992,"longitude":9.26046},{"name":"Odda","countryCode":"NO","stateCode":"12","latitude":60.06697,"longitude":6.54541},{"name":"Øksfjord","countryCode":"NO","stateCode":"20","latitude":70.23936,"longitude":22.3507},{"name":"Øksnes","countryCode":"NO","stateCode":"18","latitude":68.91463,"longitude":15.08703},{"name":"Olderdalen","countryCode":"NO","stateCode":"19","latitude":69.60407,"longitude":20.53272},{"name":"Ølen","countryCode":"NO","stateCode":"11","latitude":59.60437,"longitude":5.80799},{"name":"Oppdal","countryCode":"NO","stateCode":"50","latitude":62.59495,"longitude":9.68761},{"name":"Oppegård","countryCode":"NO","stateCode":"02","latitude":59.81149,"longitude":10.79712},{"name":"Ørje","countryCode":"NO","stateCode":"01","latitude":59.48023,"longitude":11.66016},{"name":"Orkdal","countryCode":"NO","stateCode":"50","latitude":63.29989,"longitude":9.84365},{"name":"Ørland","countryCode":"NO","stateCode":"50","latitude":63.68574,"longitude":9.66633},{"name":"Ørnes","countryCode":"NO","stateCode":"18","latitude":66.86878,"longitude":13.70579},{"name":"Ørskog","countryCode":"NO","stateCode":"15","latitude":62.4845,"longitude":6.82025},{"name":"Ørsta","countryCode":"NO","stateCode":"15","latitude":62.19937,"longitude":6.13084},{"name":"Os","countryCode":"NO","stateCode":"04","latitude":62.49536,"longitude":11.22807},{"name":"Os","countryCode":"NO","stateCode":"12","latitude":60.18547,"longitude":5.46962},{"name":"Osen","countryCode":"NO","stateCode":"50","latitude":64.29875,"longitude":10.51284},{"name":"Oslo","countryCode":"NO","stateCode":"03","latitude":59.91273,"longitude":10.74609},{"name":"Osterøy","countryCode":"NO","stateCode":"12","latitude":60.52389,"longitude":5.50551},{"name":"Østre Toten","countryCode":"NO","stateCode":"05","latitude":60.67659,"longitude":10.81997},{"name":"Otta","countryCode":"NO","stateCode":"05","latitude":61.7712,"longitude":9.53529},{"name":"Overhalla","countryCode":"NO","stateCode":"50","latitude":64.4938,"longitude":11.94753},{"name":"Øvre Eiker","countryCode":"NO","stateCode":"06","latitude":59.77111,"longitude":9.9084},{"name":"Øyer","countryCode":"NO","stateCode":"05","latitude":61.26495,"longitude":10.41297},{"name":"Øygarden","countryCode":"NO","stateCode":"12","latitude":60.59041,"longitude":4.8389},{"name":"Øystese","countryCode":"NO","stateCode":"12","latitude":60.38825,"longitude":6.19251},{"name":"Øystre Slidre","countryCode":"NO","stateCode":"05","latitude":61.13377,"longitude":9.07872},{"name":"Porsanger","countryCode":"NO","stateCode":"20","latitude":70.05214,"longitude":24.95592},{"name":"Porsgrunn","countryCode":"NO","stateCode":"08","latitude":59.1419,"longitude":9.6568},{"name":"Prestestranda","countryCode":"NO","stateCode":"08","latitude":59.09773,"longitude":9.05866},{"name":"Prestfoss","countryCode":"NO","stateCode":"06","latitude":60.04343,"longitude":9.6352},{"name":"Raarvihke - Røyrvik","countryCode":"NO","stateCode":"50","latitude":64.8838,"longitude":13.5631},{"name":"Råde","countryCode":"NO","stateCode":"01","latitude":59.35162,"longitude":10.87135},{"name":"Radøy","countryCode":"NO","stateCode":"12","latitude":60.64187,"longitude":5.0411},{"name":"Rælingen","countryCode":"NO","stateCode":"02","latitude":59.92626,"longitude":11.06527},{"name":"Råholt","countryCode":"NO","stateCode":"02","latitude":60.27513,"longitude":11.17901},{"name":"Rakkestad","countryCode":"NO","stateCode":"01","latitude":59.42822,"longitude":11.3435},{"name":"Rana","countryCode":"NO","stateCode":"18","latitude":66.31122,"longitude":14.13996},{"name":"Randaberg","countryCode":"NO","stateCode":"11","latitude":58.9987,"longitude":5.62055},{"name":"Ranemsletta","countryCode":"NO","stateCode":"50","latitude":64.49447,"longitude":11.94912},{"name":"Raufoss","countryCode":"NO","stateCode":"05","latitude":60.72604,"longitude":10.6133},{"name":"Rauma","countryCode":"NO","stateCode":"15","latitude":62.5681,"longitude":7.68612},{"name":"Re","countryCode":"NO","stateCode":"07","latitude":59.35056,"longitude":10.24763},{"name":"Reine","countryCode":"NO","stateCode":"18","latitude":67.93249,"longitude":13.08955},{"name":"Reinsvoll","countryCode":"NO","stateCode":"05","latitude":60.67977,"longitude":10.62175},{"name":"Rena","countryCode":"NO","stateCode":"04","latitude":61.13222,"longitude":11.37156},{"name":"Rendalen","countryCode":"NO","stateCode":"04","latitude":61.89004,"longitude":11.07694},{"name":"Rennebu","countryCode":"NO","stateCode":"50","latitude":62.82864,"longitude":10.00487},{"name":"Rennesøy","countryCode":"NO","stateCode":"11","latitude":59.09899,"longitude":5.69966},{"name":"Rensvik","countryCode":"NO","stateCode":"15","latitude":63.09843,"longitude":7.82026},{"name":"Rindal","countryCode":"NO","stateCode":"50","latitude":63.05511,"longitude":9.21274},{"name":"Ringebu","countryCode":"NO","stateCode":"05","latitude":61.5298,"longitude":10.1418},{"name":"Ringerike","countryCode":"NO","stateCode":"06","latitude":60.16018,"longitude":10.2566},{"name":"Ringsaker","countryCode":"NO","stateCode":"04","latitude":60.88216,"longitude":10.9503},{"name":"Rjukan","countryCode":"NO","stateCode":"08","latitude":59.87891,"longitude":8.59411},{"name":"Roan","countryCode":"NO","stateCode":"50","latitude":64.17281,"longitude":10.22511},{"name":"Rødøy","countryCode":"NO","stateCode":"18","latitude":66.71195,"longitude":13.2853},{"name":"Rognan","countryCode":"NO","stateCode":"18","latitude":67.10021,"longitude":15.39086},{"name":"Rollag","countryCode":"NO","stateCode":"06","latitude":59.98413,"longitude":9.29489},{"name":"Rømskog","countryCode":"NO","stateCode":"01","latitude":59.74968,"longitude":11.81122},{"name":"Røros","countryCode":"NO","stateCode":"50","latitude":62.57562,"longitude":11.3873},{"name":"Rørvik","countryCode":"NO","stateCode":"50","latitude":64.86185,"longitude":11.23969},{"name":"Rosendal","countryCode":"NO","stateCode":"12","latitude":59.98589,"longitude":6.01157},{"name":"Røst","countryCode":"NO","stateCode":"18","latitude":67.51727,"longitude":12.11564},{"name":"Rotnes","countryCode":"NO","stateCode":"02","latitude":60.05707,"longitude":10.86135},{"name":"Røyken","countryCode":"NO","stateCode":"06","latitude":59.74019,"longitude":10.41321},{"name":"Røyrvik","countryCode":"NO","stateCode":"50","latitude":64.88394,"longitude":13.56256},{"name":"Rubbestadneset","countryCode":"NO","stateCode":"12","latitude":59.81559,"longitude":5.26822},{"name":"Rygge","countryCode":"NO","stateCode":"01","latitude":59.40629,"longitude":10.69298},{"name":"Ryggebyen","countryCode":"NO","stateCode":"01","latitude":59.375,"longitude":10.75},{"name":"Rypefjord","countryCode":"NO","stateCode":"20","latitude":70.64126,"longitude":23.67213},{"name":"Sætre","countryCode":"NO","stateCode":"06","latitude":59.68129,"longitude":10.52749},{"name":"Sæveland","countryCode":"NO","stateCode":"11","latitude":59.26667,"longitude":5.2},{"name":"Sagvåg","countryCode":"NO","stateCode":"12","latitude":59.78139,"longitude":5.38996},{"name":"Salangen","countryCode":"NO","stateCode":"19","latitude":68.87669,"longitude":17.83375},{"name":"Saltdal","countryCode":"NO","stateCode":"18","latitude":67.10144,"longitude":15.39458},{"name":"Samnanger","countryCode":"NO","stateCode":"12","latitude":60.37745,"longitude":5.76219},{"name":"Sand","countryCode":"NO","stateCode":"04","latitude":60.3922,"longitude":11.5403},{"name":"Sandane","countryCode":"NO","stateCode":"14","latitude":61.77277,"longitude":6.21496},{"name":"Sande","countryCode":"NO","stateCode":"07","latitude":59.59362,"longitude":10.20757},{"name":"Sande","countryCode":"NO","stateCode":"14","latitude":61.32511,"longitude":5.79773},{"name":"Sande","countryCode":"NO","stateCode":"15","latitude":62.20455,"longitude":5.57971},{"name":"Sandefjord","countryCode":"NO","stateCode":"07","latitude":59.12881,"longitude":10.21971},{"name":"Sandnes","countryCode":"NO","stateCode":"11","latitude":58.8476,"longitude":5.72855},{"name":"Sandnessjøen","countryCode":"NO","stateCode":"18","latitude":66.02166,"longitude":12.63158},{"name":"Sandøy","countryCode":"NO","stateCode":"15","latitude":62.78167,"longitude":6.46875},{"name":"Sandsli","countryCode":"NO","stateCode":"12","latitude":60.30323,"longitude":5.28554},{"name":"Sarpsborg","countryCode":"NO","stateCode":"01","latitude":59.28148,"longitude":11.11167},{"name":"Sauda","countryCode":"NO","stateCode":"11","latitude":59.65067,"longitude":6.35312},{"name":"Sauherad","countryCode":"NO","stateCode":"08","latitude":59.39642,"longitude":9.2491},{"name":"Sel","countryCode":"NO","stateCode":"05","latitude":61.77278,"longitude":9.53415},{"name":"Selbu","countryCode":"NO","stateCode":"50","latitude":63.2177,"longitude":11.03938},{"name":"Selje","countryCode":"NO","stateCode":"14","latitude":62.04263,"longitude":5.34449},{"name":"Seljord","countryCode":"NO","stateCode":"08","latitude":59.48274,"longitude":8.62672},{"name":"Selvik","countryCode":"NO","stateCode":"07","latitude":59.56645,"longitude":10.26004},{"name":"Sem","countryCode":"NO","stateCode":"07","latitude":59.2823,"longitude":10.33004},{"name":"Setermoen","countryCode":"NO","stateCode":"19","latitude":68.86099,"longitude":18.34857},{"name":"Sigdal","countryCode":"NO","stateCode":"06","latitude":60.04592,"longitude":9.63673},{"name":"Siljan","countryCode":"NO","stateCode":"08","latitude":59.28251,"longitude":9.73368},{"name":"Sirdal","countryCode":"NO","stateCode":"10","latitude":58.6651,"longitude":6.71585},{"name":"Sistranda","countryCode":"NO","stateCode":"50","latitude":63.72523,"longitude":8.83318},{"name":"Sjøholt","countryCode":"NO","stateCode":"15","latitude":62.48263,"longitude":6.81376},{"name":"Sjølyststranda","countryCode":"NO","stateCode":"03","latitude":59.92105,"longitude":10.68017},{"name":"Sjøvegan","countryCode":"NO","stateCode":"19","latitude":68.87363,"longitude":17.84706},{"name":"Skålevik","countryCode":"NO","stateCode":"10","latitude":58.07955,"longitude":8.01602},{"name":"Skånland","countryCode":"NO","stateCode":"19","latitude":68.58378,"longitude":16.57305},{"name":"Skarnes","countryCode":"NO","stateCode":"04","latitude":60.25391,"longitude":11.68485},{"name":"Skaun","countryCode":"NO","stateCode":"50","latitude":63.32386,"longitude":10.06745},{"name":"Skedsmo","countryCode":"NO","stateCode":"02","latitude":59.95448,"longitude":11.03952},{"name":"Ski","countryCode":"NO","stateCode":"02","latitude":59.72049,"longitude":10.83882},{"name":"Skien","countryCode":"NO","stateCode":"08","latitude":59.20748,"longitude":9.61052},{"name":"Skiptvet","countryCode":"NO","stateCode":"01","latitude":59.47751,"longitude":11.16171},{"name":"Skjærhalden","countryCode":"NO","stateCode":"01","latitude":59.02526,"longitude":11.03685},{"name":"Skjåk","countryCode":"NO","stateCode":"05","latitude":61.88349,"longitude":8.2649},{"name":"Skjeberg","countryCode":"NO","stateCode":"01","latitude":59.21148,"longitude":11.19025},{"name":"Skjervøy","countryCode":"NO","stateCode":"19","latitude":70.03379,"longitude":20.97365},{"name":"Skodje","countryCode":"NO","stateCode":"15","latitude":62.50306,"longitude":6.69817},{"name":"Skoger","countryCode":"NO","stateCode":"06","latitude":59.71327,"longitude":10.25356},{"name":"Skogn","countryCode":"NO","stateCode":"50","latitude":63.70374,"longitude":11.19262},{"name":"Skogsvågen","countryCode":"NO","stateCode":"12","latitude":60.25512,"longitude":5.10161},{"name":"Skoppum","countryCode":"NO","stateCode":"07","latitude":59.38613,"longitude":10.41077},{"name":"Skotterud","countryCode":"NO","stateCode":"04","latitude":59.98281,"longitude":12.12825},{"name":"Skreia","countryCode":"NO","stateCode":"05","latitude":60.65257,"longitude":10.93564},{"name":"Skudeneshavn","countryCode":"NO","stateCode":"11","latitude":59.14856,"longitude":5.25687},{"name":"Skui","countryCode":"NO","stateCode":"02","latitude":59.92746,"longitude":10.4475},{"name":"Smøla","countryCode":"NO","stateCode":"15","latitude":63.46526,"longitude":8.01814},{"name":"Snåase","countryCode":"NO","stateCode":"50","latitude":64.2457,"longitude":12.37779},{"name":"Snåase - Snåsa","countryCode":"NO","stateCode":"50","latitude":64.24606,"longitude":12.38294},{"name":"Snillfjord","countryCode":"NO","stateCode":"50","latitude":63.39973,"longitude":9.50194},{"name":"Sogndal","countryCode":"NO","stateCode":"14","latitude":61.23144,"longitude":7.10301},{"name":"Søgne","countryCode":"NO","stateCode":"10","latitude":58.09663,"longitude":7.81491},{"name":"Sokndal","countryCode":"NO","stateCode":"11","latitude":58.34256,"longitude":6.29425},{"name":"Sola","countryCode":"NO","stateCode":"11","latitude":58.88806,"longitude":5.64728},{"name":"Solund","countryCode":"NO","stateCode":"14","latitude":61.07394,"longitude":4.83876},{"name":"Sømna","countryCode":"NO","stateCode":"18","latitude":65.31379,"longitude":12.16729},{"name":"Søndre Land","countryCode":"NO","stateCode":"05","latitude":60.69944,"longitude":10.35086},{"name":"Songdalen","countryCode":"NO","stateCode":"10","latitude":58.15273,"longitude":7.83677},{"name":"Sør-Aurdal","countryCode":"NO","stateCode":"05","latitude":60.82242,"longitude":9.54836},{"name":"Sør-Fron","countryCode":"NO","stateCode":"05","latitude":61.55652,"longitude":9.93949},{"name":"Sør-Odal","countryCode":"NO","stateCode":"04","latitude":60.25455,"longitude":11.68246},{"name":"Sør-Varanger","countryCode":"NO","stateCode":"20","latitude":69.72859,"longitude":30.04264},{"name":"Sørfold","countryCode":"NO","stateCode":"18","latitude":67.34803,"longitude":15.59445},{"name":"Sørland","countryCode":"NO","stateCode":"18","latitude":67.66564,"longitude":12.69784},{"name":"Sørreisa","countryCode":"NO","stateCode":"19","latitude":69.14697,"longitude":18.15629},{"name":"Sortland","countryCode":"NO","stateCode":"18","latitude":68.69618,"longitude":15.41174},{"name":"Sørum","countryCode":"NO","stateCode":"02","latitude":59.98709,"longitude":11.24019},{"name":"Sørumsand","countryCode":"NO","stateCode":"02","latitude":59.98621,"longitude":11.24154},{"name":"Spetalen","countryCode":"NO","stateCode":"04","latitude":60.18333,"longitude":11.9},{"name":"Spydeberg","countryCode":"NO","stateCode":"01","latitude":59.62028,"longitude":11.08069},{"name":"Stange","countryCode":"NO","stateCode":"04","latitude":60.71576,"longitude":11.19069},{"name":"Stavanger","countryCode":"NO","stateCode":"11","latitude":58.96941,"longitude":5.72856},{"name":"Stavern","countryCode":"NO","stateCode":"07","latitude":59,"longitude":10.03333},{"name":"Steigen","countryCode":"NO","stateCode":"18","latitude":67.77625,"longitude":15.01621},{"name":"Steinkjer","countryCode":"NO","stateCode":"50","latitude":64.19303,"longitude":11.38505},{"name":"Steinshamn","countryCode":"NO","stateCode":"15","latitude":62.78389,"longitude":6.47065},{"name":"Stjørdal","countryCode":"NO","stateCode":"50","latitude":63.56699,"longitude":11.0273},{"name":"Stjørdalshalsen","countryCode":"NO","stateCode":"50","latitude":63.4681,"longitude":10.92618},{"name":"Stokke","countryCode":"NO","stateCode":"07","latitude":59.22255,"longitude":10.30055},{"name":"Stokmarknes","countryCode":"NO","stateCode":"18","latitude":68.56462,"longitude":14.91075},{"name":"Stor-Elvdal","countryCode":"NO","stateCode":"04","latitude":61.57198,"longitude":11.04759},{"name":"Stord","countryCode":"NO","stateCode":"12","latitude":59.78092,"longitude":5.4998},{"name":"Stordal","countryCode":"NO","stateCode":"15","latitude":62.38214,"longitude":6.98708},{"name":"Storebø","countryCode":"NO","stateCode":"12","latitude":60.09485,"longitude":5.22705},{"name":"Storfjord","countryCode":"NO","stateCode":"19","latitude":69.2686,"longitude":19.96089},{"name":"Storslett","countryCode":"NO","stateCode":"19","latitude":69.76783,"longitude":21.02466},{"name":"Storsteinnes","countryCode":"NO","stateCode":"19","latitude":69.24081,"longitude":19.23437},{"name":"Strai","countryCode":"NO","stateCode":"10","latitude":58.1893,"longitude":7.92826},{"name":"Strand","countryCode":"NO","stateCode":"11","latitude":59.02353,"longitude":6.04343},{"name":"Stranda","countryCode":"NO","stateCode":"15","latitude":62.31132,"longitude":6.93115},{"name":"Straume","countryCode":"NO","stateCode":"12","latitude":60.36131,"longitude":5.12199},{"name":"Straume","countryCode":"NO","stateCode":"18","latitude":68.6888,"longitude":14.47205},{"name":"Straumen","countryCode":"NO","stateCode":"18","latitude":67.34769,"longitude":15.60493},{"name":"Straumen","countryCode":"NO","stateCode":"50","latitude":63.87163,"longitude":11.29617},{"name":"Stryn","countryCode":"NO","stateCode":"14","latitude":61.90406,"longitude":6.724},{"name":"Sula","countryCode":"NO","stateCode":"15","latitude":62.44447,"longitude":6.21229},{"name":"Suldal","countryCode":"NO","stateCode":"11","latitude":59.48571,"longitude":6.25222},{"name":"Sund","countryCode":"NO","stateCode":"12","latitude":60.27019,"longitude":5.07225},{"name":"Sunndal","countryCode":"NO","stateCode":"15","latitude":62.67464,"longitude":8.56188},{"name":"Sunndalsøra","countryCode":"NO","stateCode":"15","latitude":62.67519,"longitude":8.56327},{"name":"Surnadal","countryCode":"NO","stateCode":"15","latitude":62.97533,"longitude":8.7249},{"name":"Sveio","countryCode":"NO","stateCode":"12","latitude":59.54303,"longitude":5.3541},{"name":"Svelgen","countryCode":"NO","stateCode":"14","latitude":61.76976,"longitude":5.29544},{"name":"Svelvik","countryCode":"NO","stateCode":"07","latitude":59.60677,"longitude":10.40225},{"name":"Svolvær","countryCode":"NO","stateCode":"18","latitude":68.23417,"longitude":14.56834},{"name":"Syfteland","countryCode":"NO","stateCode":"12","latitude":60.23803,"longitude":5.45285},{"name":"Sykkylven","countryCode":"NO","stateCode":"15","latitude":62.38962,"longitude":6.57825},{"name":"Tana","countryCode":"NO","stateCode":"20","latitude":70.19976,"longitude":28.18494},{"name":"Tananger","countryCode":"NO","stateCode":"11","latitude":58.93618,"longitude":5.5741},{"name":"Tau","countryCode":"NO","stateCode":"11","latitude":59.06481,"longitude":5.9225},{"name":"Terråk","countryCode":"NO","stateCode":"18","latitude":65.087,"longitude":12.37148},{"name":"Time","countryCode":"NO","stateCode":"11","latitude":58.73636,"longitude":5.65297},{"name":"Tingvoll","countryCode":"NO","stateCode":"15","latitude":62.91194,"longitude":8.20673},{"name":"Tinn","countryCode":"NO","stateCode":"08","latitude":59.83486,"longitude":9.13528},{"name":"Tjeldsund","countryCode":"NO","stateCode":"18","latitude":68.55557,"longitude":16.36172},{"name":"Tjøme","countryCode":"NO","stateCode":"07","latitude":59.1109,"longitude":10.3933},{"name":"Tofte","countryCode":"NO","stateCode":"06","latitude":59.54275,"longitude":10.56138},{"name":"Tokke","countryCode":"NO","stateCode":"08","latitude":59.44569,"longitude":8.01388},{"name":"Tolga","countryCode":"NO","stateCode":"04","latitude":62.40984,"longitude":10.9977},{"name":"Tomra","countryCode":"NO","stateCode":"15","latitude":62.58118,"longitude":6.93106},{"name":"Tomter","countryCode":"NO","stateCode":"01","latitude":59.6591,"longitude":10.99487},{"name":"Tønsberg","countryCode":"NO","stateCode":"07","latitude":59.26754,"longitude":10.40762},{"name":"Tonstad","countryCode":"NO","stateCode":"10","latitude":58.66263,"longitude":6.71694},{"name":"Torsken","countryCode":"NO","stateCode":"19","latitude":69.36184,"longitude":17.05384},{"name":"Træna","countryCode":"NO","stateCode":"18","latitude":66.50159,"longitude":12.09645},{"name":"Tranby","countryCode":"NO","stateCode":"06","latitude":59.8085,"longitude":10.26114},{"name":"Tranøy","countryCode":"NO","stateCode":"19","latitude":69.17022,"longitude":17.7348},{"name":"Tretten","countryCode":"NO","stateCode":"05","latitude":61.31423,"longitude":10.30066},{"name":"Trofors","countryCode":"NO","stateCode":"18","latitude":65.53335,"longitude":13.40631},{"name":"Trøgstad","countryCode":"NO","stateCode":"01","latitude":59.64016,"longitude":11.3189},{"name":"Tromsø","countryCode":"NO","stateCode":"19","latitude":69.64961,"longitude":18.95702},{"name":"Trondheim","countryCode":"NO","stateCode":"50","latitude":63.42811,"longitude":10.39687},{"name":"Trysil","countryCode":"NO","stateCode":"04","latitude":61.31549,"longitude":12.26422},{"name":"Tveit","countryCode":"NO","stateCode":"10","latitude":58.23366,"longitude":8.12199},{"name":"Tydal","countryCode":"NO","stateCode":"50","latitude":63.04477,"longitude":11.65038},{"name":"Tynset","countryCode":"NO","stateCode":"04","latitude":62.27387,"longitude":10.77626},{"name":"Tysfjord","countryCode":"NO","stateCode":"18","latitude":68.09772,"longitude":16.37591},{"name":"Tysnes","countryCode":"NO","stateCode":"12","latitude":60.04076,"longitude":5.53129},{"name":"Tysvær","countryCode":"NO","stateCode":"11","latitude":59.42159,"longitude":5.44781},{"name":"Ulefoss","countryCode":"NO","stateCode":"08","latitude":59.28245,"longitude":9.26548},{"name":"Ullensaker","countryCode":"NO","stateCode":"02","latitude":60.14401,"longitude":11.17441},{"name":"Ullensvang","countryCode":"NO","stateCode":"12","latitude":60.37501,"longitude":6.72073},{"name":"Ulstein","countryCode":"NO","stateCode":"15","latitude":62.34423,"longitude":5.85241},{"name":"Ulsteinvik","countryCode":"NO","stateCode":"15","latitude":62.34317,"longitude":5.84869},{"name":"Ulsteinvik weather pws station","countryCode":"NO","stateCode":"15","latitude":62.34338,"longitude":5.84385},{"name":"Ulvik","countryCode":"NO","stateCode":"12","latitude":60.56719,"longitude":6.91871},{"name":"Utsira","countryCode":"NO","stateCode":"11","latitude":59.30565,"longitude":4.88621},{"name":"Vadsø","countryCode":"NO","stateCode":"20","latitude":70.07412,"longitude":29.74922},{"name":"Værøy","countryCode":"NO","stateCode":"18","latitude":67.66374,"longitude":12.69337},{"name":"Vågå","countryCode":"NO","stateCode":"05","latitude":61.87565,"longitude":9.09572},{"name":"Vågåmo","countryCode":"NO","stateCode":"05","latitude":61.87505,"longitude":9.09671},{"name":"Vågan","countryCode":"NO","stateCode":"18","latitude":68.2322,"longitude":14.56226},{"name":"Vågsøy","countryCode":"NO","stateCode":"14","latitude":61.93544,"longitude":5.11402},{"name":"Vaksdal","countryCode":"NO","stateCode":"12","latitude":60.5903,"longitude":5.82272},{"name":"Våler","countryCode":"NO","stateCode":"01","latitude":59.4887,"longitude":10.86551},{"name":"Våler","countryCode":"NO","stateCode":"04","latitude":60.67845,"longitude":11.83314},{"name":"Vang","countryCode":"NO","stateCode":"05","latitude":61.12564,"longitude":8.57167},{"name":"Vanse","countryCode":"NO","stateCode":"10","latitude":58.09812,"longitude":6.69184},{"name":"Vanylven","countryCode":"NO","stateCode":"15","latitude":62.10003,"longitude":5.55827},{"name":"Vardø","countryCode":"NO","stateCode":"20","latitude":70.3704,"longitude":31.10866},{"name":"Varhaug","countryCode":"NO","stateCode":"11","latitude":58.6181,"longitude":5.65702},{"name":"Vatne","countryCode":"NO","stateCode":"15","latitude":62.55826,"longitude":6.61708},{"name":"Vedavågen","countryCode":"NO","stateCode":"11","latitude":59.29483,"longitude":5.21874},{"name":"Vefsn","countryCode":"NO","stateCode":"18","latitude":65.84109,"longitude":13.20024},{"name":"Vega","countryCode":"NO","stateCode":"18","latitude":65.67539,"longitude":11.96456},{"name":"Vennesla","countryCode":"NO","stateCode":"10","latitude":58.34271,"longitude":7.97596},{"name":"Verdal","countryCode":"NO","stateCode":"50","latitude":63.90023,"longitude":11.72724},{"name":"Verran","countryCode":"NO","stateCode":"50","latitude":64.071,"longitude":11.21795},{"name":"Vestby","countryCode":"NO","stateCode":"02","latitude":59.60228,"longitude":10.74807},{"name":"Vestbygd","countryCode":"NO","stateCode":"10","latitude":58.09991,"longitude":6.58696},{"name":"Vestnes","countryCode":"NO","stateCode":"15","latitude":62.6213,"longitude":7.08966},{"name":"Vestre Slidre","countryCode":"NO","stateCode":"05","latitude":61.08842,"longitude":8.98196},{"name":"Vestre Toten","countryCode":"NO","stateCode":"05","latitude":60.72593,"longitude":10.60764},{"name":"Vestvågøy","countryCode":"NO","stateCode":"18","latitude":68.1483,"longitude":13.61119},{"name":"Vevelstad","countryCode":"NO","stateCode":"18","latitude":65.70002,"longitude":12.43921},{"name":"Vigeland","countryCode":"NO","stateCode":"10","latitude":58.08437,"longitude":7.30497},{"name":"Vigrestad","countryCode":"NO","stateCode":"11","latitude":58.57103,"longitude":5.68182},{"name":"Vik","countryCode":"NO","stateCode":"14","latitude":61.08863,"longitude":6.58512},{"name":"Vik","countryCode":"NO","stateCode":"18","latitude":65.31254,"longitude":12.16734},{"name":"Vikersund","countryCode":"NO","stateCode":"06","latitude":59.96838,"longitude":9.99107},{"name":"Vikeså","countryCode":"NO","stateCode":"11","latitude":58.63759,"longitude":6.09133},{"name":"Vikevåg","countryCode":"NO","stateCode":"11","latitude":59.09754,"longitude":5.6979},{"name":"Vikna","countryCode":"NO","stateCode":"50","latitude":64.86362,"longitude":11.24198},{"name":"Vindafjord","countryCode":"NO","stateCode":"11","latitude":59.60543,"longitude":5.80784},{"name":"Vinje","countryCode":"NO","stateCode":"08","latitude":59.56924,"longitude":7.98896},{"name":"Vinstra","countryCode":"NO","stateCode":"05","latitude":61.59496,"longitude":9.75134},{"name":"Volda","countryCode":"NO","stateCode":"15","latitude":62.14678,"longitude":6.068},{"name":"Vormedal","countryCode":"NO","stateCode":"11","latitude":59.35607,"longitude":5.31962},{"name":"Voss","countryCode":"NO","stateCode":"12","latitude":60.6278,"longitude":6.41831},{"name":"Ytre Arna","countryCode":"NO","stateCode":"12","latitude":60.46175,"longitude":5.43265},{"name":"Ytrebygda","countryCode":"NO","stateCode":"12","latitude":60.30504,"longitude":5.28236}]
