[{"name":"‘Ibrī","countryCode":"OM","stateCode":"ZA","latitude":23.22573,"longitude":56.51572},{"name":"Adam","countryCode":"OM","stateCode":"DA","latitude":22.37934,"longitude":57.52718},{"name":"Al Buraymī","countryCode":"OM","stateCode":"BU","latitude":24.25088,"longitude":55.79312},{"name":"Al Khābūrah","countryCode":"OM","stateCode":"BS","latitude":23.97144,"longitude":57.09313},{"name":"As Suwayq","countryCode":"OM","stateCode":"BS","latitude":23.84944,"longitude":57.43861},{"name":"Bahlā’","countryCode":"OM","stateCode":"DA","latitude":22.97886,"longitude":57.3047},{"name":"Barkā’","countryCode":"OM","stateCode":"BA","latitude":23.67872,"longitude":57.88605},{"name":"Bawshar","countryCode":"OM","stateCode":"MA","latitude":23.57769,"longitude":58.39982},{"name":"Bayt al ‘Awābī","countryCode":"OM","stateCode":"BA","latitude":23.30324,"longitude":57.52459},{"name":"Bidbid","countryCode":"OM","stateCode":"DA","latitude":23.40787,"longitude":58.1283},{"name":"Dib Dibba","countryCode":"OM","stateCode":"MU","latitude":26.19778,"longitude":56.25778},{"name":"Haymā’","countryCode":"OM","stateCode":"WU","latitude":19.95931,"longitude":56.27575},{"name":"Izkī","countryCode":"OM","stateCode":"DA","latitude":22.93333,"longitude":57.76667},{"name":"Khasab","countryCode":"OM","stateCode":"MU","latitude":26.17993,"longitude":56.24774},{"name":"Liwá","countryCode":"OM","stateCode":"BS","latitude":24.53077,"longitude":56.563},{"name":"Madḩā’ al Jadīdah","countryCode":"OM","stateCode":"MU","latitude":25.28345,"longitude":56.3328},{"name":"Muscat","countryCode":"OM","stateCode":"MA","latitude":23.58413,"longitude":58.40778},{"name":"Nizwá","countryCode":"OM","stateCode":"DA","latitude":22.93333,"longitude":57.53333},{"name":"Oman Smart Future City","countryCode":"OM","stateCode":"BA","latitude":23.6527,"longitude":57.59926},{"name":"Rustaq","countryCode":"OM","stateCode":"BA","latitude":23.39083,"longitude":57.42444},{"name":"Şaḩam","countryCode":"OM","stateCode":"BS","latitude":24.17222,"longitude":56.88861},{"name":"Şalālah","countryCode":"OM","stateCode":"ZU","latitude":17.01505,"longitude":54.09237},{"name":"Seeb","countryCode":"OM","stateCode":"MA","latitude":23.67027,"longitude":58.18911},{"name":"Shināş","countryCode":"OM","stateCode":"BS","latitude":24.7426,"longitude":56.46698},{"name":"Sohar","countryCode":"OM","stateCode":"BS","latitude":24.34745,"longitude":56.70937},{"name":"Sufālat Samā’il","countryCode":"OM","stateCode":"DA","latitude":23.31667,"longitude":58.01667},{"name":"Sur","countryCode":"OM","stateCode":"SH","latitude":22.56667,"longitude":59.52889},{"name":"Yanqul","countryCode":"OM","stateCode":"ZA","latitude":23.58645,"longitude":56.53969}]
