[{"name":"Achutupo","countryCode":"PA","stateCode":"KY","latitude":9.19827,"longitude":-77.98729},{"name":"Agua Buena","countryCode":"PA","stateCode":"7","latitude":7.83465,"longitude":-80.39405},{"name":"Aguadulce","countryCode":"PA","stateCode":"2","latitude":8.24183,"longitude":-80.54609},{"name":"Aguas Blancas","countryCode":"PA","stateCode":"2","latitude":8.50351,"longitude":-80.31169},{"name":"Ailigandí","countryCode":"PA","stateCode":"KY","latitude":9.2281,"longitude":-78.02778},{"name":"Alanje","countryCode":"PA","stateCode":"4","latitude":8.39791,"longitude":-82.55947},{"name":"Alcalde Díaz","countryCode":"PA","stateCode":"8","latitude":9.12016,"longitude":-79.55641},{"name":"Algarrobos Arriba","countryCode":"PA","stateCode":"4","latitude":8.5155,"longitude":-82.42263},{"name":"Almirante","countryCode":"PA","stateCode":"1","latitude":9.30091,"longitude":-82.4018},{"name":"Alto Boquete","countryCode":"PA","stateCode":"4","latitude":8.73458,"longitude":-82.43213},{"name":"Alto de Jesús","countryCode":"PA","stateCode":"9","latitude":8.26152,"longitude":-81.48412},{"name":"Alto de La Estancia","countryCode":"PA","stateCode":"2","latitude":8.58792,"longitude":-80.18443},{"name":"Alto del Espino","countryCode":"PA","stateCode":"10","latitude":8.84213,"longitude":-79.84551},{"name":"Altos de San Francisco","countryCode":"PA","stateCode":"10","latitude":8.86167,"longitude":-79.79},{"name":"Ancón","countryCode":"PA","stateCode":"8","latitude":8.96015,"longitude":-79.5514},{"name":"Antón","countryCode":"PA","stateCode":"2","latitude":8.39733,"longitude":-80.26063},{"name":"Arenas","countryCode":"PA","stateCode":"9","latitude":7.36865,"longitude":-80.86268},{"name":"Arenosa","countryCode":"PA","stateCode":"10","latitude":9.03978,"longitude":-79.95128},{"name":"Arosemena","countryCode":"PA","stateCode":"10","latitude":8.97091,"longitude":-79.96641},{"name":"Arraiján","countryCode":"PA","stateCode":"10","latitude":8.95187,"longitude":-79.66011},{"name":"Aserrío de Gariché","countryCode":"PA","stateCode":"4","latitude":8.48257,"longitude":-82.79086},{"name":"Atalaya","countryCode":"PA","stateCode":"9","latitude":8.04213,"longitude":-80.92528},{"name":"Ave María","countryCode":"PA","stateCode":"7","latitude":7.32481,"longitude":-80.45361},{"name":"Bágala","countryCode":"PA","stateCode":"4","latitude":8.46399,"longitude":-82.52617},{"name":"Bahía Azul","countryCode":"PA","stateCode":"NB","latitude":9.14176,"longitude":-81.89425},{"name":"Bahía Honda","countryCode":"PA","stateCode":"7","latitude":7.70517,"longitude":-80.45342},{"name":"Bajo Boquete","countryCode":"PA","stateCode":"4","latitude":8.77058,"longitude":-82.43306},{"name":"Bajo Corral","countryCode":"PA","stateCode":"7","latitude":7.60463,"longitude":-80.26016},{"name":"Barnizal","countryCode":"PA","stateCode":"9","latitude":8.4046,"longitude":-80.77765},{"name":"Barranco","countryCode":"PA","stateCode":"1","latitude":9.51984,"longitude":-82.70424},{"name":"Barranco Adentro","countryCode":"PA","stateCode":"1","latitude":9.52757,"longitude":-82.73344},{"name":"Barranco Colorado","countryCode":"PA","stateCode":"2","latitude":8.38937,"longitude":-80.63546},{"name":"Barrio Guadalupe","countryCode":"PA","stateCode":"4","latitude":8.86482,"longitude":-82.56523},{"name":"Bastimentos","countryCode":"PA","stateCode":"1","latitude":9.34707,"longitude":-82.2088},{"name":"Bayamón","countryCode":"PA","stateCode":"EM","latitude":7.96817,"longitude":-78.21648},{"name":"Bayano","countryCode":"PA","stateCode":"7","latitude":7.63014,"longitude":-80.38201},{"name":"Bejuco","countryCode":"PA","stateCode":"10","latitude":8.60037,"longitude":-79.88988},{"name":"Bella Vista","countryCode":"PA","stateCode":"7","latitude":7.75,"longitude":-80.23333},{"name":"Besiko","countryCode":"PA","stateCode":"NB","latitude":8.54863,"longitude":-82.0898},{"name":"Bijagual","countryCode":"PA","stateCode":"4","latitude":8.51486,"longitude":-82.33361},{"name":"Bisira","countryCode":"PA","stateCode":"NB","latitude":8.89553,"longitude":-81.85352},{"name":"Bisvalles","countryCode":"PA","stateCode":"9","latitude":8.18298,"longitude":-81.22092},{"name":"Boca Chica","countryCode":"PA","stateCode":"4","latitude":8.21911,"longitude":-82.21592},{"name":"Boca de Balsa","countryCode":"PA","stateCode":"NB","latitude":8.52995,"longitude":-82.03132},{"name":"Boca de Cupé","countryCode":"PA","stateCode":"5","latitude":8.03003,"longitude":-77.58978},{"name":"Boca de Parita","countryCode":"PA","stateCode":"6","latitude":8.00796,"longitude":-80.4532},{"name":"Boca del Monte","countryCode":"PA","stateCode":"4","latitude":8.35296,"longitude":-82.11379},{"name":"Bocas del Toro","countryCode":"PA","stateCode":"1","latitude":9.34031,"longitude":-82.24204},{"name":"Boquerón","countryCode":"PA","stateCode":"4","latitude":8.5051,"longitude":-82.57025},{"name":"Boquerón","countryCode":"PA","stateCode":"9","latitude":8.24414,"longitude":-80.85897},{"name":"Boquete","countryCode":"PA","stateCode":"4","latitude":8.78024,"longitude":-82.44136},{"name":"Boró","countryCode":"PA","stateCode":"9","latitude":8.16933,"longitude":-81.30071},{"name":"Breñón","countryCode":"PA","stateCode":"4","latitude":8.62491,"longitude":-82.81277},{"name":"Brujas","countryCode":"PA","stateCode":"8","latitude":8.58536,"longitude":-78.53008},{"name":"Buena Vista","countryCode":"PA","stateCode":"3","latitude":9.27356,"longitude":-79.69551},{"name":"Buenos Aires","countryCode":"PA","stateCode":"10","latitude":8.63146,"longitude":-79.94775},{"name":"Buenos Aires","countryCode":"PA","stateCode":"NB","latitude":8.41384,"longitude":-81.4844},{"name":"Bugaba","countryCode":"PA","stateCode":"4","latitude":8.48255,"longitude":-82.61991},{"name":"Bugabita Arriba","countryCode":"PA","stateCode":"4","latitude":8.52143,"longitude":-82.63638},{"name":"Caballero","countryCode":"PA","stateCode":"2","latitude":8.54343,"longitude":-80.19769},{"name":"Cabra Número Uno","countryCode":"PA","stateCode":"8","latitude":9.10863,"longitude":-79.33694},{"name":"Cabuya","countryCode":"PA","stateCode":"10","latitude":8.57472,"longitude":-79.92714},{"name":"Cabuya","countryCode":"PA","stateCode":"2","latitude":8.54703,"longitude":-80.16756},{"name":"Cabuya","countryCode":"PA","stateCode":"6","latitude":8.03138,"longitude":-80.63227},{"name":"Caimitillo","countryCode":"PA","stateCode":"8","latitude":9.15559,"longitude":-79.53974},{"name":"Caimito","countryCode":"PA","stateCode":"10","latitude":8.81143,"longitude":-79.94738},{"name":"Caimito","countryCode":"PA","stateCode":"2","latitude":8.62271,"longitude":-80.23919},{"name":"Caimito","countryCode":"PA","stateCode":"4","latitude":8.54162,"longitude":-82.419},{"name":"Calabacito","countryCode":"PA","stateCode":"9","latitude":8.24817,"longitude":-81.08187},{"name":"Caldera","countryCode":"PA","stateCode":"4","latitude":8.64907,"longitude":-82.38058},{"name":"Calidonia","countryCode":"PA","stateCode":"9","latitude":7.95756,"longitude":-81.38633},{"name":"Calobre","countryCode":"PA","stateCode":"9","latitude":8.31886,"longitude":-80.84067},{"name":"Calovébora","countryCode":"PA","stateCode":"9","latitude":8.78703,"longitude":-81.21056},{"name":"Calzada Larga","countryCode":"PA","stateCode":"8","latitude":9.17272,"longitude":-79.56212},{"name":"Camarón Arriba","countryCode":"PA","stateCode":"NB","latitude":8.38324,"longitude":-81.99345},{"name":"Cambutal","countryCode":"PA","stateCode":"7","latitude":7.26534,"longitude":-80.49105},{"name":"Camogantí","countryCode":"PA","stateCode":"5","latitude":8.04171,"longitude":-77.88682},{"name":"Cañas","countryCode":"PA","stateCode":"7","latitude":7.44713,"longitude":-80.2648},{"name":"Cañas Gordas","countryCode":"PA","stateCode":"4","latitude":8.74309,"longitude":-82.91275},{"name":"Cañaveral","countryCode":"PA","stateCode":"2","latitude":8.517,"longitude":-80.42916},{"name":"Cañazas","countryCode":"PA","stateCode":"9","latitude":8.32004,"longitude":-81.21152},{"name":"Cañita","countryCode":"PA","stateCode":"8","latitude":9.22236,"longitude":-78.89509},{"name":"Canto del Llano","countryCode":"PA","stateCode":"9","latitude":8.12472,"longitude":-80.96374},{"name":"Capellanía","countryCode":"PA","stateCode":"2","latitude":8.29858,"longitude":-80.5548},{"name":"Capira","countryCode":"PA","stateCode":"10","latitude":8.75636,"longitude":-79.87996},{"name":"Cartí Sugdup","countryCode":"PA","stateCode":"KY","latitude":9.4646,"longitude":-78.95931},{"name":"Cativá","countryCode":"PA","stateCode":"3","latitude":9.36218,"longitude":-79.83232},{"name":"Cauchero","countryCode":"PA","stateCode":"1","latitude":9.15226,"longitude":-82.2645},{"name":"Cedro Arriba","countryCode":"PA","stateCode":"7","latitude":7.78097,"longitude":-80.53057},{"name":"Celmira","countryCode":"PA","stateCode":"4","latitude":8.54026,"longitude":-82.80022},{"name":"Cémaco","countryCode":"PA","stateCode":"EM","latitude":8.08285,"longitude":-77.5421},{"name":"Cermeño","countryCode":"PA","stateCode":"10","latitude":8.74082,"longitude":-79.85299},{"name":"Cerro Azul","countryCode":"PA","stateCode":"8","latitude":9.15735,"longitude":-79.42097},{"name":"Cerro Banco","countryCode":"PA","stateCode":"NB","latitude":8.45797,"longitude":-82.03081},{"name":"Cerro Cama","countryCode":"PA","stateCode":"10","latitude":9.02802,"longitude":-79.90744},{"name":"Cerro Caña","countryCode":"PA","stateCode":"NB","latitude":8.35174,"longitude":-81.6105},{"name":"Cerro Largo","countryCode":"PA","stateCode":"6","latitude":7.83377,"longitude":-80.83168},{"name":"Cerro Plata","countryCode":"PA","stateCode":"NB","latitude":8.47733,"longitude":-81.54585},{"name":"Cerro Punta","countryCode":"PA","stateCode":"4","latitude":8.84968,"longitude":-82.57261},{"name":"Cerro Viejo","countryCode":"PA","stateCode":"4","latitude":8.25349,"longitude":-81.57658},{"name":"Chame","countryCode":"PA","stateCode":"10","latitude":8.57753,"longitude":-79.88595},{"name":"Changuinola","countryCode":"PA","stateCode":"1","latitude":9.43,"longitude":-82.52},{"name":"Chepillo","countryCode":"PA","stateCode":"8","latitude":8.95396,"longitude":-79.12856},{"name":"Chepo","countryCode":"PA","stateCode":"8","latitude":9.17019,"longitude":-79.10083},{"name":"Chichica","countryCode":"PA","stateCode":"NB","latitude":8.35885,"longitude":-81.66582},{"name":"Chigoré","countryCode":"PA","stateCode":"2","latitude":8.53035,"longitude":-80.35117},{"name":"Chiguirí Arriba","countryCode":"PA","stateCode":"2","latitude":8.67187,"longitude":-80.18975},{"name":"Chilibre","countryCode":"PA","stateCode":"8","latitude":9.15093,"longitude":-79.62098},{"name":"Chimán","countryCode":"PA","stateCode":"8","latitude":8.69125,"longitude":-78.6357},{"name":"Chiriquí","countryCode":"PA","stateCode":"4","latitude":8.39291,"longitude":-82.31993},{"name":"Chiriquí Grande","countryCode":"PA","stateCode":"1","latitude":8.94557,"longitude":-82.11769},{"name":"Chitré","countryCode":"PA","stateCode":"6","latitude":7.96082,"longitude":-80.42944},{"name":"Chumical","countryCode":"PA","stateCode":"6","latitude":7.84482,"longitude":-80.72627},{"name":"Chupampa","countryCode":"PA","stateCode":"6","latitude":8.0762,"longitude":-80.77656},{"name":"Churuquita Chiquita","countryCode":"PA","stateCode":"2","latitude":8.57555,"longitude":-80.27161},{"name":"Churuquita Grande","countryCode":"PA","stateCode":"2","latitude":8.59449,"longitude":-80.27182},{"name":"Cirí de Los Sotos","countryCode":"PA","stateCode":"10","latitude":8.97206,"longitude":-80.09209},{"name":"Cochea Abajo","countryCode":"PA","stateCode":"4","latitude":8.50512,"longitude":-82.35878},{"name":"Coclé","countryCode":"PA","stateCode":"2","latitude":8.45601,"longitude":-80.42899},{"name":"Coclé del Norte","countryCode":"PA","stateCode":"3","latitude":9.0754,"longitude":-80.57177},{"name":"Colón","countryCode":"PA","stateCode":"3","latitude":9.35451,"longitude":-79.90011},{"name":"Contadora","countryCode":"PA","stateCode":"8","latitude":8.62483,"longitude":-79.03748},{"name":"Cordillera","countryCode":"PA","stateCode":"4","latitude":8.70683,"longitude":-82.60327},{"name":"Corozal","countryCode":"PA","stateCode":"9","latitude":8.07712,"longitude":-81.4399},{"name":"Corozal","countryCode":"PA","stateCode":"EM","latitude":8.20108,"longitude":-77.59637},{"name":"Cristóbal","countryCode":"PA","stateCode":"3","latitude":9.35222,"longitude":-79.90444},{"name":"Cucunatí","countryCode":"PA","stateCode":"5","latitude":8.57508,"longitude":-78.25671},{"name":"Curundú","countryCode":"PA","stateCode":"8","latitude":8.97092,"longitude":-79.54612},{"name":"David","countryCode":"PA","stateCode":"4","latitude":8.42729,"longitude":-82.43085},{"name":"Distrito Arraiján","countryCode":"PA","stateCode":"10","latitude":8.95,"longitude":-79.7},{"name":"Distrito Chiriquí Grande","countryCode":"PA","stateCode":"1","latitude":8.94748,"longitude":-82.12418},{"name":"Distrito de Aguadulce","countryCode":"PA","stateCode":"2","latitude":8.2127,"longitude":-80.61441},{"name":"Distrito de Alanje","countryCode":"PA","stateCode":"4","latitude":8.39842,"longitude":-82.64065},{"name":"Distrito de Antón","countryCode":"PA","stateCode":"2","latitude":8.45394,"longitude":-80.18361},{"name":"Distrito de Atalaya","countryCode":"PA","stateCode":"9","latitude":8.02899,"longitude":-80.91739},{"name":"Distrito de Balboa","countryCode":"PA","stateCode":"8","latitude":8.46667,"longitude":-79},{"name":"Distrito de Barú","countryCode":"PA","stateCode":"4","latitude":8.29482,"longitude":-82.92726},{"name":"Distrito de Bocas del Toro","countryCode":"PA","stateCode":"1","latitude":9.36235,"longitude":-82.26288},{"name":"Distrito de Boquerón","countryCode":"PA","stateCode":"4","latitude":8.61667,"longitude":-82.56667},{"name":"Distrito de Boquete","countryCode":"PA","stateCode":"4","latitude":8.74896,"longitude":-82.36842},{"name":"Distrito de Bugaba","countryCode":"PA","stateCode":"4","latitude":8.68786,"longitude":-82.67937},{"name":"Distrito de Calobre","countryCode":"PA","stateCode":"9","latitude":8.39684,"longitude":-80.85124},{"name":"Distrito de Cañazas","countryCode":"PA","stateCode":"9","latitude":8.35596,"longitude":-81.28633},{"name":"Distrito de Capira","countryCode":"PA","stateCode":"10","latitude":8.76228,"longitude":-79.88275},{"name":"Distrito de Chagres","countryCode":"PA","stateCode":"3","latitude":9.123,"longitude":-80.11841},{"name":"Distrito de Chame","countryCode":"PA","stateCode":"10","latitude":8.6,"longitude":-79.91667},{"name":"Distrito de Changuinola","countryCode":"PA","stateCode":"1","latitude":9.25,"longitude":-82.63333},{"name":"Distrito de Chepigana","countryCode":"PA","stateCode":"5","latitude":7.84374,"longitude":-77.8383},{"name":"Distrito de Chepo","countryCode":"PA","stateCode":"8","latitude":9.17391,"longitude":-78.70374},{"name":"Distrito de Chimán","countryCode":"PA","stateCode":"8","latitude":8.76043,"longitude":-78.5647},{"name":"Distrito de Chitré","countryCode":"PA","stateCode":"6","latitude":7.98333,"longitude":-80.43333},{"name":"Distrito de Colón","countryCode":"PA","stateCode":"3","latitude":9.24313,"longitude":-79.79463},{"name":"Distrito de David","countryCode":"PA","stateCode":"4","latitude":8.4,"longitude":-82.4},{"name":"Distrito de Dolega","countryCode":"PA","stateCode":"4","latitude":8.61667,"longitude":-82.45},{"name":"Distrito de Donoso","countryCode":"PA","stateCode":"3","latitude":9.01999,"longitude":-80.42967},{"name":"Distrito de Gualaca","countryCode":"PA","stateCode":"4","latitude":8.57398,"longitude":-82.22207},{"name":"Distrito de Guararé","countryCode":"PA","stateCode":"7","latitude":7.77021,"longitude":-80.37515},{"name":"Distrito de La Chorrera","countryCode":"PA","stateCode":"10","latitude":8.95,"longitude":-79.85},{"name":"Distrito de La Mesa","countryCode":"PA","stateCode":"9","latitude":8.10976,"longitude":-81.17767},{"name":"Distrito de La Pintada","countryCode":"PA","stateCode":"2","latitude":8.71801,"longitude":-80.53946},{"name":"Distrito de Las Minas","countryCode":"PA","stateCode":"6","latitude":7.76525,"longitude":-80.82249},{"name":"Distrito de Las Palmas","countryCode":"PA","stateCode":"9","latitude":8.14532,"longitude":-81.42849},{"name":"Distrito de Las Tablas","countryCode":"PA","stateCode":"7","latitude":7.64843,"longitude":-80.29933},{"name":"Distrito de Los Pozos","countryCode":"PA","stateCode":"6","latitude":7.70944,"longitude":-80.64311},{"name":"Distrito de Los Santos","countryCode":"PA","stateCode":"7","latitude":7.88333,"longitude":-80.45},{"name":"Distrito de Macaracas","countryCode":"PA","stateCode":"7","latitude":7.65817,"longitude":-80.53526},{"name":"Distrito de Montijo","countryCode":"PA","stateCode":"9","latitude":7.95316,"longitude":-81.05301},{"name":"Distrito de Natá","countryCode":"PA","stateCode":"2","latitude":8.34416,"longitude":-80.60934},{"name":"Distrito de Ocú","countryCode":"PA","stateCode":"6","latitude":7.90641,"longitude":-80.79752},{"name":"Distrito de Olá","countryCode":"PA","stateCode":"2","latitude":8.48053,"longitude":-80.65324},{"name":"Distrito de Panamá","countryCode":"PA","stateCode":"8","latitude":9.30612,"longitude":-79.45246},{"name":"Distrito de Parita","countryCode":"PA","stateCode":"6","latitude":8.0624,"longitude":-80.56373},{"name":"Distrito de Pedasí","countryCode":"PA","stateCode":"7","latitude":7.48528,"longitude":-80.12747},{"name":"Distrito de Pesé","countryCode":"PA","stateCode":"6","latitude":7.88194,"longitude":-80.63261},{"name":"Distrito de Pinogana","countryCode":"PA","stateCode":"5","latitude":7.89343,"longitude":-77.52562},{"name":"Distrito de Pocrí","countryCode":"PA","stateCode":"7","latitude":7.63721,"longitude":-80.1647},{"name":"Distrito de Portobelo","countryCode":"PA","stateCode":"3","latitude":9.49748,"longitude":-79.6073},{"name":"Distrito de Remedios","countryCode":"PA","stateCode":"4","latitude":8.20253,"longitude":-81.81163},{"name":"Distrito de Renacimiento","countryCode":"PA","stateCode":"4","latitude":8.71667,"longitude":-82.76667},{"name":"Distrito de Río de Jesús","countryCode":"PA","stateCode":"9","latitude":7.91438,"longitude":-81.16133},{"name":"Distrito de San Carlos","countryCode":"PA","stateCode":"10","latitude":8.53196,"longitude":-80.06906},{"name":"Distrito de San Félix","countryCode":"PA","stateCode":"4","latitude":8.27768,"longitude":-81.87377},{"name":"Distrito de San Francisco","countryCode":"PA","stateCode":"9","latitude":8.26965,"longitude":-81.00108},{"name":"Distrito de San Lorenzo","countryCode":"PA","stateCode":"4","latitude":8.29366,"longitude":-82.08922},{"name":"Distrito de Santa Fé","countryCode":"PA","stateCode":"9","latitude":8.72063,"longitude":-80.95858},{"name":"Distrito de Santa Isabel","countryCode":"PA","stateCode":"3","latitude":9.48333,"longitude":-79.31667},{"name":"Distrito de Santa María","countryCode":"PA","stateCode":"6","latitude":8.11667,"longitude":-80.68333},{"name":"Distrito de Santiago","countryCode":"PA","stateCode":"9","latitude":8.12425,"longitude":-80.87827},{"name":"Distrito de Soná","countryCode":"PA","stateCode":"9","latitude":7.84378,"longitude":-81.36612},{"name":"Distrito de Taboga","countryCode":"PA","stateCode":"8","latitude":8.78333,"longitude":-79.55833},{"name":"Distrito de Tolé","countryCode":"PA","stateCode":"4","latitude":8.19015,"longitude":-81.66007},{"name":"Distrito de Tonosí","countryCode":"PA","stateCode":"7","latitude":7.43597,"longitude":-80.45828},{"name":"Distrito Penonomé","countryCode":"PA","stateCode":"2","latitude":8.63,"longitude":-80.28333},{"name":"Divalá","countryCode":"PA","stateCode":"4","latitude":8.41066,"longitude":-82.71332},{"name":"Dolega District","countryCode":"PA","stateCode":"4","latitude":8.56667,"longitude":-82.41407},{"name":"El Alto","countryCode":"PA","stateCode":"9","latitude":8.51191,"longitude":-81.03646},{"name":"El Barrito","countryCode":"PA","stateCode":"9","latitude":7.96059,"longitude":-80.94801},{"name":"El Cacao","countryCode":"PA","stateCode":"10","latitude":8.76134,"longitude":-80.01294},{"name":"El Cacao","countryCode":"PA","stateCode":"7","latitude":7.4457,"longitude":-80.40938},{"name":"El Calabacito","countryCode":"PA","stateCode":"6","latitude":7.71843,"longitude":-80.59757},{"name":"El Cañafístulo","countryCode":"PA","stateCode":"7","latitude":7.61768,"longitude":-80.23322},{"name":"El Caño","countryCode":"PA","stateCode":"2","latitude":8.40195,"longitude":-80.51791},{"name":"El Capurí","countryCode":"PA","stateCode":"6","latitude":7.72571,"longitude":-80.64349},{"name":"El Carate","countryCode":"PA","stateCode":"7","latitude":7.73124,"longitude":-80.29691},{"name":"El Cedro","countryCode":"PA","stateCode":"6","latitude":7.68565,"longitude":-80.65927},{"name":"El Chirú","countryCode":"PA","stateCode":"2","latitude":8.39876,"longitude":-80.18721},{"name":"El Chorrillo","countryCode":"PA","stateCode":"8","latitude":8.94964,"longitude":-79.54715},{"name":"El Cocal","countryCode":"PA","stateCode":"7","latitude":7.73697,"longitude":-80.2798},{"name":"El Coclá","countryCode":"PA","stateCode":"9","latitude":8.32143,"longitude":-80.92069},{"name":"El Coco","countryCode":"PA","stateCode":"10","latitude":8.87009,"longitude":-79.80415},{"name":"El Coco","countryCode":"PA","stateCode":"2","latitude":8.39716,"longitude":-80.35},{"name":"El Copé","countryCode":"PA","stateCode":"2","latitude":8.62036,"longitude":-80.58433},{"name":"El Cortezo","countryCode":"PA","stateCode":"2","latitude":8.34556,"longitude":-80.58721},{"name":"El Cortezo","countryCode":"PA","stateCode":"7","latitude":7.42661,"longitude":-80.63311},{"name":"El Cristo","countryCode":"PA","stateCode":"2","latitude":8.25071,"longitude":-80.62093},{"name":"El Ejido","countryCode":"PA","stateCode":"7","latitude":7.91634,"longitude":-80.38686},{"name":"El Empalme","countryCode":"PA","stateCode":"1","latitude":9.41667,"longitude":-82.51667},{"name":"El Espavé","countryCode":"PA","stateCode":"10","latitude":8.66161,"longitude":-79.87584},{"name":"El Espino","countryCode":"PA","stateCode":"10","latitude":8.83795,"longitude":-79.84925},{"name":"El Espino de Santa Rosa","countryCode":"PA","stateCode":"9","latitude":8.09286,"longitude":-80.8238},{"name":"El Giral","countryCode":"PA","stateCode":"3","latitude":9.24509,"longitude":-79.69266},{"name":"El Guabo","countryCode":"PA","stateCode":"3","latitude":9.07842,"longitude":-80.08316},{"name":"El Guásimo","countryCode":"PA","stateCode":"7","latitude":7.8064,"longitude":-80.52991},{"name":"El Hato","countryCode":"PA","stateCode":"7","latitude":7.79316,"longitude":-80.38267},{"name":"El Higo","countryCode":"PA","stateCode":"10","latitude":8.44731,"longitude":-80.03603},{"name":"El Líbano","countryCode":"PA","stateCode":"10","latitude":8.61685,"longitude":-79.83483},{"name":"El Macano","countryCode":"PA","stateCode":"7","latitude":7.68489,"longitude":-80.40309},{"name":"El Manantial","countryCode":"PA","stateCode":"7","latitude":7.78245,"longitude":-80.24713},{"name":"El Marañón","countryCode":"PA","stateCode":"9","latitude":8.03582,"longitude":-81.21489},{"name":"El María","countryCode":"PA","stateCode":"9","latitude":8.02905,"longitude":-81.44384},{"name":"El Muñoz","countryCode":"PA","stateCode":"7","latitude":7.67582,"longitude":-80.3213},{"name":"El Nancito","countryCode":"PA","stateCode":"4","latitude":8.23811,"longitude":-81.73218},{"name":"El Pájaro","countryCode":"PA","stateCode":"9","latitude":7.95342,"longitude":-81.12154},{"name":"El Palmar","countryCode":"PA","stateCode":"4","latitude":8.30098,"longitude":-82.85344},{"name":"El Pantano","countryCode":"PA","stateCode":"9","latitude":8.53755,"longitude":-81.06941},{"name":"El Pedregoso","countryCode":"PA","stateCode":"6","latitude":7.93642,"longitude":-80.63807},{"name":"El Pedregoso","countryCode":"PA","stateCode":"7","latitude":7.69173,"longitude":-80.32793},{"name":"El Peñón","countryCode":"PA","stateCode":"9","latitude":8.35,"longitude":-80.9762},{"name":"El Picador","countryCode":"PA","stateCode":"9","latitude":8.37803,"longitude":-81.25621},{"name":"El Porvenir","countryCode":"PA","stateCode":"4","latitude":8.22919,"longitude":-81.83278},{"name":"El Porvenir","countryCode":"PA","stateCode":"KY","latitude":9.55276,"longitude":-78.9523},{"name":"El Potrero","countryCode":"PA","stateCode":"2","latitude":8.52146,"longitude":-80.51681},{"name":"El Potrero","countryCode":"PA","stateCode":"9","latitude":8.37692,"longitude":-80.79434},{"name":"El Progreso","countryCode":"PA","stateCode":"8","latitude":9.26667,"longitude":-79.11667},{"name":"El Retiro","countryCode":"PA","stateCode":"2","latitude":8.48014,"longitude":-80.15426},{"name":"El Rincón","countryCode":"PA","stateCode":"6","latitude":8.11923,"longitude":-80.61707},{"name":"El Rincón","countryCode":"PA","stateCode":"9","latitude":8.18422,"longitude":-81.43333},{"name":"El Roble","countryCode":"PA","stateCode":"2","latitude":8.1685,"longitude":-80.65897},{"name":"El Silencio","countryCode":"PA","stateCode":"1","latitude":9.37222,"longitude":-82.52877},{"name":"El Tejar","countryCode":"PA","stateCode":"4","latitude":8.42973,"longitude":-82.57294},{"name":"El Toro","countryCode":"PA","stateCode":"6","latitude":7.7511,"longitude":-80.86943},{"name":"El Uvito","countryCode":"PA","stateCode":"9","latitude":8.11648,"longitude":-80.98461},{"name":"El Valle de la Unión","countryCode":"PA","stateCode":"3","latitude":9.2363,"longitude":-79.65986},{"name":"Entradero","countryCode":"PA","stateCode":"2","latitude":8.5688,"longitude":-80.20743},{"name":"Escobal","countryCode":"PA","stateCode":"3","latitude":9.14373,"longitude":-79.96439},{"name":"Farallón","countryCode":"PA","stateCode":"2","latitude":8.35658,"longitude":-80.13723},{"name":"Finca Blanco","countryCode":"PA","stateCode":"4","latitude":8.37979,"longitude":-82.87385},{"name":"Flores","countryCode":"PA","stateCode":"7","latitude":7.48157,"longitude":-80.40695},{"name":"Garachiné","countryCode":"PA","stateCode":"5","latitude":8.06684,"longitude":-78.36436},{"name":"Gatún","countryCode":"PA","stateCode":"3","latitude":9.28922,"longitude":-79.77204},{"name":"Gatuncillo","countryCode":"PA","stateCode":"3","latitude":9.24346,"longitude":-79.64856},{"name":"Gómez","countryCode":"PA","stateCode":"4","latitude":8.56085,"longitude":-82.74142},{"name":"Gonzalillo","countryCode":"PA","stateCode":"8","latitude":9.09183,"longitude":-79.51928},{"name":"Guabal","countryCode":"PA","stateCode":"4","latitude":8.57466,"longitude":-82.5373},{"name":"Guabito","countryCode":"PA","stateCode":"1","latitude":9.48968,"longitude":-82.61279},{"name":"Guaca Arriba","countryCode":"PA","stateCode":"4","latitude":8.53733,"longitude":-82.49281},{"name":"Guadalupe","countryCode":"PA","stateCode":"10","latitude":8.85452,"longitude":-79.81408},{"name":"Gualaca","countryCode":"PA","stateCode":"4","latitude":8.53006,"longitude":-82.29959},{"name":"Guararé","countryCode":"PA","stateCode":"7","latitude":7.81531,"longitude":-80.28345},{"name":"Guararé Arriba","countryCode":"PA","stateCode":"7","latitude":7.80023,"longitude":-80.35983},{"name":"Guarumal","countryCode":"PA","stateCode":"4","latitude":8.34523,"longitude":-82.53205},{"name":"Guarumal","countryCode":"PA","stateCode":"9","latitude":7.79404,"longitude":-81.25904},{"name":"Guayabal","countryCode":"PA","stateCode":"4","latitude":8.62193,"longitude":-82.57935},{"name":"Guayabito","countryCode":"PA","stateCode":"10","latitude":8.54828,"longitude":-80.0135},{"name":"Guayabito","countryCode":"PA","stateCode":"NB","latitude":8.53949,"longitude":-81.48225},{"name":"Guzman","countryCode":"PA","stateCode":"2","latitude":8.51969,"longitude":-80.58405},{"name":"Hato Chami","countryCode":"PA","stateCode":"NB","latitude":8.44281,"longitude":-81.77196},{"name":"Hato Corotú","countryCode":"PA","stateCode":"NB","latitude":8.33516,"longitude":-81.9703},{"name":"Hato Montaña","countryCode":"PA","stateCode":"10","latitude":8.91938,"longitude":-79.73915},{"name":"Horconcitos","countryCode":"PA","stateCode":"4","latitude":8.31142,"longitude":-82.15102},{"name":"Howard","countryCode":"PA","stateCode":"8","latitude":8.93942,"longitude":-79.59097},{"name":"Isla Bastimentos","countryCode":"PA","stateCode":"1","latitude":9.3,"longitude":-82.13333},{"name":"Jaqué","countryCode":"PA","stateCode":"5","latitude":7.51826,"longitude":-78.16343},{"name":"Juan Díaz","countryCode":"PA","stateCode":"2","latitude":8.4624,"longitude":-80.2828},{"name":"Juan Díaz","countryCode":"PA","stateCode":"8","latitude":9.05,"longitude":-79.45},{"name":"Kankintú","countryCode":"PA","stateCode":"NB","latitude":8.89503,"longitude":-81.8575},{"name":"Kusapín","countryCode":"PA","stateCode":"NB","latitude":9.17119,"longitude":-81.89621},{"name":"La Arena","countryCode":"PA","stateCode":"6","latitude":7.96766,"longitude":-80.46523},{"name":"La Cabima","countryCode":"PA","stateCode":"8","latitude":9.11865,"longitude":-79.5366},{"name":"La Chorrera","countryCode":"PA","stateCode":"10","latitude":8.88028,"longitude":-79.78333},{"name":"La Colorada","countryCode":"PA","stateCode":"7","latitude":7.82362,"longitude":-80.55552},{"name":"La Colorada","countryCode":"PA","stateCode":"8","latitude":9.10224,"longitude":-79.416},{"name":"La Colorada","countryCode":"PA","stateCode":"9","latitude":8.01319,"longitude":-80.9859},{"name":"La Concepción","countryCode":"PA","stateCode":"4","latitude":8.51212,"longitude":-82.61858},{"name":"La Enea","countryCode":"PA","stateCode":"7","latitude":7.83333,"longitude":-80.27417},{"name":"La Ensenada","countryCode":"PA","stateCode":"8","latitude":8.36618,"longitude":-78.84606},{"name":"La Ermita","countryCode":"PA","stateCode":"10","latitude":8.45622,"longitude":-80.06835},{"name":"La Esmeralda","countryCode":"PA","stateCode":"8","latitude":8.26817,"longitude":-78.9246},{"name":"La Esperanza","countryCode":"PA","stateCode":"4","latitude":8.40344,"longitude":-82.79197},{"name":"La Espigadilla","countryCode":"PA","stateCode":"7","latitude":7.88389,"longitude":-80.39039},{"name":"La Estrella","countryCode":"PA","stateCode":"4","latitude":8.51572,"longitude":-82.67212},{"name":"La Garceana","countryCode":"PA","stateCode":"9","latitude":7.93708,"longitude":-81.01643},{"name":"La Guinea","countryCode":"PA","stateCode":"8","latitude":8.3425,"longitude":-78.9343},{"name":"La Herradura","countryCode":"PA","stateCode":"10","latitude":8.84848,"longitude":-79.80404},{"name":"La Laguna","countryCode":"PA","stateCode":"10","latitude":9.04404,"longitude":-79.84215},{"name":"La Laguna","countryCode":"PA","stateCode":"9","latitude":8.33882,"longitude":-80.72949},{"name":"La Laja","countryCode":"PA","stateCode":"7","latitude":7.73102,"longitude":-80.25298},{"name":"La Loma","countryCode":"PA","stateCode":"2","latitude":8.16667,"longitude":-80.63742},{"name":"La Loma","countryCode":"PA","stateCode":"9","latitude":7.43708,"longitude":-80.89118},{"name":"La Mesa","countryCode":"PA","stateCode":"1","latitude":9.49587,"longitude":-82.67534},{"name":"La Mesa","countryCode":"PA","stateCode":"7","latitude":7.6567,"longitude":-80.61794},{"name":"La Mesa","countryCode":"PA","stateCode":"8","latitude":9.17308,"longitude":-79.27401},{"name":"La Mesa","countryCode":"PA","stateCode":"9","latitude":8.14707,"longitude":-81.18114},{"name":"La Miel","countryCode":"PA","stateCode":"7","latitude":7.56022,"longitude":-80.32736},{"name":"La Mitra","countryCode":"PA","stateCode":"10","latitude":8.84091,"longitude":-79.78648},{"name":"La Montañuela","countryCode":"PA","stateCode":"9","latitude":8.02487,"longitude":-80.86325},{"name":"La Palma","countryCode":"PA","stateCode":"5","latitude":8.40608,"longitude":-78.13964},{"name":"La Palma","countryCode":"PA","stateCode":"7","latitude":7.71667,"longitude":-80.38333},{"name":"La Pasera","countryCode":"PA","stateCode":"7","latitude":7.79757,"longitude":-80.30342},{"name":"La Peña","countryCode":"PA","stateCode":"9","latitude":8.12784,"longitude":-81.02693},{"name":"La Pesa","countryCode":"PA","stateCode":"10","latitude":8.85073,"longitude":-79.82374},{"name":"La Pintada","countryCode":"PA","stateCode":"2","latitude":8.59299,"longitude":-80.44349},{"name":"La Raya de Calobre","countryCode":"PA","stateCode":"9","latitude":8.2163,"longitude":-80.82729},{"name":"La Raya de Santa María","countryCode":"PA","stateCode":"9","latitude":8.16429,"longitude":-80.82143},{"name":"La Tiza","countryCode":"PA","stateCode":"7","latitude":7.7511,"longitude":-80.29216},{"name":"La Trinidad","countryCode":"PA","stateCode":"6","latitude":7.91457,"longitude":-80.70332},{"name":"La Tronosa","countryCode":"PA","stateCode":"7","latitude":7.43609,"longitude":-80.58698},{"name":"La Yeguada","countryCode":"PA","stateCode":"9","latitude":8.4306,"longitude":-80.85752},{"name":"Lajamina","countryCode":"PA","stateCode":"7","latitude":7.58587,"longitude":-80.13212},{"name":"Lajas Adentro","countryCode":"PA","stateCode":"4","latitude":8.24981,"longitude":-81.87779},{"name":"Lajas de Tolé","countryCode":"PA","stateCode":"4","latitude":8.16994,"longitude":-81.69654},{"name":"Lajero Arriba","countryCode":"PA","stateCode":"NB","latitude":8.2906,"longitude":-81.77047},{"name":"Las Colinas","countryCode":"PA","stateCode":"10","latitude":8.55,"longitude":-80.08333},{"name":"Las Cruces","countryCode":"PA","stateCode":"7","latitude":7.82285,"longitude":-80.43003},{"name":"Las Cumbres","countryCode":"PA","stateCode":"8","latitude":9.08916,"longitude":-79.52809},{"name":"Las Guabas","countryCode":"PA","stateCode":"6","latitude":7.90949,"longitude":-80.80706},{"name":"Las Guabas","countryCode":"PA","stateCode":"7","latitude":7.81469,"longitude":-80.50155},{"name":"Las Guías Abajo","countryCode":"PA","stateCode":"9","latitude":8.19451,"longitude":-80.75494},{"name":"Las Huacas","countryCode":"PA","stateCode":"9","latitude":7.90167,"longitude":-81.14056},{"name":"Las Huacas del Quije","countryCode":"PA","stateCode":"2","latitude":8.46702,"longitude":-80.75089},{"name":"Las Lajas","countryCode":"PA","stateCode":"10","latitude":8.54963,"longitude":-79.93521},{"name":"Las Lajas","countryCode":"PA","stateCode":"4","latitude":8.24184,"longitude":-81.86931},{"name":"Las Lomas","countryCode":"PA","stateCode":"4","latitude":8.42927,"longitude":-82.38743},{"name":"Las Margaritas","countryCode":"PA","stateCode":"3","latitude":9.32603,"longitude":-79.89028},{"name":"Las Margaritas","countryCode":"PA","stateCode":"8","latitude":9.18426,"longitude":-79.0873},{"name":"Las Marias","countryCode":"PA","stateCode":"2","latitude":8.88809,"longitude":-80.21893},{"name":"Las Minas","countryCode":"PA","stateCode":"2","latitude":8.64118,"longitude":-80.39432},{"name":"Las Minas","countryCode":"PA","stateCode":"6","latitude":7.79581,"longitude":-80.7457},{"name":"Las Palmas","countryCode":"PA","stateCode":"7","latitude":7.68314,"longitude":-80.49728},{"name":"Las Palmas","countryCode":"PA","stateCode":"9","latitude":8.13564,"longitude":-81.45674},{"name":"Las Palmitas","countryCode":"PA","stateCode":"7","latitude":7.76523,"longitude":-80.2935},{"name":"Las Sabanas","countryCode":"PA","stateCode":"2","latitude":8.58141,"longitude":-80.67978},{"name":"Las Tablas","countryCode":"PA","stateCode":"7","latitude":7.76472,"longitude":-80.27483},{"name":"Las Trancas","countryCode":"PA","stateCode":"7","latitude":7.734,"longitude":-80.37384},{"name":"Las Uvas","countryCode":"PA","stateCode":"10","latitude":8.45937,"longitude":-80.00075},{"name":"Leones Arriba","countryCode":"PA","stateCode":"6","latitude":7.7659,"longitude":-80.84515},{"name":"Leones Arriba","countryCode":"PA","stateCode":"9","latitude":7.75415,"longitude":-81.11556},{"name":"Lídice","countryCode":"PA","stateCode":"8","latitude":8.74869,"longitude":-79.90974},{"name":"Limón de Tijeras","countryCode":"PA","stateCode":"6","latitude":7.81756,"longitude":-80.91335},{"name":"Limones","countryCode":"PA","stateCode":"4","latitude":8.10007,"longitude":-82.86679},{"name":"Llano Abajo","countryCode":"PA","stateCode":"7","latitude":7.78598,"longitude":-80.4106},{"name":"Llano Bonito","countryCode":"PA","stateCode":"6","latitude":7.97637,"longitude":-80.41646},{"name":"Llano de La Cruz","countryCode":"PA","stateCode":"6","latitude":7.95178,"longitude":-80.64239},{"name":"Llano de Piedra","countryCode":"PA","stateCode":"7","latitude":7.65972,"longitude":-80.56347},{"name":"Llano Grande","countryCode":"PA","stateCode":"2","latitude":8.63817,"longitude":-80.43848},{"name":"Llano Grande","countryCode":"PA","stateCode":"6","latitude":7.97406,"longitude":-80.71103},{"name":"Llano Grande","countryCode":"PA","stateCode":"9","latitude":8.07473,"longitude":-81.13626},{"name":"Llano Largo","countryCode":"PA","stateCode":"10","latitude":8.83463,"longitude":-79.80765},{"name":"Llano Largo","countryCode":"PA","stateCode":"7","latitude":7.90607,"longitude":-80.42561},{"name":"Llano Marín","countryCode":"PA","stateCode":"2","latitude":8.47696,"longitude":-80.32499},{"name":"Llano Ñopo","countryCode":"PA","stateCode":"NB","latitude":8.41996,"longitude":-81.61865},{"name":"Lolá","countryCode":"PA","stateCode":"9","latitude":8.09326,"longitude":-81.47163},{"name":"Loma Yuca","countryCode":"PA","stateCode":"NB","latitude":8.71817,"longitude":-81.40492},{"name":"Los Algarrobos","countryCode":"PA","stateCode":"4","latitude":8.49601,"longitude":-82.42417},{"name":"Los Algarrobos","countryCode":"PA","stateCode":"9","latitude":8.10898,"longitude":-81.01355},{"name":"Los Anastacios","countryCode":"PA","stateCode":"4","latitude":8.53027,"longitude":-82.42295},{"name":"Los Ángeles","countryCode":"PA","stateCode":"4","latitude":8.52271,"longitude":-82.19997},{"name":"Los Ángeles","countryCode":"PA","stateCode":"7","latitude":7.88422,"longitude":-80.35772},{"name":"Los Asientos","countryCode":"PA","stateCode":"7","latitude":7.51656,"longitude":-80.13521},{"name":"Los Canelos","countryCode":"PA","stateCode":"6","latitude":8.11722,"longitude":-80.70769},{"name":"Los Castillos","countryCode":"PA","stateCode":"6","latitude":7.98565,"longitude":-80.61886},{"name":"Los Castillos","countryCode":"PA","stateCode":"9","latitude":8.02326,"longitude":-81.11941},{"name":"Los Cerritos","countryCode":"PA","stateCode":"6","latitude":7.79746,"longitude":-80.61071},{"name":"Los Cerros de Paja","countryCode":"PA","stateCode":"6","latitude":7.71821,"longitude":-80.67273},{"name":"Los Higos","countryCode":"PA","stateCode":"9","latitude":8.20553,"longitude":-80.86022},{"name":"Los Llanitos","countryCode":"PA","stateCode":"10","latitude":8.59787,"longitude":-80.09503},{"name":"Los Lotes","countryCode":"PA","stateCode":"8","latitude":9.12425,"longitude":-79.28929},{"name":"Los Naranjos","countryCode":"PA","stateCode":"4","latitude":8.7921,"longitude":-82.44665},{"name":"Los Olivos","countryCode":"PA","stateCode":"7","latitude":7.91589,"longitude":-80.48884},{"name":"Los Pollos","countryCode":"PA","stateCode":"2","latitude":8.39898,"longitude":-80.15731},{"name":"Los Pozos","countryCode":"PA","stateCode":"6","latitude":7.783,"longitude":-80.64524},{"name":"Los Santos","countryCode":"PA","stateCode":"7","latitude":7.93333,"longitude":-80.41667},{"name":"Macaracas","countryCode":"PA","stateCode":"7","latitude":7.73168,"longitude":-80.55364},{"name":"Manaca Civil","countryCode":"PA","stateCode":"4","latitude":8.32458,"longitude":-82.8157},{"name":"Manaca Norte","countryCode":"PA","stateCode":"4","latitude":8.33419,"longitude":-82.81003},{"name":"María Chiquita","countryCode":"PA","stateCode":"3","latitude":9.43991,"longitude":-79.75455},{"name":"Mariato District","countryCode":"PA","stateCode":"9","latitude":7.6781,"longitude":-81.00409},{"name":"Mata del Nance","countryCode":"PA","stateCode":"4","latitude":8.45056,"longitude":-82.40057},{"name":"Mendoza","countryCode":"PA","stateCode":"10","latitude":9.01471,"longitude":-79.85073},{"name":"Metetí","countryCode":"PA","stateCode":"5","latitude":8.49909,"longitude":-77.97897},{"name":"Miramar","countryCode":"PA","stateCode":"1","latitude":8.99482,"longitude":-82.24147},{"name":"Miramar","countryCode":"PA","stateCode":"3","latitude":9.57544,"longitude":-79.33573},{"name":"Mirono","countryCode":"PA","stateCode":"NB","latitude":8.40469,"longitude":-81.83064},{"name":"Mogollón","countryCode":"PA","stateCode":"7","latitude":7.64261,"longitude":-80.4595},{"name":"Monagrillo","countryCode":"PA","stateCode":"6","latitude":7.98179,"longitude":-80.43764},{"name":"Monjarás","countryCode":"PA","stateCode":"9","latitude":8.36942,"longitude":-80.86667},{"name":"Monte Lirio","countryCode":"PA","stateCode":"4","latitude":8.78935,"longitude":-82.82865},{"name":"Montijo","countryCode":"PA","stateCode":"9","latitude":7.98858,"longitude":-81.05643},{"name":"Mortí","countryCode":"PA","stateCode":"5","latitude":8.84246,"longitude":-77.97539},{"name":"Mulatupo","countryCode":"PA","stateCode":"KY","latitude":8.94672,"longitude":-77.7508},{"name":"Müna","countryCode":"PA","stateCode":"NB","latitude":8.35035,"longitude":-81.67219},{"name":"Narganá","countryCode":"PA","stateCode":"KY","latitude":9.44394,"longitude":-78.58666},{"name":"Natá","countryCode":"PA","stateCode":"2","latitude":8.33209,"longitude":-80.51969},{"name":"Nole Düima","countryCode":"PA","stateCode":"NB","latitude":8.32682,"longitude":-81.81531},{"name":"Nombre de Dios","countryCode":"PA","stateCode":"3","latitude":9.57937,"longitude":-79.47109},{"name":"Nuario","countryCode":"PA","stateCode":"7","latitude":7.53047,"longitude":-80.32692},{"name":"Nuestro Amo","countryCode":"PA","stateCode":"2","latitude":8.44485,"longitude":-80.58934},{"name":"Nueva Arenosa","countryCode":"PA","stateCode":"10","latitude":8.86944,"longitude":-79.99472},{"name":"Nueva Esperanza","countryCode":"PA","stateCode":"8","latitude":9.1021,"longitude":-79.33414},{"name":"Nueva Gorgona","countryCode":"PA","stateCode":"10","latitude":8.55,"longitude":-79.87547},{"name":"Nuevo Arraiján","countryCode":"PA","stateCode":"10","latitude":8.92453,"longitude":-79.72004},{"name":"Nuevo Belén","countryCode":"PA","stateCode":"8","latitude":9.07939,"longitude":-79.39556},{"name":"Nuevo Chagres","countryCode":"PA","stateCode":"3","latitude":9.23979,"longitude":-80.08267},{"name":"Nuevo Emperador","countryCode":"PA","stateCode":"10","latitude":9.00273,"longitude":-79.73141},{"name":"Nuevo San Carlitos","countryCode":"PA","stateCode":"4","latitude":8.45698,"longitude":-82.43712},{"name":"Nuevo San Juan","countryCode":"PA","stateCode":"3","latitude":9.22205,"longitude":-79.66602},{"name":"Nuevo Vigía","countryCode":"PA","stateCode":"3","latitude":9.24263,"longitude":-79.60756},{"name":"Nurun","countryCode":"PA","stateCode":"NB","latitude":8.47815,"longitude":-81.47015},{"name":"Ocú","countryCode":"PA","stateCode":"6","latitude":7.94052,"longitude":-80.77936},{"name":"Olá","countryCode":"PA","stateCode":"2","latitude":8.41807,"longitude":-80.65123},{"name":"Oma","countryCode":"PA","stateCode":"NB","latitude":8.35019,"longitude":-81.80177},{"name":"Oria Arriba","countryCode":"PA","stateCode":"7","latitude":7.50505,"longitude":-80.20567},{"name":"Pacora","countryCode":"PA","stateCode":"8","latitude":9.07937,"longitude":-79.28997},{"name":"Paja de Sombrero","countryCode":"PA","stateCode":"4","latitude":8.68335,"longitude":-82.31911},{"name":"Palenque","countryCode":"PA","stateCode":"3","latitude":9.5697,"longitude":-79.36341},{"name":"Palmas Bellas","countryCode":"PA","stateCode":"3","latitude":9.22838,"longitude":-80.08503},{"name":"Palmira","countryCode":"PA","stateCode":"3","latitude":9.54359,"longitude":-79.21946},{"name":"Palmira","countryCode":"PA","stateCode":"4","latitude":8.73401,"longitude":-82.45887},{"name":"Palmira","countryCode":"PA","stateCode":"7","latitude":7.66347,"longitude":-80.35728},{"name":"Palmira Centro","countryCode":"PA","stateCode":"4","latitude":8.73956,"longitude":-82.45228},{"name":"Panamá","countryCode":"PA","stateCode":"8","latitude":8.9936,"longitude":-79.51973},{"name":"Paraíso","countryCode":"PA","stateCode":"4","latitude":8.65842,"longitude":-82.58625},{"name":"Paraíso","countryCode":"PA","stateCode":"7","latitude":7.6851,"longitude":-80.16082},{"name":"Paredón Arriba","countryCode":"PA","stateCode":"NB","latitude":8.45977,"longitude":-81.19592},{"name":"París","countryCode":"PA","stateCode":"6","latitude":8.05053,"longitude":-80.55409},{"name":"Parita","countryCode":"PA","stateCode":"6","latitude":7.99393,"longitude":-80.52097},{"name":"Paritilla","countryCode":"PA","stateCode":"7","latitude":7.62848,"longitude":-80.1724},{"name":"Parque Lefevre","countryCode":"PA","stateCode":"8","latitude":9.01667,"longitude":-79.48333},{"name":"Pásiga","countryCode":"PA","stateCode":"8","latitude":8.93647,"longitude":-78.90917},{"name":"Paso Canoas Arriba","countryCode":"PA","stateCode":"4","latitude":8.56516,"longitude":-82.82214},{"name":"Pedasí","countryCode":"PA","stateCode":"7","latitude":7.53034,"longitude":-80.02699},{"name":"Pedregal","countryCode":"PA","stateCode":"4","latitude":8.36586,"longitude":-82.43524},{"name":"Pedregal","countryCode":"PA","stateCode":"8","latitude":9.06667,"longitude":-79.43333},{"name":"Peña Blanca","countryCode":"PA","stateCode":"7","latitude":7.71931,"longitude":-80.28366},{"name":"Peñas Chatas","countryCode":"PA","stateCode":"6","latitude":8.01502,"longitude":-80.80366},{"name":"Penonomé","countryCode":"PA","stateCode":"2","latitude":8.51889,"longitude":-80.35727},{"name":"Perales","countryCode":"PA","stateCode":"7","latitude":7.77461,"longitude":-80.32494},{"name":"Pesé","countryCode":"PA","stateCode":"6","latitude":7.90863,"longitude":-80.61433},{"name":"Piedras Gordas","countryCode":"PA","stateCode":"2","latitude":8.63777,"longitude":-80.51024},{"name":"Piedras Gordas","countryCode":"PA","stateCode":"9","latitude":8.52419,"longitude":-80.91152},{"name":"Pitaloza Arriba","countryCode":"PA","stateCode":"6","latitude":7.64216,"longitude":-80.66788},{"name":"Plan de Chorcha","countryCode":"PA","stateCode":"NB","latitude":8.46168,"longitude":-82.15924},{"name":"Playa Chiquita","countryCode":"PA","stateCode":"3","latitude":9.5662,"longitude":-79.29185},{"name":"Playa Leona","countryCode":"PA","stateCode":"10","latitude":8.78389,"longitude":-79.77547},{"name":"Playón Chico","countryCode":"PA","stateCode":"KY","latitude":9.31128,"longitude":-78.2327},{"name":"Plaza de Caisán","countryCode":"PA","stateCode":"4","latitude":8.73672,"longitude":-82.81968},{"name":"Pocrí","countryCode":"PA","stateCode":"2","latitude":8.25814,"longitude":-80.55},{"name":"Pocrí","countryCode":"PA","stateCode":"7","latitude":7.65816,"longitude":-80.12119},{"name":"Ponuga","countryCode":"PA","stateCode":"9","latitude":7.88245,"longitude":-80.9788},{"name":"Portobelillo","countryCode":"PA","stateCode":"6","latitude":8.01738,"longitude":-80.59538},{"name":"Portobelo","countryCode":"PA","stateCode":"3","latitude":9.55303,"longitude":-79.65693},{"name":"Potrerillos Abajo","countryCode":"PA","stateCode":"4","latitude":8.63978,"longitude":-82.4856},{"name":"Potrerillos Arriba","countryCode":"PA","stateCode":"4","latitude":8.68547,"longitude":-82.4909},{"name":"Potrero Grande","countryCode":"PA","stateCode":"10","latitude":8.88051,"longitude":-79.82795},{"name":"Potuga","countryCode":"PA","stateCode":"6","latitude":8.06317,"longitude":-80.62271},{"name":"Progreso","countryCode":"PA","stateCode":"4","latitude":8.44669,"longitude":-82.83859},{"name":"Púcuro","countryCode":"PA","stateCode":"5","latitude":7.97876,"longitude":-77.48758},{"name":"Pueblo Nuevo","countryCode":"PA","stateCode":"NB","latitude":8.8807,"longitude":-82.22411},{"name":"Pueblo Viejo","countryCode":"PA","stateCode":"4","latitude":8.25081,"longitude":-81.66259},{"name":"Puerto Armuelles","countryCode":"PA","stateCode":"4","latitude":8.27775,"longitude":-82.86206},{"name":"Puerto Caimito","countryCode":"PA","stateCode":"10","latitude":8.87022,"longitude":-79.71423},{"name":"Puerto Escondido","countryCode":"PA","stateCode":"3","latitude":9.19333,"longitude":-80.08833},{"name":"Puerto Obaldía","countryCode":"PA","stateCode":"KY","latitude":8.66632,"longitude":-77.41922},{"name":"Puerto Pilón","countryCode":"PA","stateCode":"3","latitude":9.36316,"longitude":-79.79333},{"name":"Puerto Vidal","countryCode":"PA","stateCode":"9","latitude":8.04834,"longitude":-81.60499},{"name":"Punta de Burica","countryCode":"PA","stateCode":"4","latitude":8.03333,"longitude":-82.86667},{"name":"Punta Laurel","countryCode":"PA","stateCode":"1","latitude":9.141,"longitude":-82.12717},{"name":"Punta Peña","countryCode":"PA","stateCode":"1","latitude":8.91659,"longitude":-82.18488},{"name":"Punta Róbalo","countryCode":"PA","stateCode":"1","latitude":9.03631,"longitude":-82.24952},{"name":"Quebrada Bonita Adentro","countryCode":"PA","stateCode":"3","latitude":9.29662,"longitude":-79.70606},{"name":"Quebrada Canoa","countryCode":"PA","stateCode":"NB","latitude":8.43333,"longitude":-81.78333},{"name":"Quebrada de Oro","countryCode":"PA","stateCode":"9","latitude":8.03548,"longitude":-81.38692},{"name":"Quebrada de Piedra","countryCode":"PA","stateCode":"4","latitude":8.09418,"longitude":-81.67915},{"name":"Quebrada del Rosario","countryCode":"PA","stateCode":"6","latitude":7.71238,"longitude":-80.74222},{"name":"Quebrada Tula","countryCode":"PA","stateCode":"NB","latitude":8.84037,"longitude":-81.99645},{"name":"Querévalo","countryCode":"PA","stateCode":"4","latitude":8.37174,"longitude":-82.5267},{"name":"Quinteño","countryCode":"PA","stateCode":"4","latitude":8.47102,"longitude":-82.39352},{"name":"Remedios","countryCode":"PA","stateCode":"4","latitude":8.22436,"longitude":-81.82747},{"name":"Rincón","countryCode":"PA","stateCode":"4","latitude":8.46374,"longitude":-82.27951},{"name":"Rincón Hondo","countryCode":"PA","stateCode":"6","latitude":7.84436,"longitude":-80.60397},{"name":"Río Abajo","countryCode":"PA","stateCode":"8","latitude":9.01667,"longitude":-79.5},{"name":"Río Alejandro","countryCode":"PA","stateCode":"3","latitude":9.37149,"longitude":-79.78809},{"name":"Río Congo","countryCode":"PA","stateCode":"10","latitude":8.96666,"longitude":-79.76105},{"name":"Río de Jesús","countryCode":"PA","stateCode":"9","latitude":7.97882,"longitude":-81.16162},{"name":"Río Duque","countryCode":"PA","stateCode":"3","latitude":9.25688,"longitude":-79.67937},{"name":"Río Grande","countryCode":"PA","stateCode":"2","latitude":8.42679,"longitude":-80.48457},{"name":"Río Grande","countryCode":"PA","stateCode":"9","latitude":7.71907,"longitude":-81.33423},{"name":"Río Hato","countryCode":"PA","stateCode":"2","latitude":8.3794,"longitude":-80.16621},{"name":"Río Hondo","countryCode":"PA","stateCode":"7","latitude":7.71192,"longitude":-80.35904},{"name":"Río Rita","countryCode":"PA","stateCode":"3","latitude":9.30296,"longitude":-79.79234},{"name":"Río Sereno","countryCode":"PA","stateCode":"4","latitude":8.81741,"longitude":-82.85731},{"name":"Rodeo Viejo","countryCode":"PA","stateCode":"9","latitude":8.11205,"longitude":-81.31684},{"name":"Rovira Arriba","countryCode":"PA","stateCode":"4","latitude":8.63822,"longitude":-82.49965},{"name":"Sabana Grande","countryCode":"PA","stateCode":"6","latitude":7.88002,"longitude":-80.63818},{"name":"Sabana Grande","countryCode":"PA","stateCode":"7","latitude":7.83543,"longitude":-80.3649},{"name":"Sabanitas","countryCode":"PA","stateCode":"3","latitude":9.34269,"longitude":-79.80961},{"name":"Sambú","countryCode":"PA","stateCode":"EM","latitude":7.82013,"longitude":-78.11005},{"name":"San Andrés","countryCode":"PA","stateCode":"4","latitude":8.6026,"longitude":-82.72588},{"name":"San Antonio","countryCode":"PA","stateCode":"8","latitude":9.1729,"longitude":-79.54743},{"name":"San Bartolo","countryCode":"PA","stateCode":"9","latitude":8.21063,"longitude":-81.27572},{"name":"San Carlos","countryCode":"PA","stateCode":"10","latitude":8.47323,"longitude":-79.96104},{"name":"San Carlos","countryCode":"PA","stateCode":"4","latitude":8.51663,"longitude":-82.50906},{"name":"San Felipe","countryCode":"PA","stateCode":"8","latitude":8.95118,"longitude":-79.53726},{"name":"San Félix","countryCode":"PA","stateCode":"4","latitude":8.29063,"longitude":-81.86702},{"name":"San Francisco","countryCode":"PA","stateCode":"9","latitude":8.06667,"longitude":-81.36667},{"name":"San Ignacio de Tupile","countryCode":"PA","stateCode":"KY","latitude":9.28905,"longitude":-78.15206},{"name":"San Isidro","countryCode":"PA","stateCode":"4","latitude":8.53032,"longitude":-82.8272},{"name":"San José","countryCode":"PA","stateCode":"10","latitude":8.93333,"longitude":-79.73333},{"name":"San José","countryCode":"PA","stateCode":"7","latitude":7.67395,"longitude":-80.24438},{"name":"San José","countryCode":"PA","stateCode":"9","latitude":8.46704,"longitude":-80.80514},{"name":"San Juan","countryCode":"PA","stateCode":"9","latitude":8.30311,"longitude":-81.01575},{"name":"San Juan Bautista","countryCode":"PA","stateCode":"6","latitude":7.96099,"longitude":-80.41283},{"name":"San Juan de Dios","countryCode":"PA","stateCode":"2","latitude":8.55119,"longitude":-80.22623},{"name":"San Lorenzo","countryCode":"PA","stateCode":"4","latitude":8.30561,"longitude":-82.10114},{"name":"San Marcelo","countryCode":"PA","stateCode":"9","latitude":8.27252,"longitude":-81.15988},{"name":"San Miguel","countryCode":"PA","stateCode":"8","latitude":8.45685,"longitude":-78.93695},{"name":"San Miguelito","countryCode":"PA","stateCode":"8","latitude":9.05032,"longitude":-79.47068},{"name":"San Pablo Nuevo Abajo","countryCode":"PA","stateCode":"4","latitude":8.42558,"longitude":-82.50173},{"name":"San Pablo Viejo Abajo","countryCode":"PA","stateCode":"4","latitude":8.45339,"longitude":-82.50179},{"name":"San Pedro del Espino","countryCode":"PA","stateCode":"9","latitude":8.14011,"longitude":-81.08663},{"name":"San Vicente","countryCode":"PA","stateCode":"8","latitude":9.11445,"longitude":-79.59755},{"name":"San Vicente de Bique","countryCode":"PA","stateCode":"10","latitude":8.91143,"longitude":-79.6736},{"name":"Santa Ana Arriba","countryCode":"PA","stateCode":"7","latitude":7.933,"longitude":-80.36369},{"name":"Santa Clara","countryCode":"PA","stateCode":"10","latitude":9.02875,"longitude":-79.75443},{"name":"Santa Clara","countryCode":"PA","stateCode":"4","latitude":8.83376,"longitude":-82.77945},{"name":"Santa Cruz","countryCode":"PA","stateCode":"4","latitude":8.23219,"longitude":-81.91323},{"name":"Santa Fé","countryCode":"PA","stateCode":"5","latitude":8.65525,"longitude":-78.1614},{"name":"Santa Fé","countryCode":"PA","stateCode":"9","latitude":8.51063,"longitude":-81.07802},{"name":"Santa Isabel","countryCode":"PA","stateCode":"3","latitude":9.53922,"longitude":-79.1957},{"name":"Santa María","countryCode":"PA","stateCode":"6","latitude":8.11143,"longitude":-80.66582},{"name":"Santa Marta","countryCode":"PA","stateCode":"4","latitude":8.51406,"longitude":-82.6987},{"name":"Santa Rita","countryCode":"PA","stateCode":"10","latitude":8.85681,"longitude":-79.87954},{"name":"Santa Rita Arriba","countryCode":"PA","stateCode":"3","latitude":9.33032,"longitude":-79.79363},{"name":"Santa Rosa","countryCode":"PA","stateCode":"4","latitude":8.59958,"longitude":-82.68489},{"name":"Santiago de Veraguas","countryCode":"PA","stateCode":"9","latitude":8.1,"longitude":-80.98333},{"name":"Santo Domingo","countryCode":"PA","stateCode":"4","latitude":8.50803,"longitude":-82.71295},{"name":"Santo Domingo","countryCode":"PA","stateCode":"7","latitude":7.74614,"longitude":-80.24173},{"name":"Santo Tomás","countryCode":"PA","stateCode":"4","latitude":8.38959,"longitude":-82.65058},{"name":"Sesteadero","countryCode":"PA","stateCode":"7","latitude":7.73885,"longitude":-80.24854},{"name":"Sioguí Abajo","countryCode":"PA","stateCode":"4","latitude":8.48678,"longitude":-82.66539},{"name":"Sioguí Arriba","countryCode":"PA","stateCode":"4","latitude":8.53865,"longitude":-82.68619},{"name":"Sitio Prado","countryCode":"PA","stateCode":"NB","latitude":8.37233,"longitude":-81.58141},{"name":"Soná","countryCode":"PA","stateCode":"9","latitude":8.01223,"longitude":-81.32163},{"name":"Sorá","countryCode":"PA","stateCode":"10","latitude":8.63191,"longitude":-80.00888},{"name":"Sortova","countryCode":"PA","stateCode":"4","latitude":8.54642,"longitude":-82.6517},{"name":"Tebario","countryCode":"PA","stateCode":"9","latitude":7.71369,"longitude":-80.97825},{"name":"Tijeras","countryCode":"PA","stateCode":"4","latitude":8.47514,"longitude":-82.56058},{"name":"Tinajas","countryCode":"PA","stateCode":"4","latitude":8.55281,"longitude":-82.45963},{"name":"Toabré","countryCode":"PA","stateCode":"2","latitude":8.65131,"longitude":-80.32017},{"name":"Tobobe","countryCode":"PA","stateCode":"NB","latitude":9.12111,"longitude":-81.82471},{"name":"Tocumen","countryCode":"PA","stateCode":"8","latitude":9.08939,"longitude":-79.3831},{"name":"Tolé","countryCode":"PA","stateCode":"4","latitude":8.23989,"longitude":-81.67168},{"name":"Tonosí","countryCode":"PA","stateCode":"7","latitude":7.40684,"longitude":-80.44217},{"name":"Tortí","countryCode":"PA","stateCode":"8","latitude":8.92132,"longitude":-78.40546},{"name":"Toza","countryCode":"PA","stateCode":"2","latitude":8.34542,"longitude":-80.64012},{"name":"Tres Quebradas","countryCode":"PA","stateCode":"7","latitude":7.84018,"longitude":-80.4074},{"name":"Tubualá","countryCode":"PA","stateCode":"KY","latitude":9.51667,"longitude":-79.03333},{"name":"Unión Chocó","countryCode":"PA","stateCode":"EM","latitude":8.08404,"longitude":-77.53507},{"name":"Unión de Azuero","countryCode":"PA","stateCode":"8","latitude":9.15256,"longitude":-79.17005},{"name":"Unión Santeña","countryCode":"PA","stateCode":"8","latitude":8.83525,"longitude":-78.65104},{"name":"Ustupo","countryCode":"PA","stateCode":"KY","latitude":9.13112,"longitude":-77.9262},{"name":"Utirá","countryCode":"PA","stateCode":"9","latitude":7.97208,"longitude":-81.21777},{"name":"Valle del Risco","countryCode":"PA","stateCode":"1","latitude":9.23064,"longitude":-82.42748},{"name":"Valle Rico","countryCode":"PA","stateCode":"7","latitude":7.62011,"longitude":-80.35076},{"name":"Vallerriquito","countryCode":"PA","stateCode":"7","latitude":7.62163,"longitude":-80.31975},{"name":"Veladero","countryCode":"PA","stateCode":"4","latitude":8.23136,"longitude":-81.65417},{"name":"Veracruz","countryCode":"PA","stateCode":"10","latitude":8.88988,"longitude":-79.62603},{"name":"Viento Frío","countryCode":"PA","stateCode":"3","latitude":9.58263,"longitude":-79.4069},{"name":"Viguí","countryCode":"PA","stateCode":"9","latitude":8.33921,"longitude":-81.49823},{"name":"Villa Carmen","countryCode":"PA","stateCode":"10","latitude":8.79832,"longitude":-79.86929},{"name":"Villa Lourdes","countryCode":"PA","stateCode":"7","latitude":7.81141,"longitude":-80.47029},{"name":"Villa Rosario","countryCode":"PA","stateCode":"10","latitude":8.77379,"longitude":-79.87547},{"name":"Villa Unida","countryCode":"PA","stateCode":"8","latitude":9.18908,"longitude":-79.62452},{"name":"Vista Alegre","countryCode":"PA","stateCode":"10","latitude":8.92772,"longitude":-79.7028},{"name":"Vista Hermosa","countryCode":"PA","stateCode":"2","latitude":8.52687,"longitude":-80.37486},{"name":"Vista Hermosa","countryCode":"PA","stateCode":"8","latitude":9.11178,"longitude":-79.36113},{"name":"Volcán","countryCode":"PA","stateCode":"4","latitude":8.77291,"longitude":-82.63823},{"name":"Yape","countryCode":"PA","stateCode":"EM","latitude":8.09839,"longitude":-77.59817},{"name":"Yaviza","countryCode":"PA","stateCode":"5","latitude":8.15835,"longitude":-77.69276},{"name":"Zapotillo","countryCode":"PA","stateCode":"9","latitude":8.00532,"longitude":-81.50653}]
