[{"name":"Abau","countryCode":"PG","stateCode":"CPM","latitude":-10.08333,"longitude":148.91667},{"name":"Aitape","countryCode":"PG","stateCode":"SAN","latitude":-3.13697,"longitude":142.34913},{"name":"Aitape Lumi","countryCode":"PG","stateCode":"SAN","latitude":-3.25,"longitude":142.08333},{"name":"Alotau","countryCode":"PG","stateCode":"MBA","latitude":-10.25,"longitude":150.08333},{"name":"Angalimp South Wahgi","countryCode":"PG","stateCode":"JWK","latitude":-6.05,"longitude":144.56667},{"name":"Arawa","countryCode":"PG","stateCode":"NSB","latitude":-6.22977,"longitude":155.56598},{"name":"Baiyer Mul","countryCode":"PG","stateCode":"WHM","latitude":-5.53333,"longitude":144.15},{"name":"Bogia","countryCode":"PG","stateCode":"MPM","latitude":-4.5,"longitude":145},{"name":"Bulolo","countryCode":"PG","stateCode":"MPL","latitude":-7.41667,"longitude":146.75},{"name":"Central Bougainville","countryCode":"PG","stateCode":"NSB","latitude":-6.22806,"longitude":155.56583},{"name":"Chuave","countryCode":"PG","stateCode":"CPK","latitude":-6.16667,"longitude":145.08333},{"name":"Daru","countryCode":"PG","stateCode":"WPD","latitude":-9.07786,"longitude":143.20893},{"name":"Daulo","countryCode":"PG","stateCode":"EHG","latitude":-5.98333,"longitude":145.23333},{"name":"Dei","countryCode":"PG","stateCode":"WHM","latitude":-5.68333,"longitude":144.36667},{"name":"Esa’ala","countryCode":"PG","stateCode":"MBA","latitude":-9.58333,"longitude":150.75},{"name":"Finschhafen","countryCode":"PG","stateCode":"MPL","latitude":-6.41667,"longitude":147.5},{"name":"Gazelle","countryCode":"PG","stateCode":"EBR","latitude":-4.48333,"longitude":151.86667},{"name":"Goilala","countryCode":"PG","stateCode":"CPM","latitude":-8.33333,"longitude":147},{"name":"Goroka","countryCode":"PG","stateCode":"EHG","latitude":-6.05,"longitude":145.38333},{"name":"Gumine","countryCode":"PG","stateCode":"CPK","latitude":-6.25,"longitude":144.88333},{"name":"Hagen","countryCode":"PG","stateCode":"WHM","latitude":-5.83333,"longitude":144.28333},{"name":"Henganofi","countryCode":"PG","stateCode":"EHG","latitude":-6.21667,"longitude":145.66667},{"name":"Huon Gulf","countryCode":"PG","stateCode":"MPL","latitude":-7.18333,"longitude":146.95},{"name":"Ialibu","countryCode":"PG","stateCode":"SHM","latitude":-6.28208,"longitude":143.99354},{"name":"Ialibu Pangia","countryCode":"PG","stateCode":"SHM","latitude":-6.16667,"longitude":144},{"name":"Ijivitari","countryCode":"PG","stateCode":"NPP","latitude":-9.33333,"longitude":148.58333},{"name":"Imbonggu","countryCode":"PG","stateCode":"SHM","latitude":-6.16667,"longitude":144},{"name":"Jimi","countryCode":"PG","stateCode":"JWK","latitude":-5.53333,"longitude":144.56667},{"name":"Kabwum","countryCode":"PG","stateCode":"MPL","latitude":-6.08333,"longitude":147},{"name":"Kagua Erave","countryCode":"PG","stateCode":"SHM","latitude":-6.66667,"longitude":144},{"name":"Kainantu","countryCode":"PG","stateCode":"EHG","latitude":-6.41667,"longitude":145.91667},{"name":"Kairuku-Hiri","countryCode":"PG","stateCode":"CPM","latitude":-9.13648,"longitude":147.27905},{"name":"Kandep","countryCode":"PG","stateCode":"EPW","latitude":-5.83333,"longitude":143.55},{"name":"Kandrian","countryCode":"PG","stateCode":"WBK","latitude":-6.20655,"longitude":149.54744},{"name":"Kandrian Gloucester","countryCode":"PG","stateCode":"WBK","latitude":-6.08333,"longitude":149.91667},{"name":"Karimui Nomane","countryCode":"PG","stateCode":"CPK","latitude":-6.58333,"longitude":144.83333},{"name":"Kavieng","countryCode":"PG","stateCode":"NIK","latitude":-3,"longitude":151.41667},{"name":"Kerema","countryCode":"PG","stateCode":"GPK","latitude":-7.796,"longitude":146.093},{"name":"Kerowagi","countryCode":"PG","stateCode":"CPK","latitude":-5.93333,"longitude":144.88333},{"name":"Kieta","countryCode":"PG","stateCode":"NSB","latitude":-6.21462,"longitude":155.63251},{"name":"Kikori","countryCode":"PG","stateCode":"GPK","latitude":-7.25,"longitude":144.33333},{"name":"Kimbe","countryCode":"PG","stateCode":"WBK","latitude":-5.55085,"longitude":150.13766},{"name":"Kiriwina Goodenough","countryCode":"PG","stateCode":"MBA","latitude":-8.48333,"longitude":151.06667},{"name":"Kiunga","countryCode":"PG","stateCode":"WPD","latitude":-6.12193,"longitude":141.29061},{"name":"Kokoda","countryCode":"PG","stateCode":"NPP","latitude":-8.87778,"longitude":147.73642},{"name":"Kokopo","countryCode":"PG","stateCode":"EBR","latitude":-4.4,"longitude":152.28333},{"name":"Komo Margarima","countryCode":"PG","stateCode":"HLA","latitude":-6.11667,"longitude":143},{"name":"Kompiam Ambum","countryCode":"PG","stateCode":"EPW","latitude":-5.25,"longitude":144},{"name":"Koroba-Lake Kopiago","countryCode":"PG","stateCode":"HLA","latitude":-5.41667,"longitude":142.5},{"name":"Kundiawa","countryCode":"PG","stateCode":"CPK","latitude":-5.91667,"longitude":145.05},{"name":"Lae","countryCode":"PG","stateCode":"MPL","latitude":-6.5,"longitude":146.83333},{"name":"Lagaip Porgera","countryCode":"PG","stateCode":"EPW","latitude":-5.38333,"longitude":143.16667},{"name":"Lorengau","countryCode":"PG","stateCode":"MRL","latitude":-2.0341,"longitude":147.27173},{"name":"Lufa","countryCode":"PG","stateCode":"EHG","latitude":-6.45,"longitude":145.25},{"name":"Madang","countryCode":"PG","stateCode":"MPM","latitude":-5.22152,"longitude":145.78695},{"name":"Manus","countryCode":"PG","stateCode":"MRL","latitude":-2.09626,"longitude":146.96612},{"name":"Markham","countryCode":"PG","stateCode":"MPL","latitude":-6.64153,"longitude":146.86043},{"name":"Mendi","countryCode":"PG","stateCode":"SHM","latitude":-6.14755,"longitude":143.65633},{"name":"Menyamya","countryCode":"PG","stateCode":"MPL","latitude":-7.25,"longitude":146.16667},{"name":"Middle Fly","countryCode":"PG","stateCode":"WPD","latitude":-7.16667,"longitude":142.03333},{"name":"Middle Ramu","countryCode":"PG","stateCode":"MPM","latitude":-4.91667,"longitude":144.75},{"name":"Morehead","countryCode":"PG","stateCode":"WPD","latitude":-8.71065,"longitude":141.63668},{"name":"Mount Hagen","countryCode":"PG","stateCode":"WHM","latitude":-5.85746,"longitude":144.23058},{"name":"Namatanai","countryCode":"PG","stateCode":"NIK","latitude":-4.33333,"longitude":152.83333},{"name":"National Capital District","countryCode":"PG","stateCode":"NCD","latitude":-9.42257,"longitude":147.16641},{"name":"Nawae","countryCode":"PG","stateCode":"MPL","latitude":-6.46667,"longitude":146.96667},{"name":"Nipa Kutubu","countryCode":"PG","stateCode":"SHM","latitude":-6.33333,"longitude":143.33333},{"name":"North Bougainville","countryCode":"PG","stateCode":"NSB","latitude":-5.42194,"longitude":154.67278},{"name":"North Fly","countryCode":"PG","stateCode":"WPD","latitude":-5.72896,"longitude":141.37482},{"name":"North Wahgi","countryCode":"PG","stateCode":"JWK","latitude":-5.8,"longitude":144.68333},{"name":"Nuku","countryCode":"PG","stateCode":"SAN","latitude":-3.66667,"longitude":142.41667},{"name":"Obura Wonenara","countryCode":"PG","stateCode":"EHG","latitude":-6.55434,"longitude":145.97328},{"name":"Okapa","countryCode":"PG","stateCode":"EHG","latitude":-6.63333,"longitude":145.5},{"name":"Panguna","countryCode":"PG","stateCode":"NSB","latitude":-6.31639,"longitude":155.48483},{"name":"Pomio","countryCode":"PG","stateCode":"EBR","latitude":-5.5,"longitude":151.33333},{"name":"Popondetta","countryCode":"PG","stateCode":"NPP","latitude":-8.76536,"longitude":148.23252},{"name":"Porgera","countryCode":"PG","stateCode":"EPW","latitude":-5.463,"longitude":143.148},{"name":"Port Moresby","countryCode":"PG","stateCode":"NCD","latitude":-9.47723,"longitude":147.15089},{"name":"Rabaul","countryCode":"PG","stateCode":"EBR","latitude":-4.18333,"longitude":152.16667},{"name":"Rai Coast","countryCode":"PG","stateCode":"MPM","latitude":-5.72303,"longitude":146.46149},{"name":"Rigo","countryCode":"PG","stateCode":"CPM","latitude":-9.75,"longitude":147.83333},{"name":"Samarai","countryCode":"PG","stateCode":"MBA","latitude":-10.61038,"longitude":150.66207},{"name":"Samarai Murua","countryCode":"PG","stateCode":"MBA","latitude":-10.49636,"longitude":150.54703},{"name":"Sinasina Yonggamugl","countryCode":"PG","stateCode":"CPK","latitude":-6.08333,"longitude":145.01667},{"name":"Sohe","countryCode":"PG","stateCode":"NPP","latitude":-9,"longitude":147.91667},{"name":"South Bougainville","countryCode":"PG","stateCode":"NSB","latitude":-6.74593,"longitude":155.6964},{"name":"South Fly","countryCode":"PG","stateCode":"WPD","latitude":-8.61667,"longitude":142.11667},{"name":"Sumkar","countryCode":"PG","stateCode":"MPM","latitude":-4.8,"longitude":145.55},{"name":"Talasea","countryCode":"PG","stateCode":"WBK","latitude":-5.66667,"longitude":149.58333},{"name":"Tambul Nebilyer","countryCode":"PG","stateCode":"WHM","latitude":-5.98333,"longitude":144.15},{"name":"Tari","countryCode":"PG","stateCode":"HLA","latitude":-5.845,"longitude":142.94667},{"name":"Tari Pori","countryCode":"PG","stateCode":"HLA","latitude":-6.28333,"longitude":142.83333},{"name":"Telefomin","countryCode":"PG","stateCode":"SAN","latitude":-4.91667,"longitude":141.66667},{"name":"Tewai Siassi","countryCode":"PG","stateCode":"MPL","latitude":-6.15,"longitude":147.53333},{"name":"Unggai Bena","countryCode":"PG","stateCode":"EHG","latitude":-6.11667,"longitude":145.51667},{"name":"Usino Bundi","countryCode":"PG","stateCode":"MPM","latitude":-5.53333,"longitude":145.16667},{"name":"Vanimo","countryCode":"PG","stateCode":"SAN","latitude":-2.68372,"longitude":141.30195},{"name":"Vanimo Green","countryCode":"PG","stateCode":"SAN","latitude":-3.36667,"longitude":141.35},{"name":"Wabag","countryCode":"PG","stateCode":"EPW","latitude":-5.33333,"longitude":143.65},{"name":"Wapenamanda","countryCode":"PG","stateCode":"EPW","latitude":-5.66667,"longitude":143.91667},{"name":"Wau","countryCode":"PG","stateCode":"MPL","latitude":-7.33778,"longitude":146.71649}]
