[{"name":"Abramów","countryCode":"PL","stateCode":"LU","latitude":51.45647,"longitude":22.31521},{"name":"Adamów","countryCode":"PL","stateCode":"LU","latitude":51.74335,"longitude":22.26414},{"name":"Adamówka","countryCode":"PL","stateCode":"PK","latitude":50.25857,"longitude":22.69595},{"name":"Albigowa","countryCode":"PL","stateCode":"PK","latitude":50.01425,"longitude":22.22414},{"name":"Aleksandrów","countryCode":"PL","stateCode":"LD","latitude":51.27126,"longitude":19.99005},{"name":"Aleksandrów","countryCode":"PL","stateCode":"LU","latitude":50.4663,"longitude":22.89225},{"name":"Aleksandrów Kujawski","countryCode":"PL","stateCode":"KP","latitude":52.87659,"longitude":18.69345},{"name":"Aleksandrów Łódzki","countryCode":"PL","stateCode":"LD","latitude":51.81965,"longitude":19.30384},{"name":"Alwernia","countryCode":"PL","stateCode":"MA","latitude":50.06056,"longitude":19.53953},{"name":"Andrespol","countryCode":"PL","stateCode":"LD","latitude":51.72783,"longitude":19.64175},{"name":"Andrychów","countryCode":"PL","stateCode":"MA","latitude":49.85497,"longitude":19.33834},{"name":"Annopol","countryCode":"PL","stateCode":"LU","latitude":50.88551,"longitude":21.85678},{"name":"Augustów","countryCode":"PL","stateCode":"PD","latitude":53.84321,"longitude":22.97979},{"name":"Babiak","countryCode":"PL","stateCode":"WP","latitude":52.3453,"longitude":18.66663},{"name":"Babica","countryCode":"PL","stateCode":"PK","latitude":49.93476,"longitude":21.87035},{"name":"Babice","countryCode":"PL","stateCode":"MA","latitude":50.05565,"longitude":19.19955},{"name":"Babimost","countryCode":"PL","stateCode":"LB","latitude":52.16488,"longitude":15.82769},{"name":"Baborów","countryCode":"PL","stateCode":"OP","latitude":50.1576,"longitude":17.98513},{"name":"Baboszewo","countryCode":"PL","stateCode":"MZ","latitude":52.6807,"longitude":20.25527},{"name":"Bachowice","countryCode":"PL","stateCode":"MA","latitude":49.95812,"longitude":19.49369},{"name":"Baćkowice","countryCode":"PL","stateCode":"SK","latitude":50.79194,"longitude":21.23211},{"name":"Bąków","countryCode":"PL","stateCode":"SL","latitude":49.89342,"longitude":18.71495},{"name":"Balice","countryCode":"PL","stateCode":"MA","latitude":50.08799,"longitude":19.79462},{"name":"Baligród","countryCode":"PL","stateCode":"PK","latitude":49.3309,"longitude":22.28566},{"name":"Balin","countryCode":"PL","stateCode":"MA","latitude":50.16799,"longitude":19.3834},{"name":"Bałtów","countryCode":"PL","stateCode":"SK","latitude":51.01845,"longitude":21.54385},{"name":"Banie","countryCode":"PL","stateCode":"ZP","latitude":53.10031,"longitude":14.66228},{"name":"Banie Mazurskie","countryCode":"PL","stateCode":"WN","latitude":54.24662,"longitude":22.03617},{"name":"Banino","countryCode":"PL","stateCode":"PM","latitude":54.39215,"longitude":18.40622},{"name":"Baniocha","countryCode":"PL","stateCode":"MZ","latitude":52.01653,"longitude":21.13984},{"name":"Baranów","countryCode":"PL","stateCode":"LU","latitude":51.55786,"longitude":22.13625},{"name":"Baranów","countryCode":"PL","stateCode":"WP","latitude":51.26342,"longitude":18.0047},{"name":"Baranów Sandomierski","countryCode":"PL","stateCode":"PK","latitude":50.49912,"longitude":21.54204},{"name":"Baranowo","countryCode":"PL","stateCode":"MZ","latitude":53.17554,"longitude":21.29803},{"name":"Baranowo","countryCode":"PL","stateCode":"WP","latitude":52.43525,"longitude":16.78631},{"name":"Barciany","countryCode":"PL","stateCode":"WN","latitude":54.21993,"longitude":21.35347},{"name":"Barcin","countryCode":"PL","stateCode":"KP","latitude":52.86607,"longitude":17.94625},{"name":"Barczewo","countryCode":"PL","stateCode":"WN","latitude":53.83055,"longitude":20.69112},{"name":"Bardo","countryCode":"PL","stateCode":"DS","latitude":50.50589,"longitude":16.73986},{"name":"Barlinek","countryCode":"PL","stateCode":"ZP","latitude":52.99464,"longitude":15.21864},{"name":"Bartniczka","countryCode":"PL","stateCode":"KP","latitude":53.24776,"longitude":19.60433},{"name":"Bartoszyce","countryCode":"PL","stateCode":"WN","latitude":54.25354,"longitude":20.80819},{"name":"Baruchowo","countryCode":"PL","stateCode":"KP","latitude":52.49412,"longitude":19.26496},{"name":"Barwałd Górny","countryCode":"PL","stateCode":"MA","latitude":49.86211,"longitude":19.61746},{"name":"Barwałd Średni","countryCode":"PL","stateCode":"MA","latitude":49.86632,"longitude":19.5936},{"name":"Barwice","countryCode":"PL","stateCode":"ZP","latitude":53.7449,"longitude":16.3553},{"name":"Batorz","countryCode":"PL","stateCode":"LU","latitude":50.8505,"longitude":22.49313},{"name":"Bażanowice","countryCode":"PL","stateCode":"SL","latitude":49.73791,"longitude":18.70345},{"name":"Bębło","countryCode":"PL","stateCode":"MA","latitude":50.18053,"longitude":19.78741},{"name":"Bęczarka","countryCode":"PL","stateCode":"MA","latitude":49.87793,"longitude":19.86723},{"name":"Będków","countryCode":"PL","stateCode":"LD","latitude":51.58763,"longitude":19.74956},{"name":"Bedlno","countryCode":"PL","stateCode":"LD","latitude":52.20829,"longitude":19.57592},{"name":"Będzin","countryCode":"PL","stateCode":"SL","latitude":50.32607,"longitude":19.12565},{"name":"Bejsce","countryCode":"PL","stateCode":"SK","latitude":50.23903,"longitude":20.59834},{"name":"Bełchatów","countryCode":"PL","stateCode":"LD","latitude":51.36883,"longitude":19.35671},{"name":"Bełk","countryCode":"PL","stateCode":"SL","latitude":50.13048,"longitude":18.71667},{"name":"Bełsznica","countryCode":"PL","stateCode":"SL","latitude":49.97811,"longitude":18.36313},{"name":"Bełżec","countryCode":"PL","stateCode":"LU","latitude":50.38453,"longitude":23.43839},{"name":"Bełżyce","countryCode":"PL","stateCode":"LU","latitude":51.17415,"longitude":22.28027},{"name":"Bemowo","countryCode":"PL","stateCode":"MZ","latitude":52.2546,"longitude":20.90844},{"name":"Besko","countryCode":"PL","stateCode":"PK","latitude":49.58757,"longitude":21.95292},{"name":"Bestwina","countryCode":"PL","stateCode":"SL","latitude":49.89712,"longitude":19.05776},{"name":"Bestwinka","countryCode":"PL","stateCode":"SL","latitude":49.93272,"longitude":19.06694},{"name":"Biała","countryCode":"PL","stateCode":"MZ","latitude":52.60524,"longitude":19.64956},{"name":"Biała","countryCode":"PL","stateCode":"OP","latitude":50.38587,"longitude":17.66035},{"name":"Biała Piska","countryCode":"PL","stateCode":"WN","latitude":53.61191,"longitude":22.06321},{"name":"Biała Podlaska","countryCode":"PL","stateCode":"LU","latitude":52.03238,"longitude":23.11652},{"name":"Biała Rawska","countryCode":"PL","stateCode":"LD","latitude":51.80779,"longitude":20.47259},{"name":"Białaczów","countryCode":"PL","stateCode":"LD","latitude":51.29815,"longitude":20.29724},{"name":"Białe Błota","countryCode":"PL","stateCode":"KP","latitude":53.09516,"longitude":17.91621},{"name":"Białka","countryCode":"PL","stateCode":"MA","latitude":49.69306,"longitude":19.67033},{"name":"Białka Tatrzańska","countryCode":"PL","stateCode":"MA","latitude":49.38975,"longitude":20.10507},{"name":"Białobrzegi","countryCode":"PL","stateCode":"MZ","latitude":51.64695,"longitude":20.95041},{"name":"Białobrzegi","countryCode":"PL","stateCode":"PK","latitude":50.10252,"longitude":22.31907},{"name":"Białogard","countryCode":"PL","stateCode":"ZP","latitude":54.00696,"longitude":15.98751},{"name":"Białołeka","countryCode":"PL","stateCode":"MZ","latitude":52.32127,"longitude":20.97204},{"name":"Białośliwie","countryCode":"PL","stateCode":"WP","latitude":53.10461,"longitude":17.12533},{"name":"Białowieża","countryCode":"PL","stateCode":"PD","latitude":52.7,"longitude":23.86667},{"name":"Biały Bór","countryCode":"PL","stateCode":"ZP","latitude":53.8967,"longitude":16.83543},{"name":"Biały Dunajec","countryCode":"PL","stateCode":"MA","latitude":49.3738,"longitude":20.00898},{"name":"Białystok","countryCode":"PL","stateCode":"PD","latitude":53.13333,"longitude":23.16433},{"name":"Biecz","countryCode":"PL","stateCode":"MA","latitude":49.73596,"longitude":21.26301},{"name":"Bielany","countryCode":"PL","stateCode":"MZ","latitude":52.29242,"longitude":20.93531},{"name":"Bielany Wrocławskie","countryCode":"PL","stateCode":"DS","latitude":51.0361,"longitude":16.9677},{"name":"Bielawa","countryCode":"PL","stateCode":"DS","latitude":50.69075,"longitude":16.623},{"name":"Bielawy","countryCode":"PL","stateCode":"LD","latitude":52.07539,"longitude":19.65557},{"name":"Bielice","countryCode":"PL","stateCode":"ZP","latitude":53.20022,"longitude":14.7276},{"name":"Bieliny","countryCode":"PL","stateCode":"PK","latitude":50.44237,"longitude":22.30482},{"name":"Bieliny","countryCode":"PL","stateCode":"SK","latitude":50.84947,"longitude":20.94149},{"name":"Bielsk","countryCode":"PL","stateCode":"MZ","latitude":52.6718,"longitude":19.805},{"name":"Bielsk Podlaski","countryCode":"PL","stateCode":"PD","latitude":52.76512,"longitude":23.18647},{"name":"Bielsko-Biala","countryCode":"PL","stateCode":"SL","latitude":49.82245,"longitude":19.04686},{"name":"Bielsko-Biała","countryCode":"PL","stateCode":"SL","latitude":49.81204,"longitude":19.03899},{"name":"Bieniewice","countryCode":"PL","stateCode":"MZ","latitude":52.18268,"longitude":20.56306},{"name":"Bieńkówka","countryCode":"PL","stateCode":"MA","latitude":49.776,"longitude":19.77179},{"name":"Bierawa","countryCode":"PL","stateCode":"OP","latitude":50.28111,"longitude":18.24177},{"name":"Bierdzany","countryCode":"PL","stateCode":"OP","latitude":50.81852,"longitude":18.15808},{"name":"Bieruń","countryCode":"PL","stateCode":"SL","latitude":50.09,"longitude":19.09291},{"name":"Bierutów","countryCode":"PL","stateCode":"DS","latitude":51.12443,"longitude":17.54607},{"name":"Bierzwnik","countryCode":"PL","stateCode":"ZP","latitude":53.03567,"longitude":15.665},{"name":"Bieżuń","countryCode":"PL","stateCode":"MZ","latitude":52.96107,"longitude":19.88976},{"name":"Biłgoraj","countryCode":"PL","stateCode":"LU","latitude":50.54114,"longitude":22.72204},{"name":"Binarowa","countryCode":"PL","stateCode":"MA","latitude":49.75621,"longitude":21.22816},{"name":"Bircza","countryCode":"PL","stateCode":"PK","latitude":49.69173,"longitude":22.47854},{"name":"Biskupice Radłowskie","countryCode":"PL","stateCode":"MA","latitude":50.12069,"longitude":20.85943},{"name":"Biskupiec","countryCode":"PL","stateCode":"WN","latitude":53.86467,"longitude":20.95692},{"name":"Biskupin","countryCode":"PL","stateCode":"DS","latitude":51.10097,"longitude":17.10442},{"name":"Biszcza","countryCode":"PL","stateCode":"LU","latitude":50.40146,"longitude":22.65063},{"name":"Bisztynek","countryCode":"PL","stateCode":"WN","latitude":54.08633,"longitude":20.90192},{"name":"Blachownia","countryCode":"PL","stateCode":"SL","latitude":50.78015,"longitude":18.96389},{"name":"Błaszki","countryCode":"PL","stateCode":"LD","latitude":51.65163,"longitude":18.43472},{"name":"Błażowa","countryCode":"PL","stateCode":"PK","latitude":49.88521,"longitude":22.10037},{"name":"Błędów","countryCode":"PL","stateCode":"MZ","latitude":51.77767,"longitude":20.69798},{"name":"Bledzew","countryCode":"PL","stateCode":"LB","latitude":52.51711,"longitude":15.41382},{"name":"Blizanów","countryCode":"PL","stateCode":"WP","latitude":51.90372,"longitude":18.01003},{"name":"Blizne","countryCode":"PL","stateCode":"PK","latitude":49.75332,"longitude":21.97351},{"name":"Bliżyn","countryCode":"PL","stateCode":"SK","latitude":51.10778,"longitude":20.75935},{"name":"Błonie","countryCode":"PL","stateCode":"MZ","latitude":52.19849,"longitude":20.61709},{"name":"Bobolice","countryCode":"PL","stateCode":"ZP","latitude":53.95508,"longitude":16.58893},{"name":"Bobowa","countryCode":"PL","stateCode":"MA","latitude":49.70866,"longitude":20.94767},{"name":"Bobowo","countryCode":"PL","stateCode":"PM","latitude":53.88378,"longitude":18.55681},{"name":"Bobrowice","countryCode":"PL","stateCode":"LB","latitude":51.9485,"longitude":15.09058},{"name":"Bobrowniki","countryCode":"PL","stateCode":"KP","latitude":52.78086,"longitude":18.96026},{"name":"Bobrowniki","countryCode":"PL","stateCode":"LD","latitude":52.06442,"longitude":20.01949},{"name":"Bobrowniki","countryCode":"PL","stateCode":"SL","latitude":50.37985,"longitude":18.98661},{"name":"Bobrowo","countryCode":"PL","stateCode":"KP","latitude":53.28549,"longitude":19.27053},{"name":"Bochnia","countryCode":"PL","stateCode":"MA","latitude":49.96905,"longitude":20.43028},{"name":"Boćki","countryCode":"PL","stateCode":"PD","latitude":52.65155,"longitude":23.04485},{"name":"Bodzanów","countryCode":"PL","stateCode":"MZ","latitude":52.49992,"longitude":20.02945},{"name":"Bodzentyn","countryCode":"PL","stateCode":"SK","latitude":50.94115,"longitude":20.95719},{"name":"Bogatynia","countryCode":"PL","stateCode":"DS","latitude":50.90747,"longitude":14.95634},{"name":"Bogdaniec","countryCode":"PL","stateCode":"LB","latitude":52.68897,"longitude":15.07127},{"name":"Bogoria","countryCode":"PL","stateCode":"SK","latitude":50.65175,"longitude":21.26},{"name":"Boguchwała","countryCode":"PL","stateCode":"PK","latitude":49.98473,"longitude":21.94528},{"name":"Boguszów-Gorce","countryCode":"PL","stateCode":"DS","latitude":50.75514,"longitude":16.20494},{"name":"Boguty-Pianki","countryCode":"PL","stateCode":"MZ","latitude":52.7168,"longitude":22.41546},{"name":"Bojadła","countryCode":"PL","stateCode":"LB","latitude":51.95321,"longitude":15.81036},{"name":"Bojano","countryCode":"PL","stateCode":"PM","latitude":54.47123,"longitude":18.38408},{"name":"Bojanów","countryCode":"PL","stateCode":"PK","latitude":50.42531,"longitude":21.95111},{"name":"Bojanowo","countryCode":"PL","stateCode":"WP","latitude":51.70749,"longitude":16.74827},{"name":"Bojanowo Stare","countryCode":"PL","stateCode":"WP","latitude":51.99302,"longitude":16.58369},{"name":"Bojszowy","countryCode":"PL","stateCode":"SL","latitude":50.0578,"longitude":19.10145},{"name":"Bojszowy Nowe","countryCode":"PL","stateCode":"SL","latitude":50.05284,"longitude":19.05012},{"name":"Bolechowice","countryCode":"PL","stateCode":"MA","latitude":50.14831,"longitude":19.79273},{"name":"Bolęcin","countryCode":"PL","stateCode":"MA","latitude":50.1175,"longitude":19.48116},{"name":"Bolesław","countryCode":"PL","stateCode":"MA","latitude":50.29729,"longitude":19.48073},{"name":"Bolesławiec","countryCode":"PL","stateCode":"DS","latitude":51.26418,"longitude":15.5697},{"name":"Bolesławiec","countryCode":"PL","stateCode":"LD","latitude":51.19866,"longitude":18.19147},{"name":"Boleszkowice","countryCode":"PL","stateCode":"ZP","latitude":52.72493,"longitude":14.56901},{"name":"Bolimów","countryCode":"PL","stateCode":"LD","latitude":52.07671,"longitude":20.16352},{"name":"Bolków","countryCode":"PL","stateCode":"DS","latitude":50.92203,"longitude":16.10111},{"name":"Bolszewo","countryCode":"PL","stateCode":"PM","latitude":54.61801,"longitude":18.17585},{"name":"Boniewo","countryCode":"PL","stateCode":"KP","latitude":52.46532,"longitude":18.89116},{"name":"Borek","countryCode":"PL","stateCode":"MA","latitude":50.01778,"longitude":20.53087},{"name":"Borek Wielkopolski","countryCode":"PL","stateCode":"WP","latitude":51.91674,"longitude":17.24133},{"name":"Borki","countryCode":"PL","stateCode":"LU","latitude":51.72161,"longitude":22.52129},{"name":"Borkowice","countryCode":"PL","stateCode":"MZ","latitude":51.32025,"longitude":20.68339},{"name":"Borne Sulinowo","countryCode":"PL","stateCode":"ZP","latitude":53.57661,"longitude":16.53395},{"name":"Boronów","countryCode":"PL","stateCode":"SL","latitude":50.6746,"longitude":18.90678},{"name":"Borowa","countryCode":"PL","stateCode":"PK","latitude":50.38548,"longitude":21.3515},{"name":"Borowie","countryCode":"PL","stateCode":"MZ","latitude":51.94908,"longitude":21.7658},{"name":"Borowno","countryCode":"PL","stateCode":"SL","latitude":50.93247,"longitude":19.2738},{"name":"Borucin","countryCode":"PL","stateCode":"SL","latitude":50.00763,"longitude":18.15748},{"name":"Borzechów","countryCode":"PL","stateCode":"LU","latitude":51.09258,"longitude":22.28414},{"name":"Borzęcin","countryCode":"PL","stateCode":"MA","latitude":50.0654,"longitude":20.71103},{"name":"Borzęta","countryCode":"PL","stateCode":"MA","latitude":49.86228,"longitude":19.97924},{"name":"Borzytuchom","countryCode":"PL","stateCode":"PM","latitude":54.20021,"longitude":17.36801},{"name":"Bozkow","countryCode":"PL","stateCode":"DS","latitude":50.51315,"longitude":16.57528},{"name":"Bralin","countryCode":"PL","stateCode":"WP","latitude":51.28581,"longitude":17.90325},{"name":"Branice","countryCode":"PL","stateCode":"OP","latitude":50.05108,"longitude":17.79399},{"name":"Braniewo","countryCode":"PL","stateCode":"WN","latitude":54.37971,"longitude":19.81959},{"name":"Brańsk","countryCode":"PL","stateCode":"PD","latitude":52.7444,"longitude":22.83774},{"name":"Brańszczyk","countryCode":"PL","stateCode":"MZ","latitude":52.62931,"longitude":21.58745},{"name":"Brąszewice","countryCode":"PL","stateCode":"LD","latitude":51.49902,"longitude":18.44982},{"name":"Brdów","countryCode":"PL","stateCode":"WP","latitude":52.3539,"longitude":18.7298},{"name":"Brenna","countryCode":"PL","stateCode":"SL","latitude":49.72576,"longitude":18.90249},{"name":"Brenno","countryCode":"PL","stateCode":"WP","latitude":51.92257,"longitude":16.21488},{"name":"Brochów","countryCode":"PL","stateCode":"MZ","latitude":52.3195,"longitude":20.26257},{"name":"Brodła","countryCode":"PL","stateCode":"MA","latitude":50.04331,"longitude":19.58879},{"name":"Brodnica","countryCode":"PL","stateCode":"KP","latitude":53.25967,"longitude":19.39653},{"name":"Brodnica","countryCode":"PL","stateCode":"WP","latitude":52.14123,"longitude":16.89096},{"name":"Brody","countryCode":"PL","stateCode":"LB","latitude":51.79046,"longitude":14.77335},{"name":"Brody","countryCode":"PL","stateCode":"MA","latitude":49.86742,"longitude":19.69746},{"name":"Brody","countryCode":"PL","stateCode":"SK","latitude":51.02466,"longitude":21.22147},{"name":"Brody-Parcele","countryCode":"PL","stateCode":"MZ","latitude":52.47797,"longitude":20.74974},{"name":"Brojce","countryCode":"PL","stateCode":"ZP","latitude":53.95705,"longitude":15.35975},{"name":"Brójce","countryCode":"PL","stateCode":"LB","latitude":52.31745,"longitude":15.67414},{"name":"Brójce","countryCode":"PL","stateCode":"LD","latitude":51.66436,"longitude":19.64802},{"name":"Brok","countryCode":"PL","stateCode":"MZ","latitude":52.69948,"longitude":21.85704},{"name":"Broniszewice","countryCode":"PL","stateCode":"WP","latitude":51.96696,"longitude":17.81648},{"name":"Bronów","countryCode":"PL","stateCode":"SL","latitude":49.87782,"longitude":18.92103},{"name":"Brudzeń Duży","countryCode":"PL","stateCode":"MZ","latitude":52.66884,"longitude":19.50399},{"name":"Brudzew","countryCode":"PL","stateCode":"WP","latitude":52.09949,"longitude":18.60432},{"name":"Brusy","countryCode":"PL","stateCode":"PM","latitude":53.88446,"longitude":17.71786},{"name":"Brwinów","countryCode":"PL","stateCode":"MZ","latitude":52.14269,"longitude":20.71697},{"name":"Brzączowice","countryCode":"PL","stateCode":"MA","latitude":49.87478,"longitude":20.03709},{"name":"Brzeg","countryCode":"PL","stateCode":"OP","latitude":50.86079,"longitude":17.4674},{"name":"Brzeg Dolny","countryCode":"PL","stateCode":"DS","latitude":51.27299,"longitude":16.70815},{"name":"Brześć Kujawski","countryCode":"PL","stateCode":"KP","latitude":52.60532,"longitude":18.90173},{"name":"Brzesko","countryCode":"PL","stateCode":"MA","latitude":49.96911,"longitude":20.60606},{"name":"Brzeszcze","countryCode":"PL","stateCode":"MA","latitude":49.98203,"longitude":19.15157},{"name":"Brzezinka","countryCode":"PL","stateCode":"MA","latitude":50.04237,"longitude":19.1902},{"name":"Brzeziny","countryCode":"PL","stateCode":"LD","latitude":51.80023,"longitude":19.75144},{"name":"Brzeziny","countryCode":"PL","stateCode":"SK","latitude":50.77273,"longitude":20.57319},{"name":"Brzeziny Śląskie","countryCode":"PL","stateCode":"SL","latitude":50.35439,"longitude":18.98129},{"name":"Brzeźnica","countryCode":"PL","stateCode":"MA","latitude":49.96497,"longitude":19.61952},{"name":"Brzeźnica","countryCode":"PL","stateCode":"PK","latitude":50.10065,"longitude":21.48025},{"name":"Brzeźnio","countryCode":"PL","stateCode":"LD","latitude":51.494,"longitude":18.62234},{"name":"Brzostek","countryCode":"PL","stateCode":"PK","latitude":49.87954,"longitude":21.41102},{"name":"Brzóza Królewska","countryCode":"PL","stateCode":"PK","latitude":50.23908,"longitude":22.32559},{"name":"Brzóza Stadnicka","countryCode":"PL","stateCode":"PK","latitude":50.19965,"longitude":22.28233},{"name":"Brzozie","countryCode":"PL","stateCode":"KP","latitude":53.32554,"longitude":19.60485},{"name":"Brzozów","countryCode":"PL","stateCode":"PK","latitude":49.69501,"longitude":22.01926},{"name":"Brzuze","countryCode":"PL","stateCode":"KP","latitude":53.05458,"longitude":19.26195},{"name":"Brzyska","countryCode":"PL","stateCode":"PK","latitude":49.82226,"longitude":21.39004},{"name":"Buczek","countryCode":"PL","stateCode":"LD","latitude":51.50228,"longitude":19.16419},{"name":"Buczkowice","countryCode":"PL","stateCode":"SL","latitude":49.72858,"longitude":19.06908},{"name":"Budziszewice","countryCode":"PL","stateCode":"LD","latitude":51.66739,"longitude":19.93581},{"name":"Budzów","countryCode":"PL","stateCode":"DS","latitude":50.59337,"longitude":16.71038},{"name":"Budzów","countryCode":"PL","stateCode":"MA","latitude":49.77622,"longitude":19.67274},{"name":"Budzyń","countryCode":"PL","stateCode":"WP","latitude":52.88954,"longitude":16.98812},{"name":"Bujaków","countryCode":"PL","stateCode":"SL","latitude":49.85182,"longitude":19.19432},{"name":"Buk","countryCode":"PL","stateCode":"WP","latitude":52.35532,"longitude":16.51958},{"name":"Bukowiec","countryCode":"PL","stateCode":"KP","latitude":53.43383,"longitude":18.24048},{"name":"Bukowina Tatrzańska","countryCode":"PL","stateCode":"MA","latitude":49.34302,"longitude":20.10807},{"name":"Bukowno","countryCode":"PL","stateCode":"MA","latitude":50.26474,"longitude":19.45962},{"name":"Bukowsko","countryCode":"PL","stateCode":"PK","latitude":49.48039,"longitude":22.06329},{"name":"Bulkowo","countryCode":"PL","stateCode":"MZ","latitude":52.54087,"longitude":20.11889},{"name":"Bulowice","countryCode":"PL","stateCode":"MA","latitude":49.8765,"longitude":19.28873},{"name":"Burzenin","countryCode":"PL","stateCode":"LD","latitude":51.46077,"longitude":18.83233},{"name":"Busko-Zdrój","countryCode":"PL","stateCode":"SK","latitude":50.47078,"longitude":20.71884},{"name":"Bychawa","countryCode":"PL","stateCode":"LU","latitude":51.01608,"longitude":22.53296},{"name":"Byczyna","countryCode":"PL","stateCode":"OP","latitude":51.11387,"longitude":18.21413},{"name":"Bydgoszcz","countryCode":"PL","stateCode":"KP","latitude":53.1235,"longitude":18.00762},{"name":"Bystra","countryCode":"PL","stateCode":"MA","latitude":49.64796,"longitude":19.77994},{"name":"Bystra","countryCode":"PL","stateCode":"SL","latitude":49.76042,"longitude":19.05973},{"name":"Bystrzyca","countryCode":"PL","stateCode":"DS","latitude":50.96048,"longitude":17.39702},{"name":"Bystrzyca Kłodzka","countryCode":"PL","stateCode":"DS","latitude":50.30179,"longitude":16.64231},{"name":"Bytnica","countryCode":"PL","stateCode":"LB","latitude":52.15066,"longitude":15.16946},{"name":"Bytom","countryCode":"PL","stateCode":"SL","latitude":50.34802,"longitude":18.93282},{"name":"Bytom Odrzański","countryCode":"PL","stateCode":"LB","latitude":51.73062,"longitude":15.82362},{"name":"Bytoń","countryCode":"PL","stateCode":"KP","latitude":52.55757,"longitude":18.59522},{"name":"Bytów","countryCode":"PL","stateCode":"PM","latitude":54.17057,"longitude":17.49187},{"name":"Cedry Wielkie","countryCode":"PL","stateCode":"PM","latitude":54.24707,"longitude":18.84567},{"name":"Cedynia","countryCode":"PL","stateCode":"ZP","latitude":52.87931,"longitude":14.20249},{"name":"Cegłów","countryCode":"PL","stateCode":"MZ","latitude":52.14782,"longitude":21.73739},{"name":"Cekcyn","countryCode":"PL","stateCode":"KP","latitude":53.57294,"longitude":18.01123},{"name":"Celestynów","countryCode":"PL","stateCode":"MZ","latitude":52.06093,"longitude":21.39107},{"name":"Ceranów","countryCode":"PL","stateCode":"MZ","latitude":52.63082,"longitude":22.22826},{"name":"Cerkwica","countryCode":"PL","stateCode":"ZP","latitude":54.00777,"longitude":15.10903},{"name":"Cewice","countryCode":"PL","stateCode":"PM","latitude":54.43551,"longitude":17.73485},{"name":"Chałupki","countryCode":"PL","stateCode":"SL","latitude":49.92559,"longitude":18.3173},{"name":"Chąśno","countryCode":"PL","stateCode":"LD","latitude":52.19535,"longitude":19.94259},{"name":"Chęciny","countryCode":"PL","stateCode":"SK","latitude":50.80021,"longitude":20.46229},{"name":"Chełm","countryCode":"PL","stateCode":"LU","latitude":51.14312,"longitude":23.4716},{"name":"Chełm Śląski","countryCode":"PL","stateCode":"SL","latitude":50.10825,"longitude":19.19552},{"name":"Chełmek","countryCode":"PL","stateCode":"MA","latitude":50.10163,"longitude":19.24801},{"name":"Chełmiec","countryCode":"PL","stateCode":"MA","latitude":49.63051,"longitude":20.66425},{"name":"Chełmno","countryCode":"PL","stateCode":"KP","latitude":53.34855,"longitude":18.4251},{"name":"Chełmża","countryCode":"PL","stateCode":"KP","latitude":53.18463,"longitude":18.60466},{"name":"Chłapowo","countryCode":"PL","stateCode":"PM","latitude":54.80365,"longitude":18.37352},{"name":"Chlewiska","countryCode":"PL","stateCode":"MZ","latitude":51.24376,"longitude":20.76871},{"name":"Chmielnik","countryCode":"PL","stateCode":"PK","latitude":49.97386,"longitude":22.14535},{"name":"Chmielnik","countryCode":"PL","stateCode":"SK","latitude":50.6144,"longitude":20.75206},{"name":"Chmielno","countryCode":"PL","stateCode":"PM","latitude":54.32543,"longitude":18.0986},{"name":"Chmielowice","countryCode":"PL","stateCode":"OP","latitude":50.64957,"longitude":17.86669},{"name":"Choceń","countryCode":"PL","stateCode":"KP","latitude":52.48618,"longitude":19.01339},{"name":"Chocianów","countryCode":"PL","stateCode":"DS","latitude":51.41867,"longitude":15.90172},{"name":"Chociwel","countryCode":"PL","stateCode":"ZP","latitude":53.46696,"longitude":15.33342},{"name":"Chocz","countryCode":"PL","stateCode":"WP","latitude":51.97642,"longitude":17.86995},{"name":"Choczewo","countryCode":"PL","stateCode":"PM","latitude":54.73993,"longitude":17.89175},{"name":"Chocznia","countryCode":"PL","stateCode":"MA","latitude":49.87417,"longitude":19.45438},{"name":"Chodecz","countryCode":"PL","stateCode":"KP","latitude":52.40513,"longitude":19.02759},{"name":"Chodel","countryCode":"PL","stateCode":"LU","latitude":51.11177,"longitude":22.13269},{"name":"Chodów","countryCode":"PL","stateCode":"WP","latitude":52.24961,"longitude":19.01218},{"name":"Chodzież","countryCode":"PL","stateCode":"WP","latitude":52.99505,"longitude":16.9198},{"name":"Chojna","countryCode":"PL","stateCode":"ZP","latitude":52.96389,"longitude":14.42797},{"name":"Chojnice","countryCode":"PL","stateCode":"PM","latitude":53.69554,"longitude":17.55701},{"name":"Chojnów","countryCode":"PL","stateCode":"DS","latitude":51.27373,"longitude":15.93661},{"name":"Chorkówka","countryCode":"PL","stateCode":"PK","latitude":49.64668,"longitude":21.67156},{"name":"Choroń","countryCode":"PL","stateCode":"SL","latitude":50.68178,"longitude":19.26058},{"name":"Choroszcz","countryCode":"PL","stateCode":"PD","latitude":53.14332,"longitude":22.98889},{"name":"Chorzele","countryCode":"PL","stateCode":"MZ","latitude":53.26075,"longitude":20.89728},{"name":"Chorzów","countryCode":"PL","stateCode":"SL","latitude":50.30582,"longitude":18.9742},{"name":"Choszczno","countryCode":"PL","stateCode":"ZP","latitude":53.16905,"longitude":15.42054},{"name":"Chotcza","countryCode":"PL","stateCode":"MZ","latitude":51.24043,"longitude":21.77662},{"name":"Chróścice","countryCode":"PL","stateCode":"OP","latitude":50.78076,"longitude":17.81227},{"name":"Chrościna","countryCode":"PL","stateCode":"OP","latitude":50.66578,"longitude":17.81759},{"name":"Chrostkowo","countryCode":"PL","stateCode":"KP","latitude":52.94378,"longitude":19.25328},{"name":"Chruszczobród","countryCode":"PL","stateCode":"SL","latitude":50.4147,"longitude":19.32718},{"name":"Chrzanów","countryCode":"PL","stateCode":"LU","latitude":50.77256,"longitude":22.60351},{"name":"Chrzanów","countryCode":"PL","stateCode":"MA","latitude":50.13546,"longitude":19.40203},{"name":"Chrząstowice","countryCode":"PL","stateCode":"OP","latitude":50.66622,"longitude":18.07294},{"name":"Chrzypsko Wielkie","countryCode":"PL","stateCode":"WP","latitude":52.62817,"longitude":16.22852},{"name":"Chwałowice","countryCode":"PL","stateCode":"PK","latitude":50.76665,"longitude":21.88683},{"name":"Chwaszczyno","countryCode":"PL","stateCode":"PM","latitude":54.44379,"longitude":18.41875},{"name":"Chybie","countryCode":"PL","stateCode":"SL","latitude":49.90249,"longitude":18.82756},{"name":"Chynów","countryCode":"PL","stateCode":"MZ","latitude":51.90425,"longitude":21.08208},{"name":"Chyżne","countryCode":"PL","stateCode":"MA","latitude":49.42672,"longitude":19.66956},{"name":"Ciasna","countryCode":"PL","stateCode":"SL","latitude":50.75427,"longitude":18.60835},{"name":"Ciechanów","countryCode":"PL","stateCode":"MZ","latitude":52.88141,"longitude":20.61996},{"name":"Ciechanowiec","countryCode":"PL","stateCode":"PD","latitude":52.67828,"longitude":22.49815},{"name":"Ciechocin","countryCode":"PL","stateCode":"KP","latitude":53.05581,"longitude":18.92635},{"name":"Ciechocinek","countryCode":"PL","stateCode":"KP","latitude":52.87908,"longitude":18.79505},{"name":"Ciechów","countryCode":"PL","stateCode":"DS","latitude":51.13218,"longitude":16.56773},{"name":"Cięcina","countryCode":"PL","stateCode":"SL","latitude":49.6022,"longitude":19.14102},{"name":"Cielądz","countryCode":"PL","stateCode":"LD","latitude":51.71576,"longitude":20.34428},{"name":"Cielmice","countryCode":"PL","stateCode":"SL","latitude":50.08826,"longitude":19.01896},{"name":"Ciepielów","countryCode":"PL","stateCode":"MZ","latitude":51.24838,"longitude":21.57475},{"name":"Cieplice Śląskie Zdrój","countryCode":"PL","stateCode":"DS","latitude":50.86545,"longitude":15.68367},{"name":"Ciepłowody","countryCode":"PL","stateCode":"DS","latitude":50.67477,"longitude":16.90871},{"name":"Cieszanów","countryCode":"PL","stateCode":"PK","latitude":50.24564,"longitude":23.13163},{"name":"Cieszków","countryCode":"PL","stateCode":"DS","latitude":51.63104,"longitude":17.35726},{"name":"Cieszyn","countryCode":"PL","stateCode":"SL","latitude":49.75133,"longitude":18.63213},{"name":"Ciężkowice","countryCode":"PL","stateCode":"MA","latitude":49.78575,"longitude":20.97324},{"name":"Cisek","countryCode":"PL","stateCode":"OP","latitude":50.28232,"longitude":18.19988},{"name":"Cisiec","countryCode":"PL","stateCode":"SL","latitude":49.59213,"longitude":19.1054},{"name":"Cisna","countryCode":"PL","stateCode":"PK","latitude":49.21328,"longitude":22.32795},{"name":"Cisownica","countryCode":"PL","stateCode":"SL","latitude":49.72276,"longitude":18.76207},{"name":"Ćmielów","countryCode":"PL","stateCode":"SK","latitude":50.89028,"longitude":21.51426},{"name":"Cmolas","countryCode":"PL","stateCode":"PK","latitude":50.29526,"longitude":21.74417},{"name":"Cybinka","countryCode":"PL","stateCode":"LB","latitude":52.19446,"longitude":14.79567},{"name":"Cyców","countryCode":"PL","stateCode":"LU","latitude":51.29928,"longitude":23.14124},{"name":"Cynków","countryCode":"PL","stateCode":"SL","latitude":50.56203,"longitude":19.11956},{"name":"Czajków","countryCode":"PL","stateCode":"WP","latitude":51.49197,"longitude":18.32726},{"name":"Czaniec","countryCode":"PL","stateCode":"SL","latitude":49.85071,"longitude":19.25354},{"name":"Czaplinek","countryCode":"PL","stateCode":"ZP","latitude":53.55775,"longitude":16.23333},{"name":"Czapury","countryCode":"PL","stateCode":"WP","latitude":52.31719,"longitude":16.91268},{"name":"Czarków","countryCode":"PL","stateCode":"SL","latitude":50.01833,"longitude":18.90678},{"name":"Czarna","countryCode":"PL","stateCode":"PK","latitude":50.06717,"longitude":21.25614},{"name":"Czarna Białostocka","countryCode":"PL","stateCode":"PD","latitude":53.30509,"longitude":23.28146},{"name":"Czarna Dąbrówka","countryCode":"PL","stateCode":"PM","latitude":54.35631,"longitude":17.56456},{"name":"Czarna Góra","countryCode":"PL","stateCode":"MA","latitude":49.37662,"longitude":20.13047},{"name":"Czarna Woda","countryCode":"PL","stateCode":"PM","latitude":53.84458,"longitude":18.10006},{"name":"Czarne","countryCode":"PL","stateCode":"PM","latitude":53.6842,"longitude":16.93834},{"name":"Czarnia","countryCode":"PL","stateCode":"MZ","latitude":53.35614,"longitude":21.1952},{"name":"Czarnków","countryCode":"PL","stateCode":"WP","latitude":52.90214,"longitude":16.56413},{"name":"Czarnochowice","countryCode":"PL","stateCode":"MA","latitude":50.00471,"longitude":20.0679},{"name":"Czarnocin","countryCode":"PL","stateCode":"LD","latitude":51.59142,"longitude":19.68158},{"name":"Czarnocin","countryCode":"PL","stateCode":"SK","latitude":50.3408,"longitude":20.5162},{"name":"Czarnowąsy","countryCode":"PL","stateCode":"OP","latitude":50.72858,"longitude":17.89819},{"name":"Czarnożyły","countryCode":"PL","stateCode":"LD","latitude":51.28533,"longitude":18.56106},{"name":"Czarny Bór","countryCode":"PL","stateCode":"DS","latitude":50.77083,"longitude":16.1305},{"name":"Czarny Dunajec","countryCode":"PL","stateCode":"MA","latitude":49.43663,"longitude":19.85161},{"name":"Czastary","countryCode":"PL","stateCode":"LD","latitude":51.25869,"longitude":18.31953},{"name":"Czaszyn","countryCode":"PL","stateCode":"PK","latitude":49.44854,"longitude":22.2165},{"name":"Czchów","countryCode":"PL","stateCode":"MA","latitude":49.83726,"longitude":20.68056},{"name":"Czechowice-Dziedzice","countryCode":"PL","stateCode":"SL","latitude":49.91342,"longitude":19.00479},{"name":"Czeladź","countryCode":"PL","stateCode":"SL","latitude":50.31542,"longitude":19.07824},{"name":"Czemierniki","countryCode":"PL","stateCode":"LU","latitude":51.67298,"longitude":22.63887},{"name":"Czempiń","countryCode":"PL","stateCode":"WP","latitude":52.14404,"longitude":16.76408},{"name":"Czeremcha","countryCode":"PL","stateCode":"PD","latitude":52.51667,"longitude":23.35},{"name":"Czermin","countryCode":"PL","stateCode":"PK","latitude":50.33911,"longitude":21.33356},{"name":"Czermin","countryCode":"PL","stateCode":"WP","latitude":51.95008,"longitude":17.74957},{"name":"Czernica","countryCode":"PL","stateCode":"DS","latitude":51.04609,"longitude":17.2451},{"name":"Czernica","countryCode":"PL","stateCode":"SL","latitude":50.08391,"longitude":18.40068},{"name":"Czernice Borowe","countryCode":"PL","stateCode":"MZ","latitude":53.03197,"longitude":20.71944},{"name":"Czernichów","countryCode":"PL","stateCode":"MA","latitude":49.9892,"longitude":19.68115},{"name":"Czernichów","countryCode":"PL","stateCode":"SL","latitude":49.75443,"longitude":19.20947},{"name":"Czerniejewo","countryCode":"PL","stateCode":"WP","latitude":52.4264,"longitude":17.48925},{"name":"Czerniewice","countryCode":"PL","stateCode":"KP","latitude":52.51157,"longitude":19.08694},{"name":"Czerniewice","countryCode":"PL","stateCode":"LD","latitude":51.65419,"longitude":20.15553},{"name":"Czernikowo","countryCode":"PL","stateCode":"KP","latitude":52.94688,"longitude":18.93803},{"name":"Czersk","countryCode":"PL","stateCode":"PM","latitude":53.79589,"longitude":17.97647},{"name":"Czerwieńsk","countryCode":"PL","stateCode":"LB","latitude":52.01289,"longitude":15.42317},{"name":"Czerwin","countryCode":"PL","stateCode":"MZ","latitude":52.94905,"longitude":21.75842},{"name":"Czerwińsk Nad Wisłą","countryCode":"PL","stateCode":"MZ","latitude":52.39828,"longitude":20.3096},{"name":"Czerwionka-Leszczyny","countryCode":"PL","stateCode":"SL","latitude":50.15007,"longitude":18.67762},{"name":"Czerwonak","countryCode":"PL","stateCode":"WP","latitude":52.46459,"longitude":16.98169},{"name":"Czerwonka","countryCode":"PL","stateCode":"MZ","latitude":52.89254,"longitude":21.21494},{"name":"Czerwonka","countryCode":"PL","stateCode":"WN","latitude":53.91627,"longitude":20.89685},{"name":"Częstochowa","countryCode":"PL","stateCode":"SL","latitude":50.79646,"longitude":19.12409},{"name":"Człopa","countryCode":"PL","stateCode":"ZP","latitude":53.08856,"longitude":16.12098},{"name":"Człuchów","countryCode":"PL","stateCode":"PM","latitude":53.66722,"longitude":17.35883},{"name":"Czudec","countryCode":"PL","stateCode":"PK","latitude":49.94487,"longitude":21.84134},{"name":"Czułów","countryCode":"PL","stateCode":"MA","latitude":50.05956,"longitude":19.70106},{"name":"Czyżew","countryCode":"PL","stateCode":"PD","latitude":52.79768,"longitude":22.31237},{"name":"Czyżowice","countryCode":"PL","stateCode":"SL","latitude":49.9849,"longitude":18.40433},{"name":"Dąbie","countryCode":"PL","stateCode":"DS","latitude":51.10573,"longitude":17.08108},{"name":"Dąbie","countryCode":"PL","stateCode":"LB","latitude":52.01056,"longitude":15.15221},{"name":"Dąbie","countryCode":"PL","stateCode":"WP","latitude":52.08668,"longitude":18.8225},{"name":"Dąbrowa","countryCode":"PL","stateCode":"KP","latitude":52.74668,"longitude":17.94342},{"name":"Dąbrowa","countryCode":"PL","stateCode":"OP","latitude":50.68352,"longitude":17.74957},{"name":"Dąbrowa Białostocka","countryCode":"PL","stateCode":"PD","latitude":53.65364,"longitude":23.34792},{"name":"Dąbrowa Chełmińska","countryCode":"PL","stateCode":"KP","latitude":53.17518,"longitude":18.30537},{"name":"Dąbrowa Górnicza","countryCode":"PL","stateCode":"SL","latitude":50.33394,"longitude":19.20479},{"name":"Dąbrowa Tarnowska","countryCode":"PL","stateCode":"MA","latitude":50.17462,"longitude":20.98633},{"name":"Dąbrowa Zielona","countryCode":"PL","stateCode":"SL","latitude":50.84394,"longitude":19.55652},{"name":"Dąbrowice","countryCode":"PL","stateCode":"LD","latitude":52.31142,"longitude":19.08437},{"name":"Dąbrówka","countryCode":"PL","stateCode":"MZ","latitude":52.48388,"longitude":21.29794},{"name":"Dąbrówno","countryCode":"PL","stateCode":"WN","latitude":53.43408,"longitude":20.03529},{"name":"Dalachów","countryCode":"PL","stateCode":"OP","latitude":51.07732,"longitude":18.5784},{"name":"Daleszyce","countryCode":"PL","stateCode":"SK","latitude":50.80229,"longitude":20.80791},{"name":"Dalików","countryCode":"PL","stateCode":"LD","latitude":51.88476,"longitude":19.11904},{"name":"Damasławek","countryCode":"PL","stateCode":"WP","latitude":52.83979,"longitude":17.50062},{"name":"Damnica","countryCode":"PL","stateCode":"PM","latitude":54.50025,"longitude":17.27154},{"name":"Darłowo","countryCode":"PL","stateCode":"ZP","latitude":54.42095,"longitude":16.4107},{"name":"Daszewice","countryCode":"PL","stateCode":"WP","latitude":52.30002,"longitude":16.95723},{"name":"Daszyna","countryCode":"PL","stateCode":"LD","latitude":52.15503,"longitude":19.18153},{"name":"Dębe Wielkie","countryCode":"PL","stateCode":"MZ","latitude":52.19961,"longitude":21.44334},{"name":"Dębica","countryCode":"PL","stateCode":"PK","latitude":50.05146,"longitude":21.41141},{"name":"Dęblin","countryCode":"PL","stateCode":"LU","latitude":51.55912,"longitude":21.84829},{"name":"Dębnica Kaszubska","countryCode":"PL","stateCode":"PM","latitude":54.37831,"longitude":17.16116},{"name":"Dębno","countryCode":"PL","stateCode":"MA","latitude":49.96701,"longitude":20.71979},{"name":"Dębno","countryCode":"PL","stateCode":"PK","latitude":50.19811,"longitude":22.51837},{"name":"Dębno","countryCode":"PL","stateCode":"ZP","latitude":52.73901,"longitude":14.698},{"name":"Dębów","countryCode":"PL","stateCode":"PK","latitude":50.0449,"longitude":22.43614},{"name":"Dębowa Kłoda","countryCode":"PL","stateCode":"LU","latitude":51.59446,"longitude":23.0064},{"name":"Dębowa Łąka","countryCode":"PL","stateCode":"KP","latitude":53.25541,"longitude":19.09595},{"name":"Dębowiec","countryCode":"PL","stateCode":"PK","latitude":49.68374,"longitude":21.46068},{"name":"Dębowiec","countryCode":"PL","stateCode":"SL","latitude":49.81406,"longitude":18.72062},{"name":"Debrzno","countryCode":"PL","stateCode":"PM","latitude":53.53817,"longitude":17.23643},{"name":"Deszczno","countryCode":"PL","stateCode":"LB","latitude":52.66988,"longitude":15.31975},{"name":"Długie","countryCode":"PL","stateCode":"PK","latitude":49.57866,"longitude":22.04338},{"name":"Długołęka","countryCode":"PL","stateCode":"DS","latitude":51.17902,"longitude":17.19137},{"name":"Długomiłowice","countryCode":"PL","stateCode":"OP","latitude":50.28298,"longitude":18.14873},{"name":"Długosiodło","countryCode":"PL","stateCode":"MZ","latitude":52.75998,"longitude":21.59183},{"name":"Dłutów","countryCode":"PL","stateCode":"LD","latitude":51.55936,"longitude":19.39198},{"name":"Dmosin","countryCode":"PL","stateCode":"LD","latitude":51.92437,"longitude":19.75934},{"name":"Dobczyce","countryCode":"PL","stateCode":"MA","latitude":49.88109,"longitude":20.08936},{"name":"Dobiegniew","countryCode":"PL","stateCode":"LB","latitude":52.96947,"longitude":15.75362},{"name":"Dobieszowice","countryCode":"PL","stateCode":"SL","latitude":50.39697,"longitude":19.01304},{"name":"Dobra","countryCode":"PL","stateCode":"MA","latitude":49.71793,"longitude":20.25347},{"name":"Dobra","countryCode":"PL","stateCode":"WP","latitude":51.91664,"longitude":18.61556},{"name":"Dobra","countryCode":"PL","stateCode":"ZP","latitude":53.58625,"longitude":15.30977},{"name":"Dobre","countryCode":"PL","stateCode":"KP","latitude":52.68398,"longitude":18.57762},{"name":"Dobre","countryCode":"PL","stateCode":"MZ","latitude":52.32097,"longitude":21.67881},{"name":"Dobre Miasto","countryCode":"PL","stateCode":"WN","latitude":53.98668,"longitude":20.39749},{"name":"Dobrodzień","countryCode":"PL","stateCode":"OP","latitude":50.72874,"longitude":18.44501},{"name":"Dobroń","countryCode":"PL","stateCode":"LD","latitude":51.63885,"longitude":19.24539},{"name":"Dobroszyce","countryCode":"PL","stateCode":"DS","latitude":51.26776,"longitude":17.34205},{"name":"Dobrzany","countryCode":"PL","stateCode":"ZP","latitude":53.35914,"longitude":15.42886},{"name":"Dobrzeń Wielki","countryCode":"PL","stateCode":"OP","latitude":50.76844,"longitude":17.84652},{"name":"Dobrzyca","countryCode":"PL","stateCode":"WP","latitude":51.86663,"longitude":17.60336},{"name":"Dobrzyń nad Wisłą","countryCode":"PL","stateCode":"KP","latitude":52.63814,"longitude":19.31875},{"name":"Dobrzyniewo Duże","countryCode":"PL","stateCode":"PD","latitude":53.20022,"longitude":23.01129},{"name":"Dołhobyczów","countryCode":"PL","stateCode":"LU","latitude":50.58591,"longitude":24.03594},{"name":"Dolice","countryCode":"PL","stateCode":"ZP","latitude":53.19081,"longitude":15.20267},{"name":"Dolsk","countryCode":"PL","stateCode":"WP","latitude":51.9818,"longitude":17.06273},{"name":"Domanice","countryCode":"PL","stateCode":"MZ","latitude":52.03739,"longitude":22.17642},{"name":"Domaniewice","countryCode":"PL","stateCode":"LD","latitude":52.00623,"longitude":19.80294},{"name":"Domaradz","countryCode":"PL","stateCode":"PK","latitude":49.78675,"longitude":21.94571},{"name":"Domaszowice","countryCode":"PL","stateCode":"OP","latitude":51.0429,"longitude":17.88875},{"name":"Domaszowice","countryCode":"PL","stateCode":"SK","latitude":50.87488,"longitude":20.68288},{"name":"Dominowo","countryCode":"PL","stateCode":"WP","latitude":52.29158,"longitude":17.35754},{"name":"Dopiewo","countryCode":"PL","stateCode":"WP","latitude":52.35726,"longitude":16.67562},{"name":"Dorohusk","countryCode":"PL","stateCode":"LU","latitude":51.15475,"longitude":23.80325},{"name":"Doruchów","countryCode":"PL","stateCode":"WP","latitude":51.41719,"longitude":18.07697},{"name":"Drawno","countryCode":"PL","stateCode":"ZP","latitude":53.21986,"longitude":15.75946},{"name":"Drawsko","countryCode":"PL","stateCode":"WP","latitude":52.85421,"longitude":16.03125},{"name":"Drawsko Pomorskie","countryCode":"PL","stateCode":"ZP","latitude":53.53056,"longitude":15.80967},{"name":"Drelów","countryCode":"PL","stateCode":"LU","latitude":51.91219,"longitude":22.87165},{"name":"Drezdenko","countryCode":"PL","stateCode":"LB","latitude":52.83831,"longitude":15.83079},{"name":"Drobin","countryCode":"PL","stateCode":"MZ","latitude":52.73775,"longitude":19.98928},{"name":"Drogomyśl","countryCode":"PL","stateCode":"SL","latitude":49.86964,"longitude":18.75727},{"name":"Drohiczyn","countryCode":"PL","stateCode":"PD","latitude":52.40011,"longitude":22.65853},{"name":"Drużbice","countryCode":"PL","stateCode":"LD","latitude":51.46369,"longitude":19.39404},{"name":"Drzewica","countryCode":"PL","stateCode":"LD","latitude":51.45085,"longitude":20.47701},{"name":"Drzycim","countryCode":"PL","stateCode":"KP","latitude":53.5052,"longitude":18.3094},{"name":"Dubiecko","countryCode":"PL","stateCode":"PK","latitude":49.82608,"longitude":22.39117},{"name":"Dubienka","countryCode":"PL","stateCode":"LU","latitude":51.04862,"longitude":23.89252},{"name":"Duczki","countryCode":"PL","stateCode":"MZ","latitude":52.36271,"longitude":21.29047},{"name":"Dukla","countryCode":"PL","stateCode":"PK","latitude":49.55554,"longitude":21.68317},{"name":"Duszniki","countryCode":"PL","stateCode":"WP","latitude":52.44691,"longitude":16.40602},{"name":"Duszniki-Zdrój","countryCode":"PL","stateCode":"DS","latitude":50.40327,"longitude":16.39091},{"name":"Dwikozy","countryCode":"PL","stateCode":"SK","latitude":50.73613,"longitude":21.78864},{"name":"Dydnia","countryCode":"PL","stateCode":"PK","latitude":49.6864,"longitude":22.17196},{"name":"Dygowo","countryCode":"PL","stateCode":"ZP","latitude":54.13031,"longitude":15.71993},{"name":"Dynów","countryCode":"PL","stateCode":"PK","latitude":49.81506,"longitude":22.23388},{"name":"Dywity","countryCode":"PL","stateCode":"WN","latitude":53.83759,"longitude":20.47817},{"name":"Dziadowa Kłoda","countryCode":"PL","stateCode":"DS","latitude":51.23543,"longitude":17.70919},{"name":"Działdowo","countryCode":"PL","stateCode":"WN","latitude":53.23958,"longitude":20.17004},{"name":"Działoszyce","countryCode":"PL","stateCode":"SK","latitude":50.36534,"longitude":20.35226},{"name":"Działoszyn","countryCode":"PL","stateCode":"LD","latitude":51.11699,"longitude":18.86524},{"name":"Dziećmorowice","countryCode":"PL","stateCode":"DS","latitude":50.76947,"longitude":16.35212},{"name":"Dzięgielów","countryCode":"PL","stateCode":"SL","latitude":49.72259,"longitude":18.70491},{"name":"Dziekanów Leśny","countryCode":"PL","stateCode":"MZ","latitude":52.35243,"longitude":20.85124},{"name":"Dziemiany","countryCode":"PL","stateCode":"PM","latitude":54.00636,"longitude":17.76755},{"name":"Dziergowice","countryCode":"PL","stateCode":"OP","latitude":50.24248,"longitude":18.28606},{"name":"Dzierzążnia","countryCode":"PL","stateCode":"MZ","latitude":52.62811,"longitude":20.23364},{"name":"Dzierzgoń","countryCode":"PL","stateCode":"PM","latitude":53.92196,"longitude":19.34705},{"name":"Dzierzgowo","countryCode":"PL","stateCode":"MZ","latitude":53.15279,"longitude":20.66322},{"name":"Dzierżoniów","countryCode":"PL","stateCode":"DS","latitude":50.7282,"longitude":16.65141},{"name":"Dziewin","countryCode":"PL","stateCode":"MA","latitude":50.07554,"longitude":20.45491},{"name":"Dzików Stary","countryCode":"PL","stateCode":"PK","latitude":50.24699,"longitude":22.92984},{"name":"Dzikowiec","countryCode":"PL","stateCode":"PK","latitude":50.27288,"longitude":21.84365},{"name":"Dziwnów","countryCode":"PL","stateCode":"ZP","latitude":54.02819,"longitude":14.76691},{"name":"Dźwierzuty","countryCode":"PL","stateCode":"WN","latitude":53.70494,"longitude":20.96037},{"name":"Dzwola","countryCode":"PL","stateCode":"LU","latitude":50.69657,"longitude":22.56729},{"name":"Elbląg","countryCode":"PL","stateCode":"WN","latitude":54.1522,"longitude":19.40884},{"name":"Ełk","countryCode":"PL","stateCode":"WN","latitude":53.82824,"longitude":22.36469},{"name":"Fabianki","countryCode":"PL","stateCode":"KP","latitude":52.71929,"longitude":19.10943},{"name":"Fajsławice","countryCode":"PL","stateCode":"LU","latitude":51.09592,"longitude":22.96323},{"name":"Fałków","countryCode":"PL","stateCode":"SK","latitude":51.13606,"longitude":20.1061},{"name":"Filipów","countryCode":"PL","stateCode":"PD","latitude":54.18037,"longitude":22.62076},{"name":"Filipowice","countryCode":"PL","stateCode":"MA","latitude":50.15573,"longitude":19.56579},{"name":"Firlej","countryCode":"PL","stateCode":"LU","latitude":51.55882,"longitude":22.50841},{"name":"Fordon","countryCode":"PL","stateCode":"KP","latitude":53.14821,"longitude":18.17036},{"name":"Frampol","countryCode":"PL","stateCode":"LU","latitude":50.67159,"longitude":22.67061},{"name":"Fredropol","countryCode":"PL","stateCode":"PK","latitude":49.69578,"longitude":22.74625},{"name":"Frombork","countryCode":"PL","stateCode":"WN","latitude":54.35766,"longitude":19.68029},{"name":"Frydek","countryCode":"PL","stateCode":"SL","latitude":49.99626,"longitude":19.07278},{"name":"Frydman","countryCode":"PL","stateCode":"MA","latitude":49.44927,"longitude":20.22961},{"name":"Frydrychowice","countryCode":"PL","stateCode":"MA","latitude":49.90481,"longitude":19.41936},{"name":"Frysztak","countryCode":"PL","stateCode":"PK","latitude":49.84164,"longitude":21.60942},{"name":"Gąbin","countryCode":"PL","stateCode":"MZ","latitude":52.39849,"longitude":19.73509},{"name":"Gać","countryCode":"PL","stateCode":"PK","latitude":50.02693,"longitude":22.35898},{"name":"Gądów Mały","countryCode":"PL","stateCode":"DS","latitude":51.11853,"longitude":16.98596},{"name":"Galewice","countryCode":"PL","stateCode":"LD","latitude":51.34471,"longitude":18.25756},{"name":"Gałków Mały","countryCode":"PL","stateCode":"LD","latitude":51.72554,"longitude":19.71359},{"name":"Garbatka-Letnisko","countryCode":"PL","stateCode":"MZ","latitude":51.4832,"longitude":21.61079},{"name":"Garbów","countryCode":"PL","stateCode":"LU","latitude":51.35517,"longitude":22.32937},{"name":"Garcz","countryCode":"PL","stateCode":"PM","latitude":54.3476,"longitude":18.10169},{"name":"Gardawice","countryCode":"PL","stateCode":"SL","latitude":50.11667,"longitude":18.8},{"name":"Gardeja","countryCode":"PL","stateCode":"PM","latitude":53.61125,"longitude":18.94687},{"name":"Garwolin","countryCode":"PL","stateCode":"MZ","latitude":51.89747,"longitude":21.61466},{"name":"Gąsawa","countryCode":"PL","stateCode":"KP","latitude":52.76757,"longitude":17.75579},{"name":"Gąsocin","countryCode":"PL","stateCode":"MZ","latitude":52.73754,"longitude":20.7118},{"name":"Gaszowice","countryCode":"PL","stateCode":"SL","latitude":50.10858,"longitude":18.43042},{"name":"Gaworzyce","countryCode":"PL","stateCode":"DS","latitude":51.62773,"longitude":15.88198},{"name":"Gdańsk","countryCode":"PL","stateCode":"PM","latitude":54.35205,"longitude":18.64637},{"name":"Gdów","countryCode":"PL","stateCode":"MA","latitude":49.90818,"longitude":20.19879},{"name":"Gdynia","countryCode":"PL","stateCode":"PM","latitude":54.51889,"longitude":18.53188},{"name":"Gidle","countryCode":"PL","stateCode":"LD","latitude":50.96199,"longitude":19.47181},{"name":"Giebułtów","countryCode":"PL","stateCode":"MA","latitude":50.14556,"longitude":19.87856},{"name":"Giedlarowa","countryCode":"PL","stateCode":"PK","latitude":50.22689,"longitude":22.40593},{"name":"Gielniów","countryCode":"PL","stateCode":"MZ","latitude":51.40076,"longitude":20.48126},{"name":"Gierałtowice","countryCode":"PL","stateCode":"MA","latitude":49.94426,"longitude":19.3907},{"name":"Gierałtowice","countryCode":"PL","stateCode":"SL","latitude":50.22486,"longitude":18.73384},{"name":"Gierłoż","countryCode":"PL","stateCode":"WN","latitude":54.08134,"longitude":21.49551},{"name":"Gierzwałd","countryCode":"PL","stateCode":"WN","latitude":53.54128,"longitude":20.08867},{"name":"Gietrzwałd","countryCode":"PL","stateCode":"WN","latitude":53.74617,"longitude":20.23742},{"name":"Gilowice","countryCode":"PL","stateCode":"SL","latitude":49.99505,"longitude":19.09613},{"name":"Gizałki","countryCode":"PL","stateCode":"WP","latitude":52.04267,"longitude":17.76936},{"name":"Giżycko","countryCode":"PL","stateCode":"WN","latitude":54.03811,"longitude":21.76441},{"name":"Glinojeck","countryCode":"PL","stateCode":"MZ","latitude":52.81983,"longitude":20.29198},{"name":"Gliwice","countryCode":"PL","stateCode":"SL","latitude":50.29761,"longitude":18.67658},{"name":"Głogoczów","countryCode":"PL","stateCode":"MA","latitude":49.89452,"longitude":19.8741},{"name":"Głogów","countryCode":"PL","stateCode":"DS","latitude":51.66361,"longitude":16.0845},{"name":"Głogów Małopolski","countryCode":"PL","stateCode":"PK","latitude":50.15122,"longitude":21.96287},{"name":"Głogówek","countryCode":"PL","stateCode":"OP","latitude":50.35355,"longitude":17.86405},{"name":"Główczyce","countryCode":"PL","stateCode":"PM","latitude":54.61935,"longitude":17.3723},{"name":"Głowno","countryCode":"PL","stateCode":"LD","latitude":51.96463,"longitude":19.71565},{"name":"Głubczyce","countryCode":"PL","stateCode":"OP","latitude":50.20086,"longitude":17.82858},{"name":"Głuchołazy","countryCode":"PL","stateCode":"OP","latitude":50.31505,"longitude":17.38355},{"name":"Głuchów","countryCode":"PL","stateCode":"LD","latitude":51.77947,"longitude":20.07666},{"name":"Głuchów","countryCode":"PL","stateCode":"PK","latitude":50.08171,"longitude":22.27135},{"name":"Głuszyca","countryCode":"PL","stateCode":"DS","latitude":50.68743,"longitude":16.37173},{"name":"Głuszyca Górna","countryCode":"PL","stateCode":"DS","latitude":50.66606,"longitude":16.37585},{"name":"Gniazdów","countryCode":"PL","stateCode":"SL","latitude":50.59621,"longitude":19.11132},{"name":"Gniechowice","countryCode":"PL","stateCode":"DS","latitude":50.98804,"longitude":16.83363},{"name":"Gniew","countryCode":"PL","stateCode":"PM","latitude":53.83602,"longitude":18.8231},{"name":"Gniewino","countryCode":"PL","stateCode":"PM","latitude":54.71709,"longitude":18.01663},{"name":"Gniewkowo","countryCode":"PL","stateCode":"KP","latitude":52.89461,"longitude":18.40785},{"name":"Gnieżdżewo","countryCode":"PL","stateCode":"PM","latitude":54.74741,"longitude":18.37944},{"name":"Gniezno","countryCode":"PL","stateCode":"WP","latitude":52.53481,"longitude":17.58259},{"name":"Gnojnik","countryCode":"PL","stateCode":"MA","latitude":49.89397,"longitude":20.60863},{"name":"Gnojno","countryCode":"PL","stateCode":"SK","latitude":50.60263,"longitude":20.84913},{"name":"Goczałkowice Zdrój","countryCode":"PL","stateCode":"SL","latitude":49.94454,"longitude":18.96927},{"name":"Godów","countryCode":"PL","stateCode":"SL","latitude":49.92481,"longitude":18.4783},{"name":"Godzianów","countryCode":"PL","stateCode":"LD","latitude":51.89694,"longitude":20.03589},{"name":"Godziszka","countryCode":"PL","stateCode":"SL","latitude":49.71288,"longitude":19.07587},{"name":"Godziszów","countryCode":"PL","stateCode":"LU","latitude":50.74889,"longitude":22.49794},{"name":"Godziszów Pierwszy","countryCode":"PL","stateCode":"LU","latitude":50.75753,"longitude":22.48386},{"name":"Gogolin","countryCode":"PL","stateCode":"OP","latitude":50.49222,"longitude":18.01994},{"name":"Gołańcz","countryCode":"PL","stateCode":"WP","latitude":52.94326,"longitude":17.29995},{"name":"Golcowa","countryCode":"PL","stateCode":"PK","latitude":49.77162,"longitude":22.02501},{"name":"Golczewo","countryCode":"PL","stateCode":"ZP","latitude":53.82426,"longitude":14.97847},{"name":"Gołdap","countryCode":"PL","stateCode":"WN","latitude":54.30631,"longitude":22.30362},{"name":"Goleniów","countryCode":"PL","stateCode":"ZP","latitude":53.56392,"longitude":14.82854},{"name":"Goleszów","countryCode":"PL","stateCode":"SL","latitude":49.7358,"longitude":18.73675},{"name":"Golina","countryCode":"PL","stateCode":"WP","latitude":52.24315,"longitude":18.09268},{"name":"Gołkowice","countryCode":"PL","stateCode":"SL","latitude":49.91418,"longitude":18.51419},{"name":"Golub-Dobrzyń","countryCode":"PL","stateCode":"KP","latitude":53.11087,"longitude":19.05381},{"name":"Gołuchów","countryCode":"PL","stateCode":"WP","latitude":51.85036,"longitude":17.9314},{"name":"Gołymin-Ośrodek","countryCode":"PL","stateCode":"MZ","latitude":52.808,"longitude":20.87325},{"name":"Gomunice","countryCode":"PL","stateCode":"LD","latitude":51.1689,"longitude":19.49335},{"name":"Goniadz","countryCode":"PL","stateCode":"PD","latitude":53.48953,"longitude":22.73578},{"name":"Góra","countryCode":"PL","stateCode":"DS","latitude":51.66638,"longitude":16.53494},{"name":"Góra","countryCode":"PL","stateCode":"SL","latitude":49.97971,"longitude":19.10471},{"name":"Góra Kalwaria","countryCode":"PL","stateCode":"MZ","latitude":51.97653,"longitude":21.21537},{"name":"Góra Świętej Małgorzaty","countryCode":"PL","stateCode":"LD","latitude":52.05713,"longitude":19.31997},{"name":"Goraj","countryCode":"PL","stateCode":"LU","latitude":50.72184,"longitude":22.66651},{"name":"Górażdże","countryCode":"PL","stateCode":"OP","latitude":50.52903,"longitude":18.01003},{"name":"Gorenice","countryCode":"PL","stateCode":"MA","latitude":50.208,"longitude":19.62038},{"name":"Górki","countryCode":"PL","stateCode":"PK","latitude":49.64385,"longitude":22.04304},{"name":"Górki Wielkie","countryCode":"PL","stateCode":"SL","latitude":49.77971,"longitude":18.83117},{"name":"Gorlice","countryCode":"PL","stateCode":"MA","latitude":49.65563,"longitude":21.16035},{"name":"Gorliczyna","countryCode":"PL","stateCode":"PK","latitude":50.09217,"longitude":22.48764},{"name":"Górno","countryCode":"PL","stateCode":"PK","latitude":50.28243,"longitude":22.145},{"name":"Górno","countryCode":"PL","stateCode":"SK","latitude":50.84774,"longitude":20.82501},{"name":"Górowo Iławeckie","countryCode":"PL","stateCode":"WN","latitude":54.28559,"longitude":20.48886},{"name":"Gorzków","countryCode":"PL","stateCode":"LU","latitude":50.94778,"longitude":23.01267},{"name":"Gorzkowice","countryCode":"PL","stateCode":"LD","latitude":51.21533,"longitude":19.59626},{"name":"Górzno","countryCode":"PL","stateCode":"KP","latitude":53.19779,"longitude":19.64317},{"name":"Górzno","countryCode":"PL","stateCode":"MZ","latitude":51.84681,"longitude":21.70933},{"name":"Gorzów Śląski","countryCode":"PL","stateCode":"OP","latitude":51.02871,"longitude":18.42304},{"name":"Gorzów Wielkopolski","countryCode":"PL","stateCode":"LB","latitude":52.73679,"longitude":15.22878},{"name":"Górzyca","countryCode":"PL","stateCode":"LB","latitude":52.49447,"longitude":14.65503},{"name":"Gorzyce","countryCode":"PL","stateCode":"PK","latitude":50.12841,"longitude":22.57926},{"name":"Gorzyce","countryCode":"PL","stateCode":"SL","latitude":49.95945,"longitude":18.39884},{"name":"Gorzyce Wielkie","countryCode":"PL","stateCode":"WP","latitude":51.63725,"longitude":17.72953},{"name":"Gorzyczki","countryCode":"PL","stateCode":"SL","latitude":49.94912,"longitude":18.4033},{"name":"Gościcino","countryCode":"PL","stateCode":"PM","latitude":54.60459,"longitude":18.15491},{"name":"Gościeradów","countryCode":"PL","stateCode":"LU","latitude":50.86859,"longitude":22.00536},{"name":"Gościno","countryCode":"PL","stateCode":"ZP","latitude":54.05123,"longitude":15.65256},{"name":"Gostycyn","countryCode":"PL","stateCode":"KP","latitude":53.49014,"longitude":17.80978},{"name":"Gostyń","countryCode":"PL","stateCode":"SL","latitude":50.10528,"longitude":18.88241},{"name":"Gostyń","countryCode":"PL","stateCode":"WP","latitude":51.88247,"longitude":17.01225},{"name":"Gostynin","countryCode":"PL","stateCode":"MZ","latitude":52.42938,"longitude":19.46194},{"name":"Goszczanów","countryCode":"PL","stateCode":"LD","latitude":51.79163,"longitude":18.5057},{"name":"Goszczyn","countryCode":"PL","stateCode":"MZ","latitude":51.73187,"longitude":20.85154},{"name":"Gowarczów","countryCode":"PL","stateCode":"SK","latitude":51.27845,"longitude":20.43835},{"name":"Goworowo","countryCode":"PL","stateCode":"MZ","latitude":52.90083,"longitude":21.55578},{"name":"Gózd","countryCode":"PL","stateCode":"MZ","latitude":51.37832,"longitude":21.37914},{"name":"Gozdnica","countryCode":"PL","stateCode":"LB","latitude":51.4363,"longitude":15.09856},{"name":"Gozdowo","countryCode":"PL","stateCode":"MZ","latitude":52.72455,"longitude":19.68501},{"name":"Grabica","countryCode":"PL","stateCode":"LD","latitude":51.47989,"longitude":19.53137},{"name":"Grabiszyn","countryCode":"PL","stateCode":"DS","latitude":51.09369,"longitude":16.97819},{"name":"Grabiszynek","countryCode":"PL","stateCode":"DS","latitude":51.08703,"longitude":16.98629},{"name":"Grabów","countryCode":"PL","stateCode":"LD","latitude":52.12717,"longitude":19.00257},{"name":"Grabów nad Prosną","countryCode":"PL","stateCode":"WP","latitude":51.50596,"longitude":18.11929},{"name":"Grabowiec","countryCode":"PL","stateCode":"LU","latitude":50.8209,"longitude":23.55057},{"name":"Grabownica Starzeńska","countryCode":"PL","stateCode":"PK","latitude":49.65896,"longitude":22.07754},{"name":"Grabowo Kościerskie","countryCode":"PL","stateCode":"PM","latitude":54.16816,"longitude":18.14692},{"name":"Grajewo","countryCode":"PL","stateCode":"PD","latitude":53.64728,"longitude":22.45537},{"name":"Granica","countryCode":"PL","stateCode":"MZ","latitude":52.13359,"longitude":20.80313},{"name":"Granowo","countryCode":"PL","stateCode":"WP","latitude":52.22244,"longitude":16.52859},{"name":"Grębków","countryCode":"PL","stateCode":"MZ","latitude":52.26931,"longitude":21.90974},{"name":"Grębocice","countryCode":"PL","stateCode":"DS","latitude":51.59909,"longitude":16.16741},{"name":"Gręboszów","countryCode":"PL","stateCode":"MA","latitude":50.24501,"longitude":20.77669},{"name":"Grębów","countryCode":"PL","stateCode":"PK","latitude":50.56536,"longitude":21.87404},{"name":"Grodków","countryCode":"PL","stateCode":"OP","latitude":50.69836,"longitude":17.38449},{"name":"Grodziec","countryCode":"PL","stateCode":"WP","latitude":52.03855,"longitude":18.05972},{"name":"Grodzisk Mazowiecki","countryCode":"PL","stateCode":"MZ","latitude":52.10387,"longitude":20.6337},{"name":"Grodzisk Wielkopolski","countryCode":"PL","stateCode":"WP","latitude":52.22762,"longitude":16.36534},{"name":"Grodzisko Dolne","countryCode":"PL","stateCode":"PK","latitude":50.16238,"longitude":22.46292},{"name":"Grodzisko Górne","countryCode":"PL","stateCode":"PK","latitude":50.1869,"longitude":22.43786},{"name":"Grojec","countryCode":"PL","stateCode":"MA","latitude":49.98147,"longitude":19.23792},{"name":"Grójec","countryCode":"PL","stateCode":"MZ","latitude":51.86252,"longitude":20.86757},{"name":"Gromadka","countryCode":"PL","stateCode":"DS","latitude":51.36063,"longitude":15.76452},{"name":"Gromnik","countryCode":"PL","stateCode":"MA","latitude":49.83843,"longitude":20.96123},{"name":"Gronowo Elbląskie","countryCode":"PL","stateCode":"WN","latitude":54.08588,"longitude":19.30598},{"name":"Gronowo Górne","countryCode":"PL","stateCode":"WN","latitude":54.13863,"longitude":19.45988},{"name":"Grudki","countryCode":"PL","stateCode":"PD","latitude":53.09488,"longitude":23.66848},{"name":"Grudusk","countryCode":"PL","stateCode":"MZ","latitude":53.05845,"longitude":20.62494},{"name":"Grudziądz","countryCode":"PL","stateCode":"KP","latitude":53.48411,"longitude":18.75366},{"name":"Gruszów Wielki","countryCode":"PL","stateCode":"MA","latitude":50.19163,"longitude":21.03144},{"name":"Gruta","countryCode":"PL","stateCode":"KP","latitude":53.45315,"longitude":18.957},{"name":"Grybów","countryCode":"PL","stateCode":"MA","latitude":49.62439,"longitude":20.94797},{"name":"Gryfice","countryCode":"PL","stateCode":"ZP","latitude":53.9165,"longitude":15.20027},{"name":"Gryfino","countryCode":"PL","stateCode":"ZP","latitude":53.25243,"longitude":14.48831},{"name":"Gryfów Śląski","countryCode":"PL","stateCode":"DS","latitude":51.03081,"longitude":15.42017},{"name":"Grzechynia","countryCode":"PL","stateCode":"MA","latitude":49.7136,"longitude":19.64561},{"name":"Grzegorzew","countryCode":"PL","stateCode":"WP","latitude":52.20177,"longitude":18.73409},{"name":"Grzęska","countryCode":"PL","stateCode":"PK","latitude":50.08303,"longitude":22.45399},{"name":"Grzmiąca","countryCode":"PL","stateCode":"ZP","latitude":53.83734,"longitude":16.43512},{"name":"Grzybowa Góra","countryCode":"PL","stateCode":"SK","latitude":51.13326,"longitude":20.96174},{"name":"Grzybowo","countryCode":"PL","stateCode":"ZP","latitude":54.15892,"longitude":15.48557},{"name":"Gubin","countryCode":"PL","stateCode":"LB","latitude":51.94956,"longitude":14.72837},{"name":"Guzów","countryCode":"PL","stateCode":"MZ","latitude":52.11626,"longitude":20.33672},{"name":"Gwoźnica Górna","countryCode":"PL","stateCode":"PK","latitude":49.82791,"longitude":21.99772},{"name":"Gzy","countryCode":"PL","stateCode":"MZ","latitude":52.74045,"longitude":20.94372},{"name":"Haczów","countryCode":"PL","stateCode":"PK","latitude":49.66152,"longitude":21.8979},{"name":"Hajnówka","countryCode":"PL","stateCode":"PD","latitude":52.74328,"longitude":23.58122},{"name":"Halinów","countryCode":"PL","stateCode":"MZ","latitude":52.2288,"longitude":21.3551},{"name":"Handzlówka","countryCode":"PL","stateCode":"PK","latitude":49.99527,"longitude":22.22311},{"name":"Hańsk","countryCode":"PL","stateCode":"LU","latitude":51.41286,"longitude":23.39942},{"name":"Harasiuki","countryCode":"PL","stateCode":"PK","latitude":50.47515,"longitude":22.47288},{"name":"Harbutowice","countryCode":"PL","stateCode":"MA","latitude":49.81235,"longitude":19.78045},{"name":"Hażlach","countryCode":"PL","stateCode":"SL","latitude":49.80714,"longitude":18.65178},{"name":"Hel","countryCode":"PL","stateCode":"PM","latitude":54.60814,"longitude":18.8013},{"name":"Henryków","countryCode":"PL","stateCode":"DS","latitude":50.65327,"longitude":17.01027},{"name":"Herby","countryCode":"PL","stateCode":"SL","latitude":50.75318,"longitude":18.88756},{"name":"Hornówek","countryCode":"PL","stateCode":"MZ","latitude":52.28638,"longitude":20.80793},{"name":"Horodło","countryCode":"PL","stateCode":"LU","latitude":50.89459,"longitude":24.03723},{"name":"Horyniec-Zdrój","countryCode":"PL","stateCode":"PK","latitude":50.19152,"longitude":23.36277},{"name":"Hrubieszów","countryCode":"PL","stateCode":"LU","latitude":50.80502,"longitude":23.89251},{"name":"Humniska","countryCode":"PL","stateCode":"PK","latitude":49.67507,"longitude":22.05368},{"name":"Husów","countryCode":"PL","stateCode":"PK","latitude":49.97971,"longitude":22.28645},{"name":"Huta Stara B","countryCode":"PL","stateCode":"SL","latitude":50.73792,"longitude":19.13295},{"name":"Hyżne","countryCode":"PL","stateCode":"PK","latitude":49.91769,"longitude":22.18131},{"name":"Iława","countryCode":"PL","stateCode":"WN","latitude":53.59601,"longitude":19.56849},{"name":"Iłów","countryCode":"PL","stateCode":"MZ","latitude":52.33953,"longitude":20.0273},{"name":"Iłowa","countryCode":"PL","stateCode":"LB","latitude":51.5006,"longitude":15.1998},{"name":"Iłowo -Osada","countryCode":"PL","stateCode":"WN","latitude":53.16808,"longitude":20.29295},{"name":"Iłża","countryCode":"PL","stateCode":"MZ","latitude":51.16313,"longitude":21.23979},{"name":"Imielin","countryCode":"PL","stateCode":"SL","latitude":50.14534,"longitude":19.18599},{"name":"Imielno","countryCode":"PL","stateCode":"SK","latitude":50.58569,"longitude":20.44813},{"name":"Inowłódz","countryCode":"PL","stateCode":"LD","latitude":51.52717,"longitude":20.223},{"name":"Inowrocław","countryCode":"PL","stateCode":"KP","latitude":52.79886,"longitude":18.26387},{"name":"Ińsko","countryCode":"PL","stateCode":"ZP","latitude":53.43613,"longitude":15.5502},{"name":"Inwałd","countryCode":"PL","stateCode":"MA","latitude":49.86355,"longitude":19.39276},{"name":"Istebna","countryCode":"PL","stateCode":"SL","latitude":49.56319,"longitude":18.90567},{"name":"Iwaniska","countryCode":"PL","stateCode":"SK","latitude":50.73146,"longitude":21.2806},{"name":"Iwierzyce","countryCode":"PL","stateCode":"PK","latitude":50.02958,"longitude":21.75396},{"name":"Iwkowa","countryCode":"PL","stateCode":"MA","latitude":49.81716,"longitude":20.59018},{"name":"Iwonicz-Zdrój","countryCode":"PL","stateCode":"PK","latitude":49.56319,"longitude":21.78992},{"name":"Izabelin","countryCode":"PL","stateCode":"MZ","latitude":52.29992,"longitude":20.81729},{"name":"Izbica","countryCode":"PL","stateCode":"LU","latitude":50.88728,"longitude":23.15248},{"name":"Izbica Kujawska","countryCode":"PL","stateCode":"KP","latitude":52.42073,"longitude":18.7627},{"name":"Izbicko","countryCode":"PL","stateCode":"OP","latitude":50.57163,"longitude":18.15585},{"name":"Izdebnik","countryCode":"PL","stateCode":"MA","latitude":49.87218,"longitude":19.76801},{"name":"Jabłoń","countryCode":"PL","stateCode":"LU","latitude":51.72501,"longitude":23.08743},{"name":"Jabłonica Polska","countryCode":"PL","stateCode":"PK","latitude":49.69784,"longitude":21.89961},{"name":"Jabłonka","countryCode":"PL","stateCode":"MA","latitude":49.47968,"longitude":19.6937},{"name":"Jabłonka","countryCode":"PL","stateCode":"PK","latitude":49.69417,"longitude":22.11565},{"name":"Jabłonna","countryCode":"PL","stateCode":"LU","latitude":51.08875,"longitude":22.59364},{"name":"Jabłonna","countryCode":"PL","stateCode":"MZ","latitude":52.37885,"longitude":20.91745},{"name":"Jabłonna","countryCode":"PL","stateCode":"WP","latitude":52.20598,"longitude":16.20741},{"name":"Jabłonna Lacka","countryCode":"PL","stateCode":"MZ","latitude":52.47664,"longitude":22.44228},{"name":"Jabłonowo Pomorskie","countryCode":"PL","stateCode":"KP","latitude":53.39137,"longitude":19.15509},{"name":"Jadów","countryCode":"PL","stateCode":"MZ","latitude":52.47849,"longitude":21.63199},{"name":"Jadowniki","countryCode":"PL","stateCode":"MA","latitude":49.95884,"longitude":20.64434},{"name":"Jadowniki Mokre","countryCode":"PL","stateCode":"MA","latitude":50.16546,"longitude":20.72845},{"name":"Jagiełła","countryCode":"PL","stateCode":"PK","latitude":50.0946,"longitude":22.57261},{"name":"Jakubów","countryCode":"PL","stateCode":"MZ","latitude":52.21965,"longitude":21.68032},{"name":"Jakubowice Murowane","countryCode":"PL","stateCode":"LU","latitude":51.26992,"longitude":22.63415},{"name":"Janikowo","countryCode":"PL","stateCode":"KP","latitude":52.75328,"longitude":18.11328},{"name":"Janków Przygodzki","countryCode":"PL","stateCode":"WP","latitude":51.59808,"longitude":17.78824},{"name":"Jankowice","countryCode":"PL","stateCode":"SL","latitude":50.0009,"longitude":18.98901},{"name":"Jankowice Rybnickie","countryCode":"PL","stateCode":"SL","latitude":50.04479,"longitude":18.54707},{"name":"Janów Lubelski","countryCode":"PL","stateCode":"LU","latitude":50.70695,"longitude":22.41039},{"name":"Janów Podlaski","countryCode":"PL","stateCode":"LU","latitude":52.19398,"longitude":23.21218},{"name":"Janowice","countryCode":"PL","stateCode":"MA","latitude":49.89154,"longitude":20.86081},{"name":"Janowice","countryCode":"PL","stateCode":"SL","latitude":49.88496,"longitude":19.09376},{"name":"Janowice Wielkie","countryCode":"PL","stateCode":"DS","latitude":50.87569,"longitude":15.92322},{"name":"Janowiec","countryCode":"PL","stateCode":"LU","latitude":51.32359,"longitude":21.8894},{"name":"Janowiec Wielkopolski","countryCode":"PL","stateCode":"KP","latitude":52.75583,"longitude":17.48981},{"name":"Januszkowice","countryCode":"PL","stateCode":"OP","latitude":50.39189,"longitude":18.1368},{"name":"Jaraczewo","countryCode":"PL","stateCode":"WP","latitude":51.96854,"longitude":17.29707},{"name":"Jarczów","countryCode":"PL","stateCode":"LU","latitude":50.42438,"longitude":23.58576},{"name":"Jarnołtów-Jerzmanowo","countryCode":"PL","stateCode":"DS","latitude":51.12163,"longitude":16.86621},{"name":"Jarocin","countryCode":"PL","stateCode":"PK","latitude":50.56459,"longitude":22.32121},{"name":"Jarocin","countryCode":"PL","stateCode":"WP","latitude":51.97266,"longitude":17.50256},{"name":"Jarosław","countryCode":"PL","stateCode":"PK","latitude":50.01623,"longitude":22.67776},{"name":"Jaroszowice","countryCode":"PL","stateCode":"MA","latitude":49.86267,"longitude":19.51962},{"name":"Jasień","countryCode":"PL","stateCode":"LB","latitude":51.75142,"longitude":15.01419},{"name":"Jasień","countryCode":"PL","stateCode":"MA","latitude":49.96988,"longitude":20.5719},{"name":"Jasienica","countryCode":"PL","stateCode":"MA","latitude":49.82281,"longitude":19.84191},{"name":"Jasienica","countryCode":"PL","stateCode":"MZ","latitude":52.41415,"longitude":21.4115},{"name":"Jasienica","countryCode":"PL","stateCode":"SL","latitude":49.81312,"longitude":18.92155},{"name":"Jasienica Rosielna","countryCode":"PL","stateCode":"PK","latitude":49.75144,"longitude":21.94176},{"name":"Jasieniec","countryCode":"PL","stateCode":"MZ","latitude":51.82104,"longitude":20.94099},{"name":"Jasionów","countryCode":"PL","stateCode":"PK","latitude":49.65841,"longitude":21.97678},{"name":"Jaśliska","countryCode":"PL","stateCode":"PK","latitude":49.44229,"longitude":21.80795},{"name":"Jasło","countryCode":"PL","stateCode":"PK","latitude":49.74506,"longitude":21.47252},{"name":"Jastarnia","countryCode":"PL","stateCode":"PM","latitude":54.6983,"longitude":18.6773},{"name":"Jastków","countryCode":"PL","stateCode":"LU","latitude":51.30411,"longitude":22.43546},{"name":"Jastrowie","countryCode":"PL","stateCode":"WP","latitude":53.42048,"longitude":16.81756},{"name":"Jastrząb","countryCode":"PL","stateCode":"MZ","latitude":51.24725,"longitude":20.94758},{"name":"Jastrząb","countryCode":"PL","stateCode":"SL","latitude":50.67019,"longitude":19.1817},{"name":"Jastrzębia","countryCode":"PL","stateCode":"MA","latitude":49.79733,"longitude":20.88089},{"name":"Jastrzębia","countryCode":"PL","stateCode":"MZ","latitude":51.49742,"longitude":21.23709},{"name":"Jastrzębia Góra","countryCode":"PL","stateCode":"PM","latitude":54.83135,"longitude":18.31301},{"name":"Jastrzębie Zdrój","countryCode":"PL","stateCode":"SL","latitude":49.95542,"longitude":18.57479},{"name":"Jastrzębie-Zdrój","countryCode":"PL","stateCode":"SL","latitude":49.96063,"longitude":18.60053},{"name":"Jawor","countryCode":"PL","stateCode":"DS","latitude":51.05132,"longitude":16.19347},{"name":"Jawornik","countryCode":"PL","stateCode":"MA","latitude":49.8558,"longitude":19.89315},{"name":"Jawornik","countryCode":"PL","stateCode":"PK","latitude":49.8464,"longitude":21.89404},{"name":"Jawornik Polski","countryCode":"PL","stateCode":"PK","latitude":49.89082,"longitude":22.28868},{"name":"Jaworze","countryCode":"PL","stateCode":"SL","latitude":49.79351,"longitude":18.9479},{"name":"Jaworzno","countryCode":"PL","stateCode":"SL","latitude":50.20528,"longitude":19.27498},{"name":"Jaworzyna Śląska","countryCode":"PL","stateCode":"DS","latitude":50.9134,"longitude":16.43241},{"name":"Jaworzynka","countryCode":"PL","stateCode":"SL","latitude":49.54019,"longitude":18.86996},{"name":"Jedlicze","countryCode":"PL","stateCode":"PK","latitude":49.71749,"longitude":21.64886},{"name":"Jedlina-Zdrój","countryCode":"PL","stateCode":"DS","latitude":50.72005,"longitude":16.34645},{"name":"Jedlińsk","countryCode":"PL","stateCode":"MZ","latitude":51.514,"longitude":21.11577},{"name":"Jedlnia-Letnisko","countryCode":"PL","stateCode":"MZ","latitude":51.43074,"longitude":21.33536},{"name":"Jednorożec","countryCode":"PL","stateCode":"MZ","latitude":53.14116,"longitude":21.05161},{"name":"Jędrzejów","countryCode":"PL","stateCode":"SK","latitude":50.63945,"longitude":20.30454},{"name":"Jedwabne","countryCode":"PL","stateCode":"PD","latitude":53.28554,"longitude":22.30353},{"name":"Jedwabno","countryCode":"PL","stateCode":"WN","latitude":53.5299,"longitude":20.72657},{"name":"Jejkowice","countryCode":"PL","stateCode":"SL","latitude":50.10814,"longitude":18.46767},{"name":"Jelcz","countryCode":"PL","stateCode":"DS","latitude":51.02102,"longitude":17.32095},{"name":"Jelcz Laskowice","countryCode":"PL","stateCode":"DS","latitude":51.02134,"longitude":17.31649},{"name":"Jelenia Góra","countryCode":"PL","stateCode":"DS","latitude":50.89973,"longitude":15.72899},{"name":"Jeleśnia","countryCode":"PL","stateCode":"SL","latitude":49.64246,"longitude":19.32701},{"name":"Jemielnica","countryCode":"PL","stateCode":"OP","latitude":50.54573,"longitude":18.37807},{"name":"Jenin","countryCode":"PL","stateCode":"LB","latitude":52.69647,"longitude":15.09796},{"name":"Jerzmanowice","countryCode":"PL","stateCode":"MA","latitude":50.21267,"longitude":19.74672},{"name":"Jeżewo","countryCode":"PL","stateCode":"KP","latitude":53.51061,"longitude":18.49437},{"name":"Jeziora Wielkie","countryCode":"PL","stateCode":"KP","latitude":52.53043,"longitude":18.26803},{"name":"Jeziorany","countryCode":"PL","stateCode":"WN","latitude":53.97578,"longitude":20.74639},{"name":"Jeziorzany","countryCode":"PL","stateCode":"LU","latitude":51.60245,"longitude":22.27667},{"name":"Jeżów","countryCode":"PL","stateCode":"LD","latitude":51.81376,"longitude":19.96877},{"name":"Jeżów Sudecki","countryCode":"PL","stateCode":"DS","latitude":50.93507,"longitude":15.74306},{"name":"Jeżowe","countryCode":"PL","stateCode":"PK","latitude":50.37486,"longitude":22.12749},{"name":"Jodłowa","countryCode":"PL","stateCode":"PK","latitude":49.87229,"longitude":21.27897},{"name":"Jodłówka","countryCode":"PL","stateCode":"MA","latitude":49.99295,"longitude":20.54821},{"name":"Jodłówka","countryCode":"PL","stateCode":"PK","latitude":49.8943,"longitude":22.46653},{"name":"Jodłówka-Wałki","countryCode":"PL","stateCode":"MA","latitude":50.04992,"longitude":21.13332},{"name":"Joniec","countryCode":"PL","stateCode":"MZ","latitude":52.60128,"longitude":20.58177},{"name":"Jonkowo","countryCode":"PL","stateCode":"WN","latitude":53.82817,"longitude":20.31054},{"name":"Jordanów","countryCode":"PL","stateCode":"MA","latitude":49.64935,"longitude":19.82981},{"name":"Jordanów Śląski","countryCode":"PL","stateCode":"DS","latitude":50.86421,"longitude":16.86873},{"name":"Józefosław","countryCode":"PL","stateCode":"MZ","latitude":52.1005,"longitude":21.04629},{"name":"Józefów","countryCode":"PL","stateCode":"LU","latitude":50.48119,"longitude":23.05404},{"name":"Józefów","countryCode":"PL","stateCode":"MZ","latitude":52.13707,"longitude":21.23589},{"name":"Józefów nad Wisłą","countryCode":"PL","stateCode":"LU","latitude":51.04183,"longitude":21.83018},{"name":"Jugów","countryCode":"PL","stateCode":"DS","latitude":50.62758,"longitude":16.51812},{"name":"Juszczyn","countryCode":"PL","stateCode":"MA","latitude":49.6929,"longitude":19.69128},{"name":"Juszczyna","countryCode":"PL","stateCode":"SL","latitude":49.62984,"longitude":19.22032},{"name":"Jutrosin","countryCode":"PL","stateCode":"WP","latitude":51.65009,"longitude":17.16957},{"name":"Kabaty","countryCode":"PL","stateCode":"MZ","latitude":52.13012,"longitude":21.08148},{"name":"Kaczory","countryCode":"PL","stateCode":"WP","latitude":53.10348,"longitude":16.88169},{"name":"Kaczyce","countryCode":"PL","stateCode":"SL","latitude":49.82752,"longitude":18.59161},{"name":"Kadzidło","countryCode":"PL","stateCode":"MZ","latitude":53.23435,"longitude":21.46454},{"name":"Kalej","countryCode":"PL","stateCode":"SL","latitude":50.83662,"longitude":18.98429},{"name":"Kalety","countryCode":"PL","stateCode":"SL","latitude":50.5627,"longitude":18.8926},{"name":"Kaliska","countryCode":"PL","stateCode":"PM","latitude":53.90535,"longitude":18.21885},{"name":"Kalisz","countryCode":"PL","stateCode":"WP","latitude":51.76109,"longitude":18.09102},{"name":"Kalisz Pomorski","countryCode":"PL","stateCode":"ZP","latitude":53.29908,"longitude":15.90631},{"name":"Kałuszyn","countryCode":"PL","stateCode":"MZ","latitude":52.20669,"longitude":21.80838},{"name":"Kalwaria Zebrzydowska","countryCode":"PL","stateCode":"MA","latitude":49.86759,"longitude":19.6772},{"name":"Kamesznica","countryCode":"PL","stateCode":"SL","latitude":49.56469,"longitude":19.0212},{"name":"Kamień","countryCode":"PL","stateCode":"MA","latitude":50.01215,"longitude":19.58536},{"name":"Kamień","countryCode":"PL","stateCode":"PK","latitude":50.34064,"longitude":22.13539},{"name":"Kamień Krajeński","countryCode":"PL","stateCode":"KP","latitude":53.53352,"longitude":17.52019},{"name":"Kamień Pomorski","countryCode":"PL","stateCode":"ZP","latitude":53.96849,"longitude":14.77262},{"name":"Kamienica","countryCode":"PL","stateCode":"MA","latitude":49.57533,"longitude":20.34505},{"name":"Kamienica","countryCode":"PL","stateCode":"OP","latitude":50.45007,"longitude":16.95396},{"name":"Kamienica Polska","countryCode":"PL","stateCode":"SL","latitude":50.6709,"longitude":19.12265},{"name":"Kamieniec","countryCode":"PL","stateCode":"WP","latitude":52.16614,"longitude":16.46164},{"name":"Kamieniec Wrocławski","countryCode":"PL","stateCode":"DS","latitude":51.07182,"longitude":17.18193},{"name":"Kamieniec Ząbkowicki","countryCode":"PL","stateCode":"DS","latitude":50.52541,"longitude":16.87921},{"name":"Kamienna Góra","countryCode":"PL","stateCode":"DS","latitude":50.78314,"longitude":16.03037},{"name":"Kamiennik","countryCode":"PL","stateCode":"OP","latitude":50.57032,"longitude":17.14979},{"name":"Kamieńsk","countryCode":"PL","stateCode":"LD","latitude":51.20242,"longitude":19.49661},{"name":"Kamionka","countryCode":"PL","stateCode":"LU","latitude":51.47165,"longitude":22.46275},{"name":"Kamionka Wielka","countryCode":"PL","stateCode":"MA","latitude":49.56848,"longitude":20.82364},{"name":"Kampinos","countryCode":"PL","stateCode":"MZ","latitude":52.26837,"longitude":20.46307},{"name":"Kamyk","countryCode":"PL","stateCode":"SL","latitude":50.90179,"longitude":19.02875},{"name":"Kańczuga","countryCode":"PL","stateCode":"PK","latitude":49.98346,"longitude":22.41168},{"name":"Kaniów","countryCode":"PL","stateCode":"SK","latitude":50.98577,"longitude":20.66391},{"name":"Kaniów","countryCode":"PL","stateCode":"SL","latitude":49.94316,"longitude":19.05098},{"name":"Karczew","countryCode":"PL","stateCode":"MZ","latitude":52.07655,"longitude":21.24962},{"name":"Karczmiska","countryCode":"PL","stateCode":"LU","latitude":51.22952,"longitude":21.98158},{"name":"Kargowa","countryCode":"PL","stateCode":"LB","latitude":52.0714,"longitude":15.86138},{"name":"Karlino","countryCode":"PL","stateCode":"ZP","latitude":54.03515,"longitude":15.87739},{"name":"Karłowice","countryCode":"PL","stateCode":"DS","latitude":51.14132,"longitude":17.05212},{"name":"Karnice","countryCode":"PL","stateCode":"ZP","latitude":54.03001,"longitude":15.05496},{"name":"Karniewo","countryCode":"PL","stateCode":"MZ","latitude":52.837,"longitude":20.98886},{"name":"Karpacz","countryCode":"PL","stateCode":"DS","latitude":50.77669,"longitude":15.75594},{"name":"Karsin","countryCode":"PL","stateCode":"PM","latitude":53.90768,"longitude":17.92093},{"name":"Kartuzy","countryCode":"PL","stateCode":"PM","latitude":54.33424,"longitude":18.19735},{"name":"Kasina Wielka","countryCode":"PL","stateCode":"MA","latitude":49.72969,"longitude":20.13554},{"name":"Kaszów","countryCode":"PL","stateCode":"MA","latitude":50.03884,"longitude":19.71934},{"name":"Katowice","countryCode":"PL","stateCode":"SL","latitude":50.25841,"longitude":19.02754},{"name":"Kąty Wrocławskie","countryCode":"PL","stateCode":"DS","latitude":51.03098,"longitude":16.76767},{"name":"Kawęczyn","countryCode":"PL","stateCode":"WP","latitude":51.90923,"longitude":18.53102},{"name":"Kawęczyn Nowy","countryCode":"PL","stateCode":"LD","latitude":51.88597,"longitude":20.24703},{"name":"Kazanów","countryCode":"PL","stateCode":"MZ","latitude":51.27593,"longitude":21.46737},{"name":"Kazimierz Biskupi","countryCode":"PL","stateCode":"WP","latitude":52.311,"longitude":18.16581},{"name":"Kazimierz Dolny","countryCode":"PL","stateCode":"LU","latitude":51.31911,"longitude":21.95502},{"name":"Kazimierza Wielka","countryCode":"PL","stateCode":"SK","latitude":50.26564,"longitude":20.49358},{"name":"Kaźmierz","countryCode":"PL","stateCode":"WP","latitude":52.51309,"longitude":16.58403},{"name":"Kcynia","countryCode":"PL","stateCode":"KP","latitude":52.99192,"longitude":17.4883},{"name":"Kędzierzyn-Koźle","countryCode":"PL","stateCode":"OP","latitude":50.34984,"longitude":18.22606},{"name":"Kępice","countryCode":"PL","stateCode":"PM","latitude":54.24111,"longitude":16.88968},{"name":"Kępie Żaleszańskie","countryCode":"PL","stateCode":"PK","latitude":50.63983,"longitude":21.88133},{"name":"Kępno","countryCode":"PL","stateCode":"WP","latitude":51.2784,"longitude":17.98908},{"name":"Kęsowo","countryCode":"PL","stateCode":"KP","latitude":53.55872,"longitude":17.7158},{"name":"Kętrzyn","countryCode":"PL","stateCode":"WN","latitude":54.07676,"longitude":21.37527},{"name":"Kęty","countryCode":"PL","stateCode":"MA","latitude":49.88214,"longitude":19.22333},{"name":"Kielanówka","countryCode":"PL","stateCode":"PK","latitude":50.02616,"longitude":21.92905},{"name":"Kielce","countryCode":"PL","stateCode":"SK","latitude":50.87033,"longitude":20.62752},{"name":"Kiełczów","countryCode":"PL","stateCode":"DS","latitude":51.13999,"longitude":17.17798},{"name":"Kiełpin","countryCode":"PL","stateCode":"MZ","latitude":52.35796,"longitude":20.86214},{"name":"Kiernozia","countryCode":"PL","stateCode":"LD","latitude":52.26858,"longitude":19.87092},{"name":"Kietrz","countryCode":"PL","stateCode":"OP","latitude":50.08042,"longitude":18.00432},{"name":"Kije","countryCode":"PL","stateCode":"SK","latitude":50.60721,"longitude":20.57121},{"name":"Kikół","countryCode":"PL","stateCode":"KP","latitude":52.90994,"longitude":19.12016},{"name":"Kisielice","countryCode":"PL","stateCode":"WN","latitude":53.60855,"longitude":19.2635},{"name":"Kiszkowo","countryCode":"PL","stateCode":"WP","latitude":52.58871,"longitude":17.2663},{"name":"Kłaj","countryCode":"PL","stateCode":"MA","latitude":49.99246,"longitude":20.29904},{"name":"Kłecko","countryCode":"PL","stateCode":"WP","latitude":52.63181,"longitude":17.43075},{"name":"Klecza Dolna","countryCode":"PL","stateCode":"MA","latitude":49.88291,"longitude":19.53764},{"name":"Kleczew","countryCode":"PL","stateCode":"WP","latitude":52.37057,"longitude":18.17714},{"name":"Klembów","countryCode":"PL","stateCode":"MZ","latitude":52.4065,"longitude":21.33176},{"name":"Klenica","countryCode":"PL","stateCode":"LB","latitude":51.99217,"longitude":15.78392},{"name":"Kleszczele","countryCode":"PL","stateCode":"PD","latitude":52.57314,"longitude":23.32539},{"name":"Kleszczewo","countryCode":"PL","stateCode":"WP","latitude":52.33377,"longitude":17.17163},{"name":"Kleszczów","countryCode":"PL","stateCode":"LD","latitude":51.22355,"longitude":19.30418},{"name":"Klikuszowa","countryCode":"PL","stateCode":"MA","latitude":49.5193,"longitude":19.9849},{"name":"Klimontów","countryCode":"PL","stateCode":"MA","latitude":50.22843,"longitude":20.3199},{"name":"Klimontów","countryCode":"PL","stateCode":"SK","latitude":50.65588,"longitude":21.45587},{"name":"Kłobuck","countryCode":"PL","stateCode":"SL","latitude":50.90081,"longitude":18.93674},{"name":"Kłoczew","countryCode":"PL","stateCode":"LU","latitude":51.72134,"longitude":21.96493},{"name":"Kłodawa","countryCode":"PL","stateCode":"LB","latitude":52.78595,"longitude":15.21452},{"name":"Kłodawa","countryCode":"PL","stateCode":"WP","latitude":52.25447,"longitude":18.91352},{"name":"Kłodzko","countryCode":"PL","stateCode":"DS","latitude":50.43488,"longitude":16.66145},{"name":"Kłomnice","countryCode":"PL","stateCode":"SL","latitude":50.92165,"longitude":19.35679},{"name":"Klonowa","countryCode":"PL","stateCode":"LD","latitude":51.41928,"longitude":18.41815},{"name":"Kluczbork","countryCode":"PL","stateCode":"OP","latitude":50.97281,"longitude":18.21816},{"name":"Klucze","countryCode":"PL","stateCode":"MA","latitude":50.33565,"longitude":19.56236},{"name":"Kluki","countryCode":"PL","stateCode":"LD","latitude":51.34187,"longitude":19.23938},{"name":"Kluszkowce","countryCode":"PL","stateCode":"MA","latitude":49.451,"longitude":20.30179},{"name":"Klwów","countryCode":"PL","stateCode":"MZ","latitude":51.53448,"longitude":20.63644},{"name":"Knurów","countryCode":"PL","stateCode":"SL","latitude":50.21971,"longitude":18.65067},{"name":"Knyszyn","countryCode":"PL","stateCode":"PD","latitude":53.31406,"longitude":22.91963},{"name":"Kobiernice","countryCode":"PL","stateCode":"SL","latitude":49.85497,"longitude":19.21646},{"name":"Kobierzyce","countryCode":"PL","stateCode":"DS","latitude":50.97054,"longitude":16.93508},{"name":"Kobiór","countryCode":"PL","stateCode":"SL","latitude":50.06089,"longitude":18.93468},{"name":"Kobyla Góra","countryCode":"PL","stateCode":"WP","latitude":51.37923,"longitude":17.83811},{"name":"Kobylanka","countryCode":"PL","stateCode":"MA","latitude":49.66891,"longitude":21.22293},{"name":"Kobylanka","countryCode":"PL","stateCode":"ZP","latitude":53.34492,"longitude":14.87143},{"name":"Kobylin","countryCode":"PL","stateCode":"WP","latitude":51.71645,"longitude":17.22682},{"name":"Kobyłka","countryCode":"PL","stateCode":"MZ","latitude":52.33953,"longitude":21.19589},{"name":"Kobylnica","countryCode":"PL","stateCode":"PM","latitude":54.43975,"longitude":16.99782},{"name":"Kobylnica","countryCode":"PL","stateCode":"WP","latitude":52.44597,"longitude":17.07644},{"name":"Kochanowice","countryCode":"PL","stateCode":"SL","latitude":50.70548,"longitude":18.74911},{"name":"Kocierzew Południowy","countryCode":"PL","stateCode":"LD","latitude":52.21728,"longitude":20.01812},{"name":"Kock","countryCode":"PL","stateCode":"LU","latitude":51.63997,"longitude":22.44391},{"name":"Koczała","countryCode":"PL","stateCode":"PM","latitude":53.90449,"longitude":17.06529},{"name":"Kodeń","countryCode":"PL","stateCode":"LU","latitude":51.91171,"longitude":23.60301},{"name":"Kokotów","countryCode":"PL","stateCode":"MA","latitude":50.01254,"longitude":20.07829},{"name":"Kołaczkowo","countryCode":"PL","stateCode":"WP","latitude":52.21739,"longitude":17.62413},{"name":"Kołaczyce","countryCode":"PL","stateCode":"PK","latitude":49.80743,"longitude":21.43407},{"name":"Kołbaskowo","countryCode":"PL","stateCode":"ZP","latitude":53.33641,"longitude":14.43835},{"name":"Kołbiel","countryCode":"PL","stateCode":"MZ","latitude":52.06431,"longitude":21.48153},{"name":"Kolbudy","countryCode":"PL","stateCode":"PM","latitude":54.26989,"longitude":18.46639},{"name":"Kolbuszowa","countryCode":"PL","stateCode":"PK","latitude":50.2441,"longitude":21.7761},{"name":"Kołczygłowy","countryCode":"PL","stateCode":"PM","latitude":54.23895,"longitude":17.23154},{"name":"Koleczkowo","countryCode":"PL","stateCode":"PM","latitude":54.48629,"longitude":18.34373},{"name":"Kolno","countryCode":"PL","stateCode":"PD","latitude":53.41148,"longitude":21.92905},{"name":"Koło","countryCode":"PL","stateCode":"WP","latitude":52.20024,"longitude":18.63865},{"name":"Kołobrzeg","countryCode":"PL","stateCode":"ZP","latitude":54.17565,"longitude":15.58342},{"name":"Kolonowskie","countryCode":"PL","stateCode":"OP","latitude":50.65338,"longitude":18.38493},{"name":"Kolsko","countryCode":"PL","stateCode":"LB","latitude":51.96146,"longitude":15.95987},{"name":"Koluszki","countryCode":"PL","stateCode":"LD","latitude":51.73872,"longitude":19.81994},{"name":"Komańcza","countryCode":"PL","stateCode":"PK","latitude":49.33922,"longitude":22.06166},{"name":"Komarów-Osada","countryCode":"PL","stateCode":"LU","latitude":50.62888,"longitude":23.4774},{"name":"Komarówka Podlaska","countryCode":"PL","stateCode":"LU","latitude":51.80315,"longitude":22.94392},{"name":"Komorniki","countryCode":"PL","stateCode":"WP","latitude":52.3387,"longitude":16.81063},{"name":"Komorów","countryCode":"PL","stateCode":"MZ","latitude":52.1456,"longitude":20.81566},{"name":"Komprachcice","countryCode":"PL","stateCode":"OP","latitude":50.63678,"longitude":17.82635},{"name":"Konary","countryCode":"PL","stateCode":"WP","latitude":51.6569,"longitude":17.04185},{"name":"Kończyce","countryCode":"PL","stateCode":"PK","latitude":50.42575,"longitude":22.15376},{"name":"Kończyce Małe","countryCode":"PL","stateCode":"SL","latitude":49.85824,"longitude":18.62964},{"name":"Kończyce Wielkie","countryCode":"PL","stateCode":"SL","latitude":49.8351,"longitude":18.64474},{"name":"Koniaków","countryCode":"PL","stateCode":"SL","latitude":49.55066,"longitude":18.9491},{"name":"Koniecpol","countryCode":"PL","stateCode":"SL","latitude":50.77468,"longitude":19.68896},{"name":"Konieczkowa","countryCode":"PL","stateCode":"PK","latitude":49.84208,"longitude":21.9282},{"name":"Konin","countryCode":"PL","stateCode":"WP","latitude":52.22338,"longitude":18.25121},{"name":"Konopiska","countryCode":"PL","stateCode":"SL","latitude":50.72695,"longitude":19.00781},{"name":"Konotop","countryCode":"PL","stateCode":"LB","latitude":51.93157,"longitude":15.90391},{"name":"Końskie","countryCode":"PL","stateCode":"SK","latitude":51.19166,"longitude":20.40607},{"name":"Końskowola","countryCode":"PL","stateCode":"LU","latitude":51.40922,"longitude":22.05175},{"name":"Konstancin-Jeziorna","countryCode":"PL","stateCode":"MZ","latitude":52.0938,"longitude":21.11761},{"name":"Konstantynów","countryCode":"PL","stateCode":"LU","latitude":52.20746,"longitude":23.0853},{"name":"Konstantynów Łódzki","countryCode":"PL","stateCode":"LD","latitude":51.74776,"longitude":19.32564},{"name":"Koprzywnica","countryCode":"PL","stateCode":"SK","latitude":50.5934,"longitude":21.5838},{"name":"Korbielów","countryCode":"PL","stateCode":"SL","latitude":49.5682,"longitude":19.35001},{"name":"Korczew","countryCode":"PL","stateCode":"MZ","latitude":52.35327,"longitude":22.61338},{"name":"Korczyna","countryCode":"PL","stateCode":"PK","latitude":49.71555,"longitude":21.80941},{"name":"Korfantów","countryCode":"PL","stateCode":"OP","latitude":50.48894,"longitude":17.59898},{"name":"Kórnik","countryCode":"PL","stateCode":"WP","latitude":52.24772,"longitude":17.08949},{"name":"Kornowac","countryCode":"PL","stateCode":"SL","latitude":50.07179,"longitude":18.32846},{"name":"Koronowo","countryCode":"PL","stateCode":"KP","latitude":53.3137,"longitude":17.93698},{"name":"Korsze","countryCode":"PL","stateCode":"WN","latitude":54.17002,"longitude":21.13915},{"name":"Kortowo","countryCode":"PL","stateCode":"WN","latitude":53.75731,"longitude":20.4562},{"name":"Korytnica","countryCode":"PL","stateCode":"MZ","latitude":52.41441,"longitude":21.84949},{"name":"Korzenna","countryCode":"PL","stateCode":"MA","latitude":49.68635,"longitude":20.84355},{"name":"Kosakowo","countryCode":"PL","stateCode":"PM","latitude":54.58927,"longitude":18.48484},{"name":"Kościan","countryCode":"PL","stateCode":"WP","latitude":52.08829,"longitude":16.64866},{"name":"Kościelec","countryCode":"PL","stateCode":"SL","latitude":50.89713,"longitude":19.2156},{"name":"Kościelec","countryCode":"PL","stateCode":"WP","latitude":52.17425,"longitude":18.57067},{"name":"Kościelisko","countryCode":"PL","stateCode":"MA","latitude":49.29073,"longitude":19.88929},{"name":"Kościerzyna","countryCode":"PL","stateCode":"PM","latitude":54.12226,"longitude":17.98119},{"name":"Kosina","countryCode":"PL","stateCode":"PK","latitude":50.07213,"longitude":22.32903},{"name":"Kosów Lacki","countryCode":"PL","stateCode":"MZ","latitude":52.59541,"longitude":22.14707},{"name":"Kostomłoty Drugie","countryCode":"PL","stateCode":"SK","latitude":50.92684,"longitude":20.56529},{"name":"Kostomłoty Pierwsze","countryCode":"PL","stateCode":"SK","latitude":50.92322,"longitude":20.5949},{"name":"Kostrzyn","countryCode":"PL","stateCode":"WP","latitude":52.39847,"longitude":17.22811},{"name":"Kostrzyn nad Odrą","countryCode":"PL","stateCode":"LB","latitude":52.58713,"longitude":14.64953},{"name":"Koszalin","countryCode":"PL","stateCode":"ZP","latitude":54.19438,"longitude":16.17222},{"name":"Koszarawa","countryCode":"PL","stateCode":"SL","latitude":49.64462,"longitude":19.40083},{"name":"Koszęcin","countryCode":"PL","stateCode":"SL","latitude":50.63411,"longitude":18.8413},{"name":"Koszyce","countryCode":"PL","stateCode":"MA","latitude":49.97226,"longitude":20.94166},{"name":"Koszyce Wielkie","countryCode":"PL","stateCode":"MA","latitude":49.98076,"longitude":20.94552},{"name":"Kotla","countryCode":"PL","stateCode":"DS","latitude":51.74542,"longitude":16.03575},{"name":"Kotlin","countryCode":"PL","stateCode":"WP","latitude":51.91913,"longitude":17.64825},{"name":"Kotuń","countryCode":"PL","stateCode":"MZ","latitude":52.17643,"longitude":22.06819},{"name":"Kowal","countryCode":"PL","stateCode":"KP","latitude":52.53019,"longitude":19.14767},{"name":"Kowala","countryCode":"PL","stateCode":"MZ","latitude":51.32503,"longitude":21.06972},{"name":"Kowale","countryCode":"PL","stateCode":"PM","latitude":54.30976,"longitude":18.56149},{"name":"Kowale Oleckie","countryCode":"PL","stateCode":"WN","latitude":54.16354,"longitude":22.41666},{"name":"Kowale-Popiele","countryCode":"PL","stateCode":"DS","latitude":51.1309,"longitude":17.10175},{"name":"Kowalewo Pomorskie","countryCode":"PL","stateCode":"KP","latitude":53.15432,"longitude":18.89868},{"name":"Kowary","countryCode":"PL","stateCode":"DS","latitude":50.79313,"longitude":15.83559},{"name":"Kowiesy","countryCode":"PL","stateCode":"LD","latitude":51.88942,"longitude":20.41929},{"name":"Kozanów","countryCode":"PL","stateCode":"DS","latitude":51.14447,"longitude":16.96937},{"name":"Koziegłowy","countryCode":"PL","stateCode":"SL","latitude":50.60035,"longitude":19.16299},{"name":"Kozienice","countryCode":"PL","stateCode":"MZ","latitude":51.58294,"longitude":21.54779},{"name":"Koźle","countryCode":"PL","stateCode":"OP","latitude":50.3356,"longitude":18.14332},{"name":"Kozłów","countryCode":"PL","stateCode":"MA","latitude":50.48394,"longitude":20.02456},{"name":"Kozłowo","countryCode":"PL","stateCode":"WN","latitude":53.30652,"longitude":20.29098},{"name":"Koźmin Wielkopolski","countryCode":"PL","stateCode":"WP","latitude":51.82712,"longitude":17.45391},{"name":"Koźminek","countryCode":"PL","stateCode":"WP","latitude":51.79874,"longitude":18.33893},{"name":"Kozubszczyzna","countryCode":"PL","stateCode":"LU","latitude":51.22323,"longitude":22.42747},{"name":"Kożuchów","countryCode":"PL","stateCode":"LB","latitude":51.74558,"longitude":15.59492},{"name":"Kozy","countryCode":"PL","stateCode":"SL","latitude":49.84756,"longitude":19.14891},{"name":"Kraczkowa","countryCode":"PL","stateCode":"PK","latitude":50.03796,"longitude":22.16801},{"name":"Krajenka","countryCode":"PL","stateCode":"WP","latitude":53.29759,"longitude":16.99079},{"name":"Kraków","countryCode":"PL","stateCode":"MA","latitude":50.07262,"longitude":19.9325},{"name":"Kramarzówka","countryCode":"PL","stateCode":"PK","latitude":49.86034,"longitude":22.50137},{"name":"Kramsk","countryCode":"PL","stateCode":"WP","latitude":52.26469,"longitude":18.42407},{"name":"Krapkowice","countryCode":"PL","stateCode":"OP","latitude":50.47515,"longitude":17.96539},{"name":"Krasiczyn","countryCode":"PL","stateCode":"PK","latitude":49.77644,"longitude":22.65252},{"name":"Krasne","countryCode":"PL","stateCode":"MZ","latitude":52.92401,"longitude":20.96732},{"name":"Krasne","countryCode":"PL","stateCode":"PK","latitude":50.05626,"longitude":22.08638},{"name":"Kraśniczyn","countryCode":"PL","stateCode":"LU","latitude":50.93171,"longitude":23.34929},{"name":"Kraśnik","countryCode":"PL","stateCode":"LU","latitude":50.9236,"longitude":22.22706},{"name":"Krasnobród","countryCode":"PL","stateCode":"LU","latitude":50.54551,"longitude":23.21308},{"name":"Krasnopol","countryCode":"PL","stateCode":"PD","latitude":54.11613,"longitude":23.20476},{"name":"Krasnosielc","countryCode":"PL","stateCode":"MZ","latitude":53.03378,"longitude":21.15735},{"name":"Krasnystaw","countryCode":"PL","stateCode":"LU","latitude":50.98464,"longitude":23.1742},{"name":"Krasocin","countryCode":"PL","stateCode":"SK","latitude":50.88874,"longitude":20.11863},{"name":"Kraszewice","countryCode":"PL","stateCode":"WP","latitude":51.51868,"longitude":18.21997},{"name":"Krempna","countryCode":"PL","stateCode":"PK","latitude":49.51128,"longitude":21.50042},{"name":"Krobia","countryCode":"PL","stateCode":"WP","latitude":51.77405,"longitude":16.98237},{"name":"Kroczyce","countryCode":"PL","stateCode":"SL","latitude":50.56176,"longitude":19.57},