[{"name":"1 Decembrie","countryCode":"RO","stateCode":"IF","latitude":44.29083,"longitude":26.05806},{"name":"23 August","countryCode":"RO","stateCode":"CT","latitude":43.91667,"longitude":28.58333},{"name":"Abram","countryCode":"RO","stateCode":"BH","latitude":47.31667,"longitude":22.38333},{"name":"Abrămuţ","countryCode":"RO","stateCode":"BH","latitude":47.31667,"longitude":22.25},{"name":"Abrud","countryCode":"RO","stateCode":"AB","latitude":46.27406,"longitude":23.06339},{"name":"Abrud-Sat","countryCode":"RO","stateCode":"AB","latitude":46.28166,"longitude":23.06098},{"name":"Abuș","countryCode":"RO","stateCode":"MS","latitude":46.35,"longitude":24.38333333},{"name":"Acâş","countryCode":"RO","stateCode":"SM","latitude":47.53333,"longitude":22.78333},{"name":"Acățari","countryCode":"RO","stateCode":"MS","latitude":46.48333333,"longitude":24.63333333},{"name":"Acriș","countryCode":"RO","stateCode":"BV","latitude":45.63673,"longitude":25.99247},{"name":"Adamclisi","countryCode":"RO","stateCode":"CT","latitude":44.08333,"longitude":27.95},{"name":"Adămuș","countryCode":"RO","stateCode":"MS","latitude":46.3,"longitude":24.23},{"name":"Adânca","countryCode":"RO","stateCode":"DB","latitude":44.9225,"longitude":25.61005},{"name":"Adâncata","countryCode":"RO","stateCode":"IL","latitude":44.76667,"longitude":26.43333},{"name":"Adâncata","countryCode":"RO","stateCode":"SV","latitude":47.73333,"longitude":26.3},{"name":"Adășeni","countryCode":"RO","stateCode":"BT","latitude":48.0692,"longitude":26.93789},{"name":"Adea","countryCode":"RO","stateCode":"AR","latitude":46.55511,"longitude":21.58433},{"name":"Adjud","countryCode":"RO","stateCode":"VN","latitude":46.1,"longitude":27.16667},{"name":"Adjudeni","countryCode":"RO","stateCode":"NT","latitude":47.01408,"longitude":26.94903},{"name":"Adjudu Vechi","countryCode":"RO","stateCode":"VN","latitude":46.13485,"longitude":27.18891},{"name":"Adrian","countryCode":"RO","stateCode":"MS","latitude":46.782092,"longitude":24.833242},{"name":"Adrianu Mare","countryCode":"RO","stateCode":"MS","latitude":46.493573,"longitude":24.803244},{"name":"Adrianu Mic","countryCode":"RO","stateCode":"MS","latitude":46.500821,"longitude":24.790514},{"name":"Adunaţi","countryCode":"RO","stateCode":"PH","latitude":45.13333,"longitude":25.61667},{"name":"Adunații-Copăceni","countryCode":"RO","stateCode":"GR","latitude":44.25413,"longitude":26.04929},{"name":"Afumaţi","countryCode":"RO","stateCode":"DJ","latitude":44,"longitude":23.46667},{"name":"Afumaţi","countryCode":"RO","stateCode":"IF","latitude":44.51667,"longitude":26.26667},{"name":"Agapia","countryCode":"RO","stateCode":"NT","latitude":47.16667,"longitude":26.28333},{"name":"Agârbiciu","countryCode":"RO","stateCode":"SB","latitude":46.06764,"longitude":24.19386},{"name":"Agăş","countryCode":"RO","stateCode":"BC","latitude":46.48333,"longitude":26.21667},{"name":"Aghireș","countryCode":"RO","stateCode":"SJ","latitude":47.16164,"longitude":23.01764},{"name":"Aghireșu","countryCode":"RO","stateCode":"CJ","latitude":46.87209,"longitude":23.23773},{"name":"Aghireșu-Fabrici","countryCode":"RO","stateCode":"CJ","latitude":46.8669,"longitude":23.27129},{"name":"Agigea","countryCode":"RO","stateCode":"CT","latitude":44.09258,"longitude":28.61079},{"name":"Agighiol","countryCode":"RO","stateCode":"TL","latitude":45.03362,"longitude":28.87628},{"name":"Agnita","countryCode":"RO","stateCode":"SB","latitude":45.96667,"longitude":24.61667},{"name":"Agrieș","countryCode":"RO","stateCode":"BN","latitude":47.40022,"longitude":24.13491},{"name":"Agrij","countryCode":"RO","stateCode":"SJ","latitude":47.06685,"longitude":23.09918},{"name":"Agriș","countryCode":"RO","stateCode":"SM","latitude":47.88075,"longitude":23.0034},{"name":"Agrișteu","countryCode":"RO","stateCode":"MS","latitude":46.391728,"longitude":24.683796},{"name":"Agrișu Mare","countryCode":"RO","stateCode":"AR","latitude":46.27243,"longitude":21.75558},{"name":"Aita Mare","countryCode":"RO","stateCode":"CV","latitude":45.96667,"longitude":25.55},{"name":"Aiton","countryCode":"RO","stateCode":"CJ","latitude":46.68333,"longitude":23.73333},{"name":"Aiud","countryCode":"RO","stateCode":"AB","latitude":46.31006,"longitude":23.72128},{"name":"Aiudul de Sus","countryCode":"RO","stateCode":"AB","latitude":46.31653,"longitude":23.69053},{"name":"Alămor","countryCode":"RO","stateCode":"SB","latitude":45.93003,"longitude":23.9937},{"name":"Alba","countryCode":"RO","stateCode":"BT","latitude":48.15859,"longitude":26.47736},{"name":"Alba Iulia","countryCode":"RO","stateCode":"AB","latitude":46.06667,"longitude":23.58333},{"name":"Albac","countryCode":"RO","stateCode":"AB","latitude":46.45246,"longitude":22.95164},{"name":"Albeni","countryCode":"RO","stateCode":"GJ","latitude":45.03333,"longitude":23.6},{"name":"Albeşti","countryCode":"RO","stateCode":"AG","latitude":45.30955,"longitude":25.0078},{"name":"Albeşti","countryCode":"RO","stateCode":"BT","latitude":47.7,"longitude":27.06667},{"name":"Albeşti","countryCode":"RO","stateCode":"CT","latitude":43.8,"longitude":28.41667},{"name":"Albeşti","countryCode":"RO","stateCode":"IL","latitude":44.53333,"longitude":27.13333},{"name":"Albeşti","countryCode":"RO","stateCode":"VS","latitude":46.5,"longitude":27.86667},{"name":"Albești","countryCode":"RO","stateCode":"MS","latitude":46.23,"longitude":24.85},{"name":"Albești-Muru","countryCode":"RO","stateCode":"PH","latitude":44.9444,"longitude":26.20899},{"name":"Albeşti-Paleologu","countryCode":"RO","stateCode":"PH","latitude":44.95,"longitude":26.21667},{"name":"Albeştii Pământeni","countryCode":"RO","stateCode":"AG","latitude":45.21667,"longitude":24.66667},{"name":"Albeștii Ungureni","countryCode":"RO","stateCode":"AG","latitude":45.22529,"longitude":24.67254},{"name":"Albiș","countryCode":"RO","stateCode":"BH","latitude":47.39024,"longitude":22.24528},{"name":"Albota","countryCode":"RO","stateCode":"AG","latitude":44.78333,"longitude":24.85},{"name":"Albota de Jos","countryCode":"RO","stateCode":"AG","latitude":44.76667,"longitude":24.83333},{"name":"Aleşd","countryCode":"RO","stateCode":"BH","latitude":47.06667,"longitude":22.41667},{"name":"Alexandria","countryCode":"RO","stateCode":"TR","latitude":43.98333,"longitude":25.33333},{"name":"Alexandru I. Cuza","countryCode":"RO","stateCode":"IS","latitude":47.13333,"longitude":26.85},{"name":"Alexandru Odobescu","countryCode":"RO","stateCode":"CL","latitude":44.26667,"longitude":27.08333},{"name":"Alexandru Vlăhuţă","countryCode":"RO","stateCode":"VS","latitude":46.41667,"longitude":27.63333},{"name":"Alexeni","countryCode":"RO","stateCode":"IL","latitude":44.68333,"longitude":26.7},{"name":"Aliman","countryCode":"RO","stateCode":"CT","latitude":44.18333,"longitude":27.85},{"name":"Alimănești","countryCode":"RO","stateCode":"OT","latitude":44.25693,"longitude":24.53895},{"name":"Alimpeşti","countryCode":"RO","stateCode":"GJ","latitude":45.08333,"longitude":23.8},{"name":"Alma","countryCode":"RO","stateCode":"SB","latitude":46.21359,"longitude":24.48037},{"name":"Almăj","countryCode":"RO","stateCode":"DJ","latitude":44.45,"longitude":23.71667},{"name":"Almaş","countryCode":"RO","stateCode":"AR","latitude":46.28333,"longitude":22.23333},{"name":"Almaşu","countryCode":"RO","stateCode":"SJ","latitude":46.94546,"longitude":23.12965},{"name":"Almaşu Mare","countryCode":"RO","stateCode":"AB","latitude":46.11014,"longitude":23.11721},{"name":"Alparea","countryCode":"RO","stateCode":"BH","latitude":47.03054,"longitude":22.04812},{"name":"Alțâna","countryCode":"RO","stateCode":"SB","latitude":45.93333,"longitude":24.46667},{"name":"Aluniş","countryCode":"RO","stateCode":"CJ","latitude":47.03333,"longitude":23.75},{"name":"Aluniş","countryCode":"RO","stateCode":"PH","latitude":45.2,"longitude":25.86667},{"name":"Aluniș","countryCode":"RO","stateCode":"MS","latitude":46.9,"longitude":24.82},{"name":"Alunișu","countryCode":"RO","stateCode":"IF","latitude":44.33883,"longitude":26.05837},{"name":"Alunișu","countryCode":"RO","stateCode":"OT","latitude":44.71667,"longitude":24.55},{"name":"Alunu","countryCode":"RO","stateCode":"VL","latitude":45.01667,"longitude":23.81667},{"name":"Amara","countryCode":"RO","stateCode":"BZ","latitude":45.24866,"longitude":27.29244},{"name":"Amara","countryCode":"RO","stateCode":"IL","latitude":44.61667,"longitude":27.31667},{"name":"Amărăşti","countryCode":"RO","stateCode":"VL","latitude":44.76667,"longitude":24.15},{"name":"Amărăştii de Jos","countryCode":"RO","stateCode":"DJ","latitude":43.95,"longitude":24.16667},{"name":"Amărăştii de Sus","countryCode":"RO","stateCode":"DJ","latitude":43.98333,"longitude":24.15},{"name":"Amaru","countryCode":"RO","stateCode":"BZ","latitude":44.93333,"longitude":26.58333},{"name":"Amzacea","countryCode":"RO","stateCode":"CT","latitude":43.95,"longitude":28.4},{"name":"Andrăşeşti","countryCode":"RO","stateCode":"IL","latitude":44.56667,"longitude":27.13333},{"name":"Andreești","countryCode":"RO","stateCode":"GJ","latitude":44.78948,"longitude":23.55099},{"name":"Andrei Șaguna","countryCode":"RO","stateCode":"AR","latitude":46.2881,"longitude":21.39175},{"name":"Andreiaşu de Jos","countryCode":"RO","stateCode":"VN","latitude":45.75,"longitude":26.83333},{"name":"Andreneasa","countryCode":"RO","stateCode":"MS","latitude":46.967843,"longitude":25.024235},{"name":"Andrid","countryCode":"RO","stateCode":"SM","latitude":47.51667,"longitude":22.35},{"name":"Andrieşeni","countryCode":"RO","stateCode":"IS","latitude":47.53333,"longitude":27.28333},{"name":"Anghelești","countryCode":"RO","stateCode":"VN","latitude":46.07875,"longitude":27.06459},{"name":"Angofa","countryCode":"RO","stateCode":"MS","latitude":46.186582,"longitude":24.78418},{"name":"Anieș","countryCode":"RO","stateCode":"BN","latitude":47.41347,"longitude":24.76853},{"name":"Anina","countryCode":"RO","stateCode":"CS","latitude":45.07944,"longitude":21.85694},{"name":"Aninoasa","countryCode":"RO","stateCode":"AG","latitude":45.18333,"longitude":24.93333},{"name":"Aninoasa","countryCode":"RO","stateCode":"DB","latitude":44.96667,"longitude":25.43333},{"name":"Aninoasa","countryCode":"RO","stateCode":"GJ","latitude":44.75,"longitude":23.48333},{"name":"Aninoasa","countryCode":"RO","stateCode":"HD","latitude":45.40924,"longitude":23.31505},{"name":"Apa","countryCode":"RO","stateCode":"SM","latitude":47.76667,"longitude":23.2},{"name":"Apa Asău","countryCode":"RO","stateCode":"BC","latitude":46.48747,"longitude":26.37888},{"name":"Apahida","countryCode":"RO","stateCode":"CJ","latitude":46.81667,"longitude":23.75},{"name":"Apalina","countryCode":"RO","stateCode":"MS","latitude":46.752313,"longitude":24.692755},{"name":"Apaţa","countryCode":"RO","stateCode":"BV","latitude":45.95,"longitude":25.51667},{"name":"Apateu","countryCode":"RO","stateCode":"AR","latitude":46.61667,"longitude":21.78333},{"name":"Apele Vii","countryCode":"RO","stateCode":"DJ","latitude":44.06667,"longitude":24.06667},{"name":"Apold","countryCode":"RO","stateCode":"MS","latitude":46.12777778,"longitude":24.81805556},{"name":"Apoldu de Jos","countryCode":"RO","stateCode":"SB","latitude":45.86667,"longitude":23.85},{"name":"Apostolache","countryCode":"RO","stateCode":"PH","latitude":45.13333,"longitude":26.26667},{"name":"Aprozi","countryCode":"RO","stateCode":"CL","latitude":44.26616,"longitude":26.50213},{"name":"Araci","countryCode":"RO","stateCode":"CV","latitude":45.81187,"longitude":25.65482},{"name":"Arad","countryCode":"RO","stateCode":"AR","latitude":46.18333,"longitude":21.31667},{"name":"Arbore","countryCode":"RO","stateCode":"SV","latitude":47.73333,"longitude":25.93333},{"name":"Arcani","countryCode":"RO","stateCode":"GJ","latitude":45.08333,"longitude":23.13333},{"name":"Archiş","countryCode":"RO","stateCode":"AR","latitude":46.48333,"longitude":22.05},{"name":"Archita","countryCode":"RO","stateCode":"MS","latitude":46.18194444,"longitude":25.0875},{"name":"Arcuș","countryCode":"RO","stateCode":"CV","latitude":45.90077,"longitude":25.77673},{"name":"Ardeoani","countryCode":"RO","stateCode":"BC","latitude":46.53333,"longitude":26.6},{"name":"Ardud","countryCode":"RO","stateCode":"SM","latitude":47.63333,"longitude":22.88333},{"name":"Ardusat","countryCode":"RO","stateCode":"MM","latitude":47.65,"longitude":23.36667},{"name":"Arduzel","countryCode":"RO","stateCode":"MM","latitude":47.448045,"longitude":23.266862},{"name":"Arefu","countryCode":"RO","stateCode":"AG","latitude":45.33333,"longitude":24.6},{"name":"Argel","countryCode":"RO","stateCode":"SV","latitude":47.76136,"longitude":25.47049},{"name":"Argeșelu","countryCode":"RO","stateCode":"AG","latitude":44.9274,"longitude":24.87115},{"name":"Argetoaia","countryCode":"RO","stateCode":"DJ","latitude":44.51667,"longitude":23.36667},{"name":"Arghira","countryCode":"RO","stateCode":"SV","latitude":47.45412,"longitude":26.4725},{"name":"Ariceștii Zeletin","countryCode":"RO","stateCode":"PH","latitude":45.22221,"longitude":26.17957},{"name":"Ariceştii-Rahtivani","countryCode":"RO","stateCode":"PH","latitude":44.95,"longitude":25.83333},{"name":"Arieşeni","countryCode":"RO","stateCode":"AB","latitude":46.47641,"longitude":22.75741},{"name":"Arieșu de Câmp","countryCode":"RO","stateCode":"MM","latitude":47.63977,"longitude":23.398726},{"name":"Arieșu de Pădure","countryCode":"RO","stateCode":"MM","latitude":47.586238,"longitude":23.479106},{"name":"Arini","countryCode":"RO","stateCode":"BC","latitude":46.35,"longitude":27.18333},{"name":"Ariniş","countryCode":"RO","stateCode":"MM","latitude":47.5,"longitude":23.23333},{"name":"Armăşeşti","countryCode":"RO","stateCode":"IL","latitude":44.75,"longitude":26.58333},{"name":"Armeniş","countryCode":"RO","stateCode":"CS","latitude":45.2,"longitude":22.31667},{"name":"Aroneanu","countryCode":"RO","stateCode":"IS","latitude":47.2,"longitude":27.6},{"name":"Arpaşu de Jos","countryCode":"RO","stateCode":"SB","latitude":45.78333,"longitude":24.61667},{"name":"Arpașu de Sus","countryCode":"RO","stateCode":"SB","latitude":45.73436,"longitude":24.61906},{"name":"Arșița","countryCode":"RO","stateCode":"MS","latitude":46.785874,"longitude":24.998585},{"name":"Arsura","countryCode":"RO","stateCode":"VS","latitude":46.81333,"longitude":28.02222},{"name":"Asău","countryCode":"RO","stateCode":"BC","latitude":46.43333,"longitude":26.4},{"name":"Aşchileu Dorna","countryCode":"RO","stateCode":"CJ","latitude":46.98333,"longitude":23.48333},{"name":"Aspra","countryCode":"RO","stateCode":"MM","latitude":47.45021,"longitude":23.638179},{"name":"Aştileu","countryCode":"RO","stateCode":"BH","latitude":47.03333,"longitude":22.38333},{"name":"Asuaju de Jos","countryCode":"RO","stateCode":"MM","latitude":47.540519,"longitude":23.222987},{"name":"Asuaju de Sus","countryCode":"RO","stateCode":"MM","latitude":47.56667,"longitude":23.18333},{"name":"Aţel","countryCode":"RO","stateCode":"SB","latitude":46.15,"longitude":24.46667},{"name":"Atid","countryCode":"RO","stateCode":"HR","latitude":46.45,"longitude":25.05},{"name":"Ațintiș","countryCode":"RO","stateCode":"MS","latitude":46.43,"longitude":24.1},{"name":"Augustin","countryCode":"RO","stateCode":"BV","latitude":46.04613,"longitude":25.55333},{"name":"Aurel Vlaicu","countryCode":"RO","stateCode":"MS","latitude":46.17787,"longitude":24.82072},{"name":"Auşeu","countryCode":"RO","stateCode":"BH","latitude":47.03333,"longitude":22.5},{"name":"Avram Iancu","countryCode":"RO","stateCode":"AB","latitude":46.38333,"longitude":22.78333},{"name":"Avram Iancu","countryCode":"RO","stateCode":"BH","latitude":46.66944,"longitude":21.52417},{"name":"Avrămeni","countryCode":"RO","stateCode":"BT","latitude":48.01667,"longitude":26.95},{"name":"Avrămeşti","countryCode":"RO","stateCode":"HR","latitude":46.33333,"longitude":25.01667},{"name":"Avrămești","countryCode":"RO","stateCode":"MS","latitude":46.536208,"longitude":24.099284},{"name":"Avrig","countryCode":"RO","stateCode":"SB","latitude":45.71667,"longitude":24.38333},{"name":"Axente Sever","countryCode":"RO","stateCode":"SB","latitude":46.1,"longitude":24.21667},{"name":"Axintele","countryCode":"RO","stateCode":"IL","latitude":44.6,"longitude":26.78333},{"name":"Azuga","countryCode":"RO","stateCode":"PH","latitude":45.45,"longitude":25.55},{"name":"Baba","countryCode":"RO","stateCode":"MM","latitude":47.340268,"longitude":23.745611},{"name":"Baba Ana","countryCode":"RO","stateCode":"PH","latitude":44.96667,"longitude":26.45},{"name":"Babadag","countryCode":"RO","stateCode":"TL","latitude":44.9,"longitude":28.71667},{"name":"Băbăiţa","countryCode":"RO","stateCode":"TR","latitude":44.16667,"longitude":25.38333},{"name":"Băbana","countryCode":"RO","stateCode":"AG","latitude":44.9,"longitude":24.7},{"name":"Băbeni","countryCode":"RO","stateCode":"BZ","latitude":45.44635,"longitude":26.97875},{"name":"Băbeni","countryCode":"RO","stateCode":"SJ","latitude":47.3,"longitude":23.4},{"name":"Băbeni","countryCode":"RO","stateCode":"VL","latitude":44.96667,"longitude":24.23333},{"name":"Băbeni-Oltețu","countryCode":"RO","stateCode":"VL","latitude":44.61404,"longitude":23.97798},{"name":"Babeţi","countryCode":"RO","stateCode":"BZ","latitude":45.31667,"longitude":26.38333},{"name":"Băbiciu","countryCode":"RO","stateCode":"OT","latitude":44.03333,"longitude":24.56667},{"name":"Babța","countryCode":"RO","stateCode":"SM","latitude":47.45778,"longitude":22.94283},{"name":"Băcălești","countryCode":"RO","stateCode":"TR","latitude":44.05997,"longitude":24.81636},{"name":"Băcani","countryCode":"RO","stateCode":"VS","latitude":46.33333,"longitude":27.66667},{"name":"Bacău","countryCode":"RO","stateCode":"BC","latitude":46.56718,"longitude":26.91384},{"name":"Bacea","countryCode":"RO","stateCode":"OT","latitude":44.39824,"longitude":24.63759},{"name":"Băceşti","countryCode":"RO","stateCode":"VS","latitude":46.85,"longitude":27.23333},{"name":"Băcia","countryCode":"RO","stateCode":"HD","latitude":45.8,"longitude":23.01667},{"name":"Băcioiu","countryCode":"RO","stateCode":"BC","latitude":46.31431,"longitude":27.15745},{"name":"Baciu","countryCode":"RO","stateCode":"CJ","latitude":46.8,"longitude":23.51667},{"name":"Baciu","countryCode":"RO","stateCode":"TR","latitude":44.33152,"longitude":25.44429},{"name":"Bâcleș","countryCode":"RO","stateCode":"MH","latitude":44.48333,"longitude":23.13333},{"name":"Bacova","countryCode":"RO","stateCode":"TM","latitude":45.6641,"longitude":21.55238},{"name":"Bâcu","countryCode":"RO","stateCode":"GR","latitude":44.48259,"longitude":25.88904},{"name":"Bădeana","countryCode":"RO","stateCode":"VS","latitude":46.15,"longitude":27.58333},{"name":"Bădeni","countryCode":"RO","stateCode":"DB","latitude":45.15272,"longitude":25.40263},{"name":"Bădeni","countryCode":"RO","stateCode":"IS","latitude":47.40581,"longitude":26.94898},{"name":"Bădești","countryCode":"RO","stateCode":"AG","latitude":45.17157,"longitude":24.86064},{"name":"Bădeuți","countryCode":"RO","stateCode":"SV","latitude":47.80277,"longitude":25.98387},{"name":"Bădoși","countryCode":"RO","stateCode":"DJ","latitude":44.14723,"longitude":23.88974},{"name":"Băduleasa","countryCode":"RO","stateCode":"TR","latitude":43.92286,"longitude":24.98274},{"name":"Băgaciu","countryCode":"RO","stateCode":"MS","latitude":46.27,"longitude":24.37},{"name":"Bahna","countryCode":"RO","stateCode":"NT","latitude":46.78333,"longitude":26.78333},{"name":"Bahnea","countryCode":"RO","stateCode":"MS","latitude":46.37,"longitude":24.48},{"name":"Baia","countryCode":"RO","stateCode":"SV","latitude":47.41667,"longitude":26.21667},{"name":"Baia","countryCode":"RO","stateCode":"TL","latitude":44.71667,"longitude":28.66667},{"name":"Baia de Aramă","countryCode":"RO","stateCode":"MH","latitude":44.99929,"longitude":22.80784},{"name":"Baia de Arieş","countryCode":"RO","stateCode":"AB","latitude":46.38045,"longitude":23.28115},{"name":"Baia de Criş","countryCode":"RO","stateCode":"HD","latitude":46.16667,"longitude":22.71667},{"name":"Baia de Fier","countryCode":"RO","stateCode":"GJ","latitude":45.16667,"longitude":23.76667},{"name":"Baia Mare","countryCode":"RO","stateCode":"MM","latitude":47.65729,"longitude":23.56808},{"name":"Baia Sprie","countryCode":"RO","stateCode":"MM","latitude":47.66189,"longitude":23.69215},{"name":"Băicoi","countryCode":"RO","stateCode":"PH","latitude":45.03333,"longitude":25.85},{"name":"Băiculeşti","countryCode":"RO","stateCode":"AG","latitude":45.06667,"longitude":24.7},{"name":"Băile Borșa","countryCode":"RO","stateCode":"MM","latitude":47.68416,"longitude":24.71391},{"name":"Băile Drânceni","countryCode":"RO","stateCode":"VS","latitude":46.81361,"longitude":28.10083},{"name":"Băile Govora","countryCode":"RO","stateCode":"VL","latitude":45.08333,"longitude":24.18333},{"name":"Băile Herculane","countryCode":"RO","stateCode":"CS","latitude":44.87972,"longitude":22.4125},{"name":"Băile Olăneşti","countryCode":"RO","stateCode":"VL","latitude":45.2,"longitude":24.23333},{"name":"Băile Tuşnad","countryCode":"RO","stateCode":"HR","latitude":46.15,"longitude":25.85},{"name":"Băileşti","countryCode":"RO","stateCode":"DJ","latitude":44.01667,"longitude":23.35},{"name":"Băișești","countryCode":"RO","stateCode":"SV","latitude":47.48024,"longitude":26.11115},{"name":"Băişoara","countryCode":"RO","stateCode":"CJ","latitude":46.58333,"longitude":23.46667},{"name":"Băiţa","countryCode":"RO","stateCode":"HD","latitude":46.03333,"longitude":22.9},{"name":"Băița","countryCode":"RO","stateCode":"MM","latitude":47.70614,"longitude":23.49326},{"name":"Băița","countryCode":"RO","stateCode":"MS","latitude":46.836352,"longitude":24.529997},{"name":"Băiţa de sub Codru","countryCode":"RO","stateCode":"MM","latitude":47.53333,"longitude":23.15},{"name":"Băiuţ","countryCode":"RO","stateCode":"MM","latitude":47.61667,"longitude":24},{"name":"Băjești","countryCode":"RO","stateCode":"AG","latitude":45.02615,"longitude":24.94006},{"name":"Bajura","countryCode":"RO","stateCode":"BT","latitude":48.20119,"longitude":26.53987},{"name":"Bala","countryCode":"RO","stateCode":"MH","latitude":44.88389,"longitude":22.83333},{"name":"Băla","countryCode":"RO","stateCode":"MS","latitude":46.72,"longitude":24.5},{"name":"Bălăbănești","countryCode":"RO","stateCode":"GL","latitude":46.09546,"longitude":27.72206},{"name":"Bălăceana","countryCode":"RO","stateCode":"SV","latitude":47.64338,"longitude":26.04764},{"name":"Bălăceanca","countryCode":"RO","stateCode":"IF","latitude":44.39249,"longitude":26.29009},{"name":"Bălăceanu","countryCode":"RO","stateCode":"BZ","latitude":45.26667,"longitude":27.15},{"name":"Balaci","countryCode":"RO","stateCode":"TR","latitude":44.35,"longitude":24.91667},{"name":"Bălăciţa","countryCode":"RO","stateCode":"MH","latitude":44.38333,"longitude":23.13333},{"name":"Balaciu","countryCode":"RO","stateCode":"IL","latitude":44.63333,"longitude":26.88333},{"name":"Bălan","countryCode":"RO","stateCode":"HR","latitude":46.6505,"longitude":25.80834},{"name":"Bălan","countryCode":"RO","stateCode":"SJ","latitude":47.15599,"longitude":23.31213},{"name":"Bălănești","countryCode":"RO","stateCode":"OT","latitude":44.2497,"longitude":24.48216},{"name":"Bălăşeşti","countryCode":"RO","stateCode":"GL","latitude":46.1,"longitude":27.66667},{"name":"Bălăușeri","countryCode":"RO","stateCode":"MS","latitude":46.4,"longitude":24.68333333},{"name":"Balc","countryCode":"RO","stateCode":"BH","latitude":47.28333,"longitude":22.53333},{"name":"Bălcaciu","countryCode":"RO","stateCode":"AB","latitude":46.19122,"longitude":24.06139},{"name":"Balcani","countryCode":"RO","stateCode":"BC","latitude":46.63333,"longitude":26.55},{"name":"Bălcăuţi","countryCode":"RO","stateCode":"SV","latitude":47.89149,"longitude":26.07279},{"name":"Bălceşti","countryCode":"RO","stateCode":"VL","latitude":44.61667,"longitude":23.95},{"name":"Bălcești","countryCode":"RO","stateCode":"GJ","latitude":45.10516,"longitude":23.6329},{"name":"Balda","countryCode":"RO","stateCode":"MS","latitude":46.733528,"longitude":24.143616},{"name":"Bâldana","countryCode":"RO","stateCode":"DB","latitude":44.603,"longitude":25.77836},{"name":"Baldovineşti","countryCode":"RO","stateCode":"OT","latitude":44.38333,"longitude":24.05},{"name":"Baldovinești","countryCode":"RO","stateCode":"BR","latitude":45.32182,"longitude":27.91107},{"name":"Băleni","countryCode":"RO","stateCode":"GL","latitude":45.81667,"longitude":27.83333},{"name":"Băleni Sârbi","countryCode":"RO","stateCode":"DB","latitude":44.81667,"longitude":25.63333},{"name":"Băleşti","countryCode":"RO","stateCode":"GJ","latitude":45.01667,"longitude":23.21667},{"name":"Băleşti","countryCode":"RO","stateCode":"VN","latitude":45.43333,"longitude":27.23333},{"name":"Bălileşti","countryCode":"RO","stateCode":"AG","latitude":45.06667,"longitude":24.93333},{"name":"Balinţ","countryCode":"RO","stateCode":"TM","latitude":45.8125,"longitude":21.85361},{"name":"Balintești","countryCode":"RO","stateCode":"GL","latitude":46.02937,"longitude":27.92201},{"name":"Bălnaca","countryCode":"RO","stateCode":"BH","latitude":46.94384,"longitude":22.57206},{"name":"Baloteşti","countryCode":"RO","stateCode":"IF","latitude":44.61667,"longitude":26.11667},{"name":"Balş","countryCode":"RO","stateCode":"OT","latitude":44.35,"longitude":24.1},{"name":"Balș","countryCode":"RO","stateCode":"IS","latitude":47.29628,"longitude":26.97856},{"name":"Balşa","countryCode":"RO","stateCode":"HD","latitude":46.03333,"longitude":23.11667},{"name":"Balta","countryCode":"RO","stateCode":"MH","latitude":44.88694,"longitude":22.63694},{"name":"Bâlta","countryCode":"RO","stateCode":"DJ","latitude":44.53564,"longitude":23.47019},{"name":"Bâlta","countryCode":"RO","stateCode":"GJ","latitude":45.11791,"longitude":23.1022},{"name":"Balta Albă","countryCode":"RO","stateCode":"BZ","latitude":45.30423,"longitude":27.28557},{"name":"Balta Doamnei","countryCode":"RO","stateCode":"PH","latitude":44.75,"longitude":26.16667},{"name":"Balta Verde","countryCode":"RO","stateCode":"MH","latitude":44.34411,"longitude":22.59878},{"name":"Bălţăteşti","countryCode":"RO","stateCode":"NT","latitude":47.11667,"longitude":26.3},{"name":"Bălţaţi","countryCode":"RO","stateCode":"IS","latitude":47.21667,"longitude":27.15},{"name":"Bălteni","countryCode":"RO","stateCode":"DB","latitude":44.66488,"longitude":25.69339},{"name":"Bălteni","countryCode":"RO","stateCode":"OT","latitude":44.44883,"longitude":24.53247},{"name":"Bălteni","countryCode":"RO","stateCode":"VS","latitude":46.66667,"longitude":27.61667},{"name":"Bâlteni","countryCode":"RO","stateCode":"GJ","latitude":44.86919,"longitude":23.27311},{"name":"Bălțești","countryCode":"RO","stateCode":"PH","latitude":45.10965,"longitude":26.12937},{"name":"Băluşeni","countryCode":"RO","stateCode":"BT","latitude":47.66667,"longitude":26.8},{"name":"Bălușești","countryCode":"RO","stateCode":"NT","latitude":46.81591,"longitude":26.99885},{"name":"Bâlvăneşti","countryCode":"RO","stateCode":"MH","latitude":44.7975,"longitude":22.68028},{"name":"Banca","countryCode":"RO","stateCode":"VS","latitude":46.3,"longitude":27.8},{"name":"Bancu","countryCode":"RO","stateCode":"HR","latitude":46.30291,"longitude":25.94422},{"name":"Band","countryCode":"RO","stateCode":"MS","latitude":46.58333333,"longitude":24.38333333},{"name":"Băneasa","countryCode":"RO","stateCode":"CT","latitude":44.06667,"longitude":27.7},{"name":"Băneasa","countryCode":"RO","stateCode":"GL","latitude":45.93333,"longitude":27.93333},{"name":"Băneasa","countryCode":"RO","stateCode":"GR","latitude":44.04611,"longitude":26.06417},{"name":"Băneasa","countryCode":"RO","stateCode":"TR","latitude":43.93975,"longitude":24.94997},{"name":"Băneşti","countryCode":"RO","stateCode":"PH","latitude":45.1,"longitude":25.76667},{"name":"Bănești","countryCode":"RO","stateCode":"SV","latitude":47.58946,"longitude":26.52335},{"name":"Bănia","countryCode":"RO","stateCode":"CS","latitude":44.89583,"longitude":22.04472},{"name":"Bănişor","countryCode":"RO","stateCode":"SJ","latitude":47.10431,"longitude":22.83731},{"name":"Băniţa","countryCode":"RO","stateCode":"HD","latitude":45.45,"longitude":23.26667},{"name":"Banloc","countryCode":"RO","stateCode":"TM","latitude":45.38742,"longitude":21.13581},{"name":"Bara","countryCode":"RO","stateCode":"TM","latitude":45.89472,"longitude":21.87194},{"name":"Bâra","countryCode":"RO","stateCode":"MS","latitude":46.572213,"longitude":24.87262},{"name":"Bâra","countryCode":"RO","stateCode":"NT","latitude":47.03333,"longitude":27.05},{"name":"Bărăbanț","countryCode":"RO","stateCode":"AB","latitude":46.0993,"longitude":23.58487},{"name":"Bărăganu","countryCode":"RO","stateCode":"CT","latitude":44.08939,"longitude":28.4198},{"name":"Bărăganul","countryCode":"RO","stateCode":"BR","latitude":44.8,"longitude":27.51667},{"name":"Baranca","countryCode":"RO","stateCode":"BT","latitude":48.19651,"longitude":26.47893},{"name":"Baraolt","countryCode":"RO","stateCode":"CV","latitude":46.07514,"longitude":25.60029},{"name":"Bărăști","countryCode":"RO","stateCode":"AG","latitude":45.25369,"longitude":24.59651},{"name":"Bărăștii de Vede","countryCode":"RO","stateCode":"OT","latitude":44.71601,"longitude":24.65919},{"name":"Barați","countryCode":"RO","stateCode":"BC","latitude":46.57569,"longitude":26.87118},{"name":"Bărbăteşti","countryCode":"RO","stateCode":"GJ","latitude":44.86667,"longitude":23.5},{"name":"Bărbăteşti","countryCode":"RO","stateCode":"VL","latitude":45.18333,"longitude":24.11667},{"name":"Bărboși","countryCode":"RO","stateCode":"MS","latitude":46.580872,"longitude":24.181935},{"name":"Bărbulești","countryCode":"RO","stateCode":"IL","latitude":44.72629,"longitude":26.59929},{"name":"Bărbuleţu","countryCode":"RO","stateCode":"DB","latitude":45.13333,"longitude":25.3},{"name":"Bârca","countryCode":"RO","stateCode":"DJ","latitude":43.96667,"longitude":23.61667},{"name":"Bărcăneşti","countryCode":"RO","stateCode":"IL","latitude":44.63333,"longitude":26.65},{"name":"Bărcăneşti","countryCode":"RO","stateCode":"NT","latitude":46.71667,"longitude":26.58333},{"name":"Bărcăneşti","countryCode":"RO","stateCode":"PH","latitude":44.88333,"longitude":26.05},{"name":"Barcani","countryCode":"RO","stateCode":"CV","latitude":45.7,"longitude":26.08333},{"name":"Barcea","countryCode":"RO","stateCode":"GL","latitude":45.75,"longitude":27.46667},{"name":"Bărdești","countryCode":"RO","stateCode":"MS","latitude":46.594513,"longitude":24.513094},{"name":"Bârgău","countryCode":"RO","stateCode":"MM","latitude":47.683438,"longitude":23.399712},{"name":"Bârgăuani","countryCode":"RO","stateCode":"NT","latitude":46.98333,"longitude":26.63333},{"name":"Bârghiş","countryCode":"RO","stateCode":"SB","latitude":45.98333,"longitude":24.53333},{"name":"Bârla","countryCode":"RO","stateCode":"AG","latitude":44.42606,"longitude":24.77743},{"name":"Bârlad","countryCode":"RO","stateCode":"VS","latitude":46.23175,"longitude":27.66907},{"name":"Bârlibaș","countryCode":"RO","stateCode":"MS","latitude":46.688965,"longitude":24.245494},{"name":"Bârlibășoaia","countryCode":"RO","stateCode":"MS","latitude":46.293365,"longitude":24.834955},{"name":"Bârlogu","countryCode":"RO","stateCode":"AG","latitude":44.62658,"longitude":25.08066},{"name":"Bârna","countryCode":"RO","stateCode":"TM","latitude":45.71667,"longitude":22.05},{"name":"Bârnova","countryCode":"RO","stateCode":"IS","latitude":47.06667,"longitude":27.61667},{"name":"Bârsa","countryCode":"RO","stateCode":"AR","latitude":46.38333,"longitude":22.06667},{"name":"Bârsana","countryCode":"RO","stateCode":"MM","latitude":47.81667,"longitude":24.06667},{"name":"Bârsăneşti","countryCode":"RO","stateCode":"BC","latitude":46.33333,"longitude":26.7},{"name":"Bârsău de Sus","countryCode":"RO","stateCode":"SM","latitude":47.6,"longitude":23.21667},{"name":"Bârseşti","countryCode":"RO","stateCode":"VN","latitude":45.91667,"longitude":26.73333},{"name":"Barticești","countryCode":"RO","stateCode":"NT","latitude":47.06324,"longitude":26.79254},{"name":"Baru","countryCode":"RO","stateCode":"HD","latitude":45.47218,"longitude":23.16271},{"name":"Baru Mic","countryCode":"RO","stateCode":"HD","latitude":45.46667,"longitude":23.15},{"name":"Barza","countryCode":"RO","stateCode":"HD","latitude":46.1199,"longitude":22.85695},{"name":"Barza","countryCode":"RO","stateCode":"OT","latitude":44.33333,"longitude":24.78333},{"name":"Bârza","countryCode":"RO","stateCode":"MS","latitude":46.55,"longitude":24.13333},{"name":"Bârzava","countryCode":"RO","stateCode":"AR","latitude":46.11667,"longitude":21.98333},{"name":"Bârzești","countryCode":"RO","stateCode":"VS","latitude":46.75,"longitude":27.55},{"name":"Basarabi","countryCode":"RO","stateCode":"DJ","latitude":44.00561,"longitude":23.00915},{"name":"Basarabi","countryCode":"RO","stateCode":"SV","latitude":47.4537,"longitude":26.43972},{"name":"Bâsca Chiojdului","countryCode":"RO","stateCode":"BZ","latitude":45.3712,"longitude":26.18355},{"name":"Bâsca Rozilei","countryCode":"RO","stateCode":"BZ","latitude":45.45387,"longitude":26.33714},{"name":"Bâscenii de Jos","countryCode":"RO","stateCode":"BZ","latitude":45.24708,"longitude":26.32122},{"name":"Bâscenii de Sus","countryCode":"RO","stateCode":"BZ","latitude":45.26662,"longitude":26.27073},{"name":"Başcov","countryCode":"RO","stateCode":"AG","latitude":44.9,"longitude":24.81667},{"name":"Bâscoveni","countryCode":"RO","stateCode":"TR","latitude":44.24444,"longitude":25.35998},{"name":"Băseşti","countryCode":"RO","stateCode":"MM","latitude":47.48333,"longitude":23.15},{"name":"Bata","countryCode":"RO","stateCode":"AR","latitude":46.01667,"longitude":22.03333},{"name":"Băţanii Mari","countryCode":"RO","stateCode":"CV","latitude":46.08333,"longitude":25.68333},{"name":"Batăr","countryCode":"RO","stateCode":"BH","latitude":46.7,"longitude":21.81667},{"name":"Batârăşti","countryCode":"RO","stateCode":"VL","latitude":44.81667,"longitude":24.15},{"name":"Bătarci","countryCode":"RO","stateCode":"SM","latitude":48.03333,"longitude":23.16667},{"name":"Bătești","countryCode":"RO","stateCode":"PH","latitude":44.8483,"longitude":26.04031},{"name":"Batoș","countryCode":"RO","stateCode":"MS","latitude":46.88611111,"longitude":24.65555556},{"name":"Bătrâna","countryCode":"RO","stateCode":"HD","latitude":45.78333,"longitude":22.58333},{"name":"Bătrâni","countryCode":"RO","stateCode":"PH","latitude":45.31425,"longitude":26.15091},{"name":"Băuţar","countryCode":"RO","stateCode":"CS","latitude":45.51667,"longitude":22.56667},{"name":"Bazna","countryCode":"RO","stateCode":"SB","latitude":46.2,"longitude":24.28333},{"name":"Beba Veche","countryCode":"RO","stateCode":"TM","latitude":46.13333,"longitude":20.31667},{"name":"Beceni","countryCode":"RO","stateCode":"BZ","latitude":45.38333,"longitude":26.78333},{"name":"Bechet","countryCode":"RO","stateCode":"DJ","latitude":43.78188,"longitude":23.95706},{"name":"Becicherecu Mic","countryCode":"RO","stateCode":"TM","latitude":45.82917,"longitude":21.05139},{"name":"Beciu","countryCode":"RO","stateCode":"TR","latitude":44.00429,"longitude":24.66571},{"name":"Beclean","countryCode":"RO","stateCode":"BN","latitude":47.18333,"longitude":24.18333},{"name":"Beclean","countryCode":"RO","stateCode":"BV","latitude":45.83119,"longitude":24.9218},{"name":"Bedeni","countryCode":"RO","stateCode":"MS","latitude":46.467606,"longitude":24.783374},{"name":"Beica de Jos","countryCode":"RO","stateCode":"MS","latitude":46.73423,"longitude":24.79671},{"name":"Beica de Sus","countryCode":"RO","stateCode":"MS","latitude":46.737954,"longitude":24.822701},{"name":"Beidaud","countryCode":"RO","stateCode":"TL","latitude":44.71667,"longitude":28.56667},{"name":"Beiu","countryCode":"RO","stateCode":"TR","latitude":43.87352,"longitude":25.45548},{"name":"Beiuş","countryCode":"RO","stateCode":"BH","latitude":46.66667,"longitude":22.35},{"name":"Belceşti","countryCode":"RO","stateCode":"IS","latitude":47.3,"longitude":27.08333},{"name":"Belciugatele","countryCode":"RO","stateCode":"CL","latitude":44.48333,"longitude":26.43333},{"name":"Beleţi","countryCode":"RO","stateCode":"AG","latitude":44.9,"longitude":25.08333},{"name":"Belin","countryCode":"RO","stateCode":"CV","latitude":45.93333,"longitude":25.56667},{"name":"Belin-Vale","countryCode":"RO","stateCode":"CV","latitude":45.93237,"longitude":25.60878},{"name":"Belinţ","countryCode":"RO","stateCode":"TM","latitude":45.755,"longitude":21.76028},{"name":"Beliş","countryCode":"RO","stateCode":"CJ","latitude":46.65,"longitude":23.03333},{"name":"Beliu","countryCode":"RO","stateCode":"AR","latitude":46.48333,"longitude":21.98333},{"name":"Beltiug","countryCode":"RO","stateCode":"SM","latitude":47.55,"longitude":22.85},{"name":"Benesat","countryCode":"RO","stateCode":"SJ","latitude":47.41049,"longitude":23.28904},{"name":"Bengești","countryCode":"RO","stateCode":"GJ","latitude":45.06667,"longitude":23.6},{"name":"Berbeşti","countryCode":"RO","stateCode":"VL","latitude":44.98333,"longitude":23.88333},{"name":"Berbești","countryCode":"RO","stateCode":"MM","latitude":47.84865,"longitude":23.93448},{"name":"Berca","countryCode":"RO","stateCode":"BZ","latitude":45.28333,"longitude":26.68333},{"name":"Berceni","countryCode":"RO","stateCode":"IF","latitude":44.31417,"longitude":26.18556},{"name":"Berceni","countryCode":"RO","stateCode":"PH","latitude":44.93333,"longitude":26.11667},{"name":"Berchez","countryCode":"RO","stateCode":"MM","latitude":47.518924,"longitude":23.505693},{"name":"Berchișești","countryCode":"RO","stateCode":"SV","latitude":47.52306,"longitude":26.03207},{"name":"Beregsău Mare","countryCode":"RO","stateCode":"TM","latitude":45.75921,"longitude":21.02666},{"name":"Bereni","countryCode":"RO","stateCode":"MS","latitude":46.55,"longitude":24.86666667},{"name":"Berești","countryCode":"RO","stateCode":"BC","latitude":46.20329,"longitude":27.14476},{"name":"Berești","countryCode":"RO","stateCode":"GL","latitude":46.1,"longitude":27.88333},{"name":"Bereşti-Bistriţa","countryCode":"RO","stateCode":"BC","latitude":46.71667,"longitude":26.83333},{"name":"Bereşti-Sat","countryCode":"RO","stateCode":"GL","latitude":46.1,"longitude":27.88333},{"name":"Bereşti-Tazlău","countryCode":"RO","stateCode":"BC","latitude":46.46667,"longitude":26.66667},{"name":"Berevoeşti","countryCode":"RO","stateCode":"AG","latitude":45.23333,"longitude":24.91667},{"name":"Berezeni","countryCode":"RO","stateCode":"VS","latitude":46.37611,"longitude":28.14778},{"name":"Berghia","countryCode":"RO","stateCode":"MS","latitude":46.539646,"longitude":24.429614},{"name":"Berghin","countryCode":"RO","stateCode":"AB","latitude":46.07782,"longitude":23.73742},{"name":"Berința","countryCode":"RO","stateCode":"MM","latitude":47.540669,"longitude":23.676929},{"name":"Berislăveşti","countryCode":"RO","stateCode":"VL","latitude":45.25,"longitude":24.41667},{"name":"Beriu","countryCode":"RO","stateCode":"HD","latitude":45.78333,"longitude":23.18333},{"name":"Berleşti","countryCode":"RO","stateCode":"GJ","latitude":44.91667,"longitude":23.66667},{"name":"Berlişte","countryCode":"RO","stateCode":"CS","latitude":44.98667,"longitude":21.46306},{"name":"Bernadea","countryCode":"RO","stateCode":"MS","latitude":46.374068,"longitude":24.458466},{"name":"Bertea","countryCode":"RO","stateCode":"PH","latitude":45.23333,"longitude":25.86667},{"name":"Berteştii de Jos","countryCode":"RO","stateCode":"BR","latitude":44.83333,"longitude":27.75},{"name":"Berveni","countryCode":"RO","stateCode":"SM","latitude":47.75,"longitude":22.46667},{"name":"Berzasca","countryCode":"RO","stateCode":"CS","latitude":44.64712,"longitude":21.95428},{"name":"Berzovia","countryCode":"RO","stateCode":"CS","latitude":45.42611,"longitude":21.62806},{"name":"Berzunţi","countryCode":"RO","stateCode":"BC","latitude":46.4,"longitude":26.63333},{"name":"Beștepe","countryCode":"RO","stateCode":"TL","latitude":45.09241,"longitude":29.01478},{"name":"Bethausen","countryCode":"RO","stateCode":"TM","latitude":45.83306,"longitude":21.95278},{"name":"Beu","countryCode":"RO","stateCode":"MS","latitude":46.57393,"longitude":24.719424},{"name":"Beuca","countryCode":"RO","stateCode":"TR","latitude":44.252,"longitude":24.96637},{"name":"Bezdead","countryCode":"RO","stateCode":"DB","latitude":45.15,"longitude":25.51667},{"name":"Bezid","countryCode":"RO","stateCode":"MS","latitude":46.406393,"longitude":24.922384},{"name":"Beznea","countryCode":"RO","stateCode":"BH","latitude":46.95967,"longitude":22.61954},{"name":"Bicașu","countryCode":"RO","stateCode":"MS","latitude":46.810662,"longitude":24.956087},{"name":"Bicaz","countryCode":"RO","stateCode":"MM","latitude":47.46667,"longitude":23.03333},{"name":"Bicaz","countryCode":"RO","stateCode":"NT","latitude":46.91667,"longitude":26.06667},{"name":"Bicaz-Chei","countryCode":"RO","stateCode":"NT","latitude":46.81667,"longitude":25.88333},{"name":"Bicazu Ardelean","countryCode":"RO","stateCode":"NT","latitude":46.85,"longitude":25.93333},{"name":"Bichigiu","countryCode":"RO","stateCode":"BN","latitude":47.42522,"longitude":24.33893},{"name":"Bichiș","countryCode":"RO","stateCode":"MS","latitude":46.36666667,"longitude":24.1},{"name":"Biertan","countryCode":"RO","stateCode":"SB","latitude":46.13333,"longitude":24.51667},{"name":"Biharia","countryCode":"RO","stateCode":"BH","latitude":47.15,"longitude":21.91667},{"name":"Biia","countryCode":"RO","stateCode":"AB","latitude":46.23097,"longitude":24.00461},{"name":"Bijghir","countryCode":"RO","stateCode":"BC","latitude":46.60185,"longitude":27.01859},{"name":"Bilbor","countryCode":"RO","stateCode":"HR","latitude":47.05,"longitude":25.51667},{"name":"Bilca","countryCode":"RO","stateCode":"SV","latitude":47.91667,"longitude":25.75},{"name":"Bilciureşti","countryCode":"RO","stateCode":"DB","latitude":44.73333,"longitude":25.8},{"name":"Biled","countryCode":"RO","stateCode":"TM","latitude":45.88639,"longitude":20.95889},{"name":"Biliești","countryCode":"RO","stateCode":"VN","latitude":45.72106,"longitude":27.34879},{"name":"Birchiş","countryCode":"RO","stateCode":"AR","latitude":45.96667,"longitude":22.16667},{"name":"Bircii","countryCode":"RO","stateCode":"OT","latitude":44.51673,"longitude":24.60324},{"name":"Birda","countryCode":"RO","stateCode":"TM","latitude":45.42996,"longitude":21.34359},{"name":"Bisoca","countryCode":"RO","stateCode":"BZ","latitude":45.53333,"longitude":26.7},{"name":"Bistra","countryCode":"RO","stateCode":"AB","latitude":46.3782,"longitude":23.10081},{"name":"Bistra","countryCode":"RO","stateCode":"BH","latitude":47.25478,"longitude":22.42295},{"name":"Bistra","countryCode":"RO","stateCode":"MM","latitude":47.86667,"longitude":24.2},{"name":"Bistra Mureșului","countryCode":"RO","stateCode":"MS","latitude":46.960932,"longitude":24.905059},{"name":"Bistreț","countryCode":"RO","stateCode":"DJ","latitude":43.9,"longitude":23.5},{"name":"Bistriţa","countryCode":"RO","stateCode":"BN","latitude":47.13316,"longitude":24.50011},{"name":"Bistrița","countryCode":"RO","stateCode":"MH","latitude":44.58511,"longitude":22.78762},{"name":"Bistrița","countryCode":"RO","stateCode":"NT","latitude":46.94856,"longitude":26.29598},{"name":"Bistrița","countryCode":"RO","stateCode":"VL","latitude":45.18612,"longitude":24.0401},{"name":"Bistriţa Bârgăului","countryCode":"RO","stateCode":"BN","latitude":47.21667,"longitude":24.76667},{"name":"Bivolari","countryCode":"RO","stateCode":"IS","latitude":47.53333,"longitude":27.43333},{"name":"Bivolărie","countryCode":"RO","stateCode":"SV","latitude":47.91464,"longitude":25.65525},{"name":"Bixad","countryCode":"RO","stateCode":"CV","latitude":46.1,"longitude":25.86667},{"name":"Bixad","countryCode":"RO","stateCode":"SM","latitude":47.93333,"longitude":23.4},{"name":"Blăgeşti","countryCode":"RO","stateCode":"BC","latitude":46.68333,"longitude":26.65},{"name":"Blăgeşti","countryCode":"RO","stateCode":"VS","latitude":46.13722,"longitude":28.01306},{"name":"Blaj","countryCode":"RO","stateCode":"AB","latitude":46.17508,"longitude":23.91578},{"name":"Blăjani","countryCode":"RO","stateCode":"BZ","latitude":45.31667,"longitude":26.81667},{"name":"Blăjel","countryCode":"RO","stateCode":"SB","latitude":46.21667,"longitude":24.31667},{"name":"Blăjeni","countryCode":"RO","stateCode":"HD","latitude":46.23333,"longitude":22.9},{"name":"Blândeşti","countryCode":"RO","stateCode":"BT","latitude":47.7,"longitude":26.86667},{"name":"Blândiana","countryCode":"RO","stateCode":"AB","latitude":45.97943,"longitude":23.38543},{"name":"Blânzi","countryCode":"RO","stateCode":"GL","latitude":45.93575,"longitude":27.65063},{"name":"Blejeşti","countryCode":"RO","stateCode":"TR","latitude":44.3,"longitude":25.46667},{"name":"Blejoi","countryCode":"RO","stateCode":"PH","latitude":45,"longitude":26.01667},{"name":"Blidari","countryCode":"RO","stateCode":"MM","latitude":47.7797,"longitude":23.613704},{"name":"Blideşti","countryCode":"RO","stateCode":"AB","latitude":46.3,"longitude":23.13333},{"name":"Blidireasa","countryCode":"RO","stateCode":"MS","latitude":46.763944,"longitude":25.030651},{"name":"Bobâlna","countryCode":"RO","stateCode":"CJ","latitude":47.14385,"longitude":23.64461},{"name":"Bobiceşti","countryCode":"RO","stateCode":"OT","latitude":44.38333,"longitude":24.15},{"name":"Boboc","countryCode":"RO","stateCode":"BZ","latitude":45.1957,"longitude":26.98136},{"name":"Bobohalma","countryCode":"RO","stateCode":"MS","latitude":46.351422,"longitude":24.23505},{"name":"Boboiești","countryCode":"RO","stateCode":"NT","latitude":47.2537,"longitude":26.03749},{"name":"Bobolia","countryCode":"RO","stateCode":"PH","latitude":45.09395,"longitude":25.74259},{"name":"Bobota","countryCode":"RO","stateCode":"SJ","latitude":47.38333,"longitude":22.76667},{"name":"Bobulești","countryCode":"RO","stateCode":"BT","latitude":47.75135,"longitude":27.22697},{"name":"Bocicoel","countryCode":"RO","stateCode":"MM","latitude":47.69861111,"longitude":24.31916667},{"name":"Bocicoiu Mare","countryCode":"RO","stateCode":"MM","latitude":47.96667,"longitude":24},{"name":"Bocşa","countryCode":"RO","stateCode":"CS","latitude":45.37333,"longitude":21.70917},{"name":"Bocşa","countryCode":"RO","stateCode":"SJ","latitude":47.2939,"longitude":22.91405},{"name":"Bocsig","countryCode":"RO","stateCode":"AR","latitude":46.41667,"longitude":21.95},{"name":"Bod","countryCode":"RO","stateCode":"BV","latitude":45.76667,"longitude":25.65},{"name":"Bodeşti","countryCode":"RO","stateCode":"NT","latitude":47.03333,"longitude":26.41667},{"name":"Bodești","countryCode":"RO","stateCode":"VL","latitude":45.14167,"longitude":24.11549},{"name":"Bodeștii de Jos","countryCode":"RO","stateCode":"NT","latitude":47.02752,"longitude":26.44483},{"name":"Bodoc","countryCode":"RO","stateCode":"CV","latitude":45.95,"longitude":25.85},{"name":"Bogata","countryCode":"RO","stateCode":"MS","latitude":46.456408,"longitude":24.119617},{"name":"Bogata","countryCode":"RO","stateCode":"SV","latitude":47.40789,"longitude":26.18655},{"name":"Bogaţi","countryCode":"RO","stateCode":"AG","latitude":44.86667,"longitude":25.13333},{"name":"Bogda","countryCode":"RO","stateCode":"TM","latitude":45.97833,"longitude":21.5725},{"name":"Bogdan Vodă","countryCode":"RO","stateCode":"MM","latitude":47.69197,"longitude":24.26605},{"name":"Bogdana","countryCode":"RO","stateCode":"TR","latitude":43.93333,"longitude":25.08333},{"name":"Bogdana","countryCode":"RO","stateCode":"VS","latitude":46.52668,"longitude":27.63278},{"name":"Bogdand","countryCode":"RO","stateCode":"SM","latitude":47.41667,"longitude":22.93333},{"name":"Bogdăneşti","countryCode":"RO","stateCode":"BC","latitude":46.21667,"longitude":26.68333},{"name":"Bogdăneşti","countryCode":"RO","stateCode":"CJ","latitude":46.63333,"longitude":23.13333},{"name":"Bogdăneşti","countryCode":"RO","stateCode":"SV","latitude":47.36667,"longitude":26.28333},{"name":"Bogdănești","countryCode":"RO","stateCode":"VS","latitude":46.44965,"longitude":27.72679},{"name":"Bogdăniţa","countryCode":"RO","stateCode":"VS","latitude":46.45,"longitude":27.68333},{"name":"Bogei","countryCode":"RO","stateCode":"BH","latitude":47.2655,"longitude":22.36079},{"name":"Bogheşti","countryCode":"RO","stateCode":"VN","latitude":46.16667,"longitude":27.4},{"name":"Boghicea","countryCode":"RO","stateCode":"NT","latitude":47.05414,"longitude":27.06935},{"name":"Boghiș","countryCode":"RO","stateCode":"SJ","latitude":47.15512,"longitude":22.7388},{"name":"Bogza","countryCode":"RO","stateCode":"VN","latitude":45.50798,"longitude":27.19773},{"name":"Bohotin","countryCode":"RO","stateCode":"IS","latitude":46.93914,"longitude":27.97782},{"name":"Boian","countryCode":"RO","stateCode":"SB","latitude":46.20159,"longitude":24.22862},{"name":"Boianu Mare","countryCode":"RO","stateCode":"BH","latitude":47.38333,"longitude":22.53333},{"name":"Boiereni","countryCode":"RO","stateCode":"MM","latitude":47.388859,"longitude":23.930483},{"name":"Boinești","countryCode":"RO","stateCode":"SM","latitude":47.91567,"longitude":23.35117},{"name":"Boişoara","countryCode":"RO","stateCode":"VL","latitude":45.43333,"longitude":24.38333},{"name":"Boița","countryCode":"RO","stateCode":"SB","latitude":45.63454,"longitude":24.26037},{"name":"Boiu","countryCode":"RO","stateCode":"MS","latitude":46.265703,"longitude":24.874823},{"name":"Boiu Mare","countryCode":"RO","stateCode":"MM","latitude":47.4,"longitude":23.58333},{"name":"Bolătău","countryCode":"RO","stateCode":"BC","latitude":46.63345,"longitude":26.40149},{"name":"Bolboşi","countryCode":"RO","stateCode":"GJ","latitude":44.75,"longitude":23.21667},{"name":"Boldeşti","countryCode":"RO","stateCode":"PH","latitude":44.86597,"longitude":26.54906},{"name":"Boldeşti-Scăeni","countryCode":"RO","stateCode":"PH","latitude":45.03333,"longitude":26.03333},{"name":"Boldu","countryCode":"RO","stateCode":"BZ","latitude":45.33333,"longitude":27.23333},{"name":"Boldur","countryCode":"RO","stateCode":"TM","latitude":45.69417,"longitude":21.77667},{"name":"Bolintin Deal","countryCode":"RO","stateCode":"GR","latitude":44.45917,"longitude":25.82111},{"name":"Bolintin Vale","countryCode":"RO","stateCode":"GR","latitude":44.44889,"longitude":25.75778},{"name":"Bolintineni","countryCode":"RO","stateCode":"MS","latitude":46.492457,"longitude":24.713093},{"name":"Bologaia","countryCode":"RO","stateCode":"MS","latitude":46.636856,"longitude":24.258768},{"name":"Boloteşti","countryCode":"RO","stateCode":"VN","latitude":45.83333,"longitude":27.06667},{"name":"Bolovăniș","countryCode":"RO","stateCode":"BC","latitude":46.61633,"longitude":26.05263},{"name":"Bolvașnița","countryCode":"RO","stateCode":"CS","latitude":45.34558,"longitude":22.31012},{"name":"Bontăieni","countryCode":"RO","stateCode":"MM","latitude":47.612215,"longitude":23.7216},{"name":"Bonțida","countryCode":"RO","stateCode":"CJ","latitude":46.9155,"longitude":23.81475},{"name":"Borănești","countryCode":"RO","stateCode":"IL","latitude":44.66069,"longitude":26.60505},{"name":"Borăscu","countryCode":"RO","stateCode":"GJ","latitude":44.7,"longitude":23.28333},{"name":"Borca","countryCode":"RO","stateCode":"NT","latitude":47.18333,"longitude":25.76667},{"name":"Borcea","countryCode":"RO","stateCode":"CL","latitude":44.33333,"longitude":27.75},{"name":"Borcut","countryCode":"RO","stateCode":"MM","latitude":47.482,"longitude":23.84071},{"name":"Bord","countryCode":"RO","stateCode":"MS","latitude":46.393689,"longitude":24.22694},{"name":"Bordeasca Veche","countryCode":"RO","stateCode":"VN","latitude":45.54447,"longitude":27.3173},{"name":"Bordei Verde","countryCode":"RO","stateCode":"BR","latitude":45.08333,"longitude":27.56667},{"name":"Bordenii Mari","countryCode":"RO","stateCode":"PH","latitude":45.08951,"longitude":25.86964},{"name":"Bordeşti","countryCode":"RO","stateCode":"VN","latitude":45.55,"longitude":27.05},{"name":"Bordoșiu","countryCode":"RO","stateCode":"MS","latitude":46.396296,"longitude":24.784141},{"name":"Borduşani","countryCode":"RO","stateCode":"IL","latitude":44.48333,"longitude":27.9},{"name":"Borleşti","countryCode":"RO","stateCode":"NT","latitude":46.76667,"longitude":26.48333},{"name":"Borlova","countryCode":"RO","stateCode":"CS","latitude":45.36738,"longitude":22.352},{"name":"Boroaia","countryCode":"RO","stateCode":"SV","latitude":47.35,"longitude":26.33333},{"name":"Borod","countryCode":"RO","stateCode":"BH","latitude":46.98333,"longitude":22.63333},{"name":"Boroşneu Mare","countryCode":"RO","stateCode":"CV","latitude":45.81667,"longitude":26},{"name":"Borosoaia","countryCode":"RO","stateCode":"IS","latitude":47.463,"longitude":27.09862},{"name":"Borş","countryCode":"RO","stateCode":"BH","latitude":47.11667,"longitude":21.81667},{"name":"Borşa","countryCode":"RO","stateCode":"CJ","latitude":46.93333,"longitude":23.66667},{"name":"Borşa","countryCode":"RO","stateCode":"MM","latitude":47.65527,"longitude":24.66328},{"name":"Borsec","countryCode":"RO","stateCode":"HR","latitude":46.95,"longitude":25.56667},{"name":"Borzia","countryCode":"RO","stateCode":"MS","latitude":46.969742,"longitude":24.932402},{"name":"Bosanci","countryCode":"RO","stateCode":"SV","latitude":47.58333,"longitude":26.31667},{"name":"Bosia","countryCode":"RO","stateCode":"IS","latitude":47.21696,"longitude":27.76707},{"name":"Boşorod","countryCode":"RO","stateCode":"HD","latitude":45.68333,"longitude":23.08333},{"name":"Botei","countryCode":"RO","stateCode":"MS","latitude":46.639397,"longitude":24.131978},{"name":"Boteni","countryCode":"RO","stateCode":"AG","latitude":45.18333,"longitude":25.11667},{"name":"Botești","countryCode":"RO","stateCode":"NT","latitude":47.052,"longitude":26.74863},{"name":"Boţeşti","countryCode":"RO","stateCode":"AG","latitude":45.01667,"longitude":25.13333},{"name":"Boţeşti","countryCode":"RO","stateCode":"VS","latitude":46.8,"longitude":27.88333},{"name":"Botez","countryCode":"RO","stateCode":"MS","latitude":46.386746,"longitude":24.024299},{"name":"Botiz","countryCode":"RO","stateCode":"SM","latitude":47.83333,"longitude":22.95},{"name":"Botiza","countryCode":"RO","stateCode":"MM","latitude":47.66667,"longitude":24.15},{"name":"Botorca","countryCode":"RO","stateCode":"MS","latitude":46.282318,"longitude":24.301573},{"name":"Botoroaga","countryCode":"RO","stateCode":"TR","latitude":44.14833,"longitude":25.54472},{"name":"Botoşana","countryCode":"RO","stateCode":"SV","latitude":47.68333,"longitude":25.95},{"name":"Botoşani","countryCode":"RO","stateCode":"BT","latitude":47.75,"longitude":26.66667},{"name":"Botoşeşti-Paia","countryCode":"RO","stateCode":"DJ","latitude":44.4,"longitude":23.26667},{"name":"Boureni","countryCode":"RO","stateCode":"DJ","latitude":44.01589,"longitude":23.43393},{"name":"Boureni","countryCode":"RO","stateCode":"IS","latitude":47.26497,"longitude":26.97672},{"name":"Bozânta Mare","countryCode":"RO","stateCode":"MM","latitude":47.639658,"longitude":23.441655},{"name":"Bozânta Mică","countryCode":"RO","stateCode":"MM","latitude":47.636414,"longitude":23.422357},{"name":"Bozed","countryCode":"RO","stateCode":"MS","latitude":46.687357,"longitude":24.46226},{"name":"Bozeni","countryCode":"RO","stateCode":"MS","latitude":46.532124,"longitude":24.671243},{"name":"Bozieni","countryCode":"RO","stateCode":"NT","latitude":46.83333,"longitude":27.15},{"name":"Bozioru","countryCode":"RO","stateCode":"BZ","latitude":45.38333,"longitude":26.48333},{"name":"Bozovici","countryCode":"RO","stateCode":"CS","latitude":44.93889,"longitude":22.00167},{"name":"Brabeți","countryCode":"RO","stateCode":"DJ","latitude":43.96098,"longitude":24.01339},{"name":"Brabova","countryCode":"RO","stateCode":"DJ","latitude":44.36667,"longitude":23.43333},{"name":"Brad","countryCode":"RO","stateCode":"HD","latitude":46.13333,"longitude":22.78333},{"name":"Brădeanu","countryCode":"RO","stateCode":"BZ","latitude":44.93333,"longitude":26.85},{"name":"Brădeni","countryCode":"RO","stateCode":"SB","latitude":46.08333,"longitude":24.83333},{"name":"Brădeşti","countryCode":"RO","stateCode":"DJ","latitude":44.48333,"longitude":23.63333},{"name":"Brădeşti","countryCode":"RO","stateCode":"HR","latitude":46.35,"longitude":25.35},{"name":"Brădețelu","countryCode":"RO","stateCode":"MS","latitude":46.755389,"longitude":25.05171},{"name":"Brădicești","countryCode":"RO","stateCode":"IS","latitude":46.8481,"longitude":27.9027},{"name":"Bradu","countryCode":"RO","stateCode":"AG","latitude":44.78333,"longitude":24.9},{"name":"Bradu","countryCode":"RO","stateCode":"SB","latitude":45.72221,"longitude":24.33234},{"name":"Brăduleţ","countryCode":"RO","stateCode":"AG","latitude":45.28333,"longitude":24.76667},{"name":"Brăduţ","countryCode":"RO","stateCode":"CV","latitude":46.13333,"longitude":25.61667},{"name":"Brăeşti","countryCode":"RO","stateCode":"BT","latitude":47.86667,"longitude":26.45},{"name":"Brăeşti","countryCode":"RO","stateCode":"BZ","latitude":45.43333,"longitude":26.5},{"name":"Brăeşti","countryCode":"RO","stateCode":"IS","latitude":47.15,"longitude":27.1},{"name":"Bragadiru","countryCode":"RO","stateCode":"IF","latitude":44.37111,"longitude":25.9775},{"name":"Bragadiru","countryCode":"RO","stateCode":"TR","latitude":43.76667,"longitude":25.51667},{"name":"Brăhășești","countryCode":"RO","stateCode":"GL","latitude":46.03333,"longitude":27.36667},{"name":"Brăhăşeştii de Sus","countryCode":"RO","stateCode":"GL","latitude":46.05,"longitude":27.35},{"name":"Brăiești","countryCode":"RO","stateCode":"SV","latitude":47.49673,"longitude":26.07182},{"name":"Brăila","countryCode":"RO","stateCode":"BR","latitude":45.27152,"longitude":27.97429},{"name":"Braloştiţa","countryCode":"RO","stateCode":"DJ","latitude":44.5,"longitude":23.51667},{"name":"Bran","countryCode":"RO","stateCode":"BV","latitude":45.51667,"longitude":25.35},{"name":"Brânceni","countryCode":"RO","stateCode":"TR","latitude":43.88333,"longitude":25.4},{"name":"Brâncoveanca","countryCode":"RO","stateCode":"TR","latitude":43.94075,"longitude":24.69336},{"name":"Brâncovenești","countryCode":"RO","stateCode":"MS","latitude":46.87,"longitude":24.77},{"name":"Brâncoveni","countryCode":"RO","stateCode":"OT","latitude":44.31667,"longitude":24.3},{"name":"Brăneşti","countryCode":"RO","stateCode":"DB","latitude":45.03333,"longitude":25.41667},{"name":"Brăneşti","countryCode":"RO","stateCode":"GJ","latitude":44.65,"longitude":23.46667},{"name":"Brăneşti","countryCode":"RO","stateCode":"IF","latitude":44.45,"longitude":26.33333},{"name":"Braneț","countryCode":"RO","stateCode":"OT","latitude":44.32576,"longitude":24.17792},{"name":"Brănişca","countryCode":"RO","stateCode":"HD","latitude":45.91667,"longitude":22.78333},{"name":"Brăniștari","countryCode":"RO","stateCode":"GR","latitude":44.17626,"longitude":26.05953},{"name":"Braniştea","countryCode":"RO","stateCode":"BN","latitude":47.16667,"longitude":24.06667},{"name":"Braniştea","countryCode":"RO","stateCode":"DB","latitude":44.68333,"longitude":25.58333},{"name":"Braniştea","countryCode":"RO","stateCode":"GL","latitude":45.45,"longitude":27.85},{"name":"Braniștea","countryCode":"RO","stateCode":"GR","latitude":43.96315,"longitude":26.03812},{"name":"Braniștea","countryCode":"RO","stateCode":"MH","latitude":44.24201,"longitude":22.97354},{"name":"Braşov","countryCode":"RO","stateCode":"BV","latitude":45.64861,"longitude":25.60613},{"name":"Brastavățu","countryCode":"RO","stateCode":"OT","latitude":43.90634,"longitude":24.40784},{"name":"Bratca","countryCode":"RO","stateCode":"BH","latitude":46.93333,"longitude":22.61667},{"name":"Brateiu","countryCode":"RO","stateCode":"SB","latitude":46.16667,"longitude":24.41667},{"name":"Brateş","countryCode":"RO","stateCode":"CV","latitude":45.83333,"longitude":26.06667},{"name":"Brătești","countryCode":"RO","stateCode":"BC","latitude":46.3254,"longitude":26.64333},{"name":"Brătești","countryCode":"RO","stateCode":"IS","latitude":47.19135,"longitude":26.6858},{"name":"Brătila","countryCode":"RO","stateCode":"BC","latitude":46.32348,"longitude":26.77442},{"name":"Bratovoești","countryCode":"RO","stateCode":"DJ","latitude":44.13333,"longitude":23.9},{"name":"Brazi","countryCode":"RO","stateCode":"HD","latitude":45.48716,"longitude":22.8404},{"name":"Brazii","countryCode":"RO","stateCode":"AR","latitude":46.23333,"longitude":22.33333},{"name":"Brazii de Sus","countryCode":"RO","stateCode":"PH","latitude":44.86667,"longitude":26.01667},{"name":"Breasta","countryCode":"RO","stateCode":"DJ","latitude":44.33333,"longitude":23.68333},{"name":"Breaza","countryCode":"RO","stateCode":"BN","latitude":47.35108,"longitude":24.0622},{"name":"Breaza","countryCode":"RO","stateCode":"BZ","latitude":45.1,"longitude":26.53333},{"name":"Breaza","countryCode":"RO","stateCode":"MS","latitude":46.77,"longitude":24.63},{"name":"Breaza","countryCode":"RO","stateCode":"PH","latitude":45.18333,"longitude":25.66667},{"name":"Breaza","countryCode":"RO","stateCode":"SV","latitude":47.61502,"longitude":25.31816},{"name":"Breaza de Jos","countryCode":"RO","stateCode":"PH","latitude":45.17125,"longitude":25.67571},{"name":"Breaza de Sus","countryCode":"RO","stateCode":"PH","latitude":45.19879,"longitude":25.65578},{"name":"Breazu","countryCode":"RO","stateCode":"IS","latitude":47.21343,"longitude":27.51815},{"name":"Breb","countryCode":"RO","stateCode":"MM","latitude":47.74854,"longitude":23.90494},{"name":"Brebeni","countryCode":"RO","stateCode":"MM","latitude":47.503582,"longitude":23.781356},{"name":"Brebeni","countryCode":"RO","stateCode":"OT","latitude":44.36667,"longitude":24.45},{"name":"Brebu","countryCode":"RO","stateCode":"CS","latitude":45.42028,"longitude":21.9925},{"name":"Brebu Mânăstirei","countryCode":"RO","stateCode":"PH","latitude":45.18333,"longitude":25.76667},{"name":"Brebu Megieșesc","countryCode":"RO","stateCode":"PH","latitude":45.16774,"longitude":25.77474},{"name":"Brebu Nou","countryCode":"RO","stateCode":"CS","latitude":45.23333,"longitude":22.13333},{"name":"Brehuiești","countryCode":"RO","stateCode":"BT","latitude":47.70194,"longitude":26.54472},{"name":"Brestovăț","countryCode":"RO","stateCode":"TM","latitude":45.87342,"longitude":21.68201},{"name":"Breţcu","countryCode":"RO","stateCode":"CV","latitude":46.05,"longitude":26.3},{"name":"Bretea Română","countryCode":"RO","stateCode":"HD","latitude":45.66085,"longitude":23.01739},{"name":"Brezniţa Ocol","countryCode":"RO","stateCode":"MH","latitude":44.66667,"longitude":22.61833},{"name":"Brezniţa-Motru","countryCode":"RO","stateCode":"MH","latitude":44.56667,"longitude":23.21667},{"name":"Brezoaele","countryCode":"RO","stateCode":"DB","latitude":44.58333,"longitude":25.73333},{"name":"Brezoaia","countryCode":"RO","stateCode":"DB","latitude":44.55683,"longitude":25.78527},{"name":"Brezoi","countryCode":"RO","stateCode":"VL","latitude":45.33797,"longitude":24.24863},{"name":"Brodina","countryCode":"RO","stateCode":"SV","latitude":47.88333,"longitude":25.41667},{"name":"Brodoc","countryCode":"RO","stateCode":"VS","latitude":46.6509,"longitude":27.67669},{"name":"Broscăuţi","countryCode":"RO","stateCode":"BT","latitude":47.95,"longitude":26.45},{"name":"Broşteni","countryCode":"RO","stateCode":"MH","latitude":44.76083,"longitude":22.97944},{"name":"Broşteni","countryCode":"RO","stateCode":"SV","latitude":47.23333,"longitude":25.7},{"name":"Broşteni","countryCode":"RO","stateCode":"VN","latitude":45.75,"longitude":27.03333},{"name":"Broșteni","countryCode":"RO","stateCode":"DB","latitude":44.72053,"longitude":25.50935},{"name":"Broșteni","countryCode":"RO","stateCode":"IL","latitude":44.67192,"longitude":26.74787},{"name":"Bruiu","countryCode":"RO","stateCode":"SB","latitude":45.86667,"longitude":24.7},{"name":"Brusturi","countryCode":"RO","stateCode":"BH","latitude":47.15,"longitude":22.25},{"name":"Brusturi","countryCode":"RO","stateCode":"NT","latitude":47.28333,"longitude":26.38333},{"name":"Brusturoasa","countryCode":"RO","stateCode":"BC","latitude":46.51667,"longitude":26.2},{"name":"Bucecea","countryCode":"RO","stateCode":"BT","latitude":47.76667,"longitude":26.43333},{"name":"Bucerdea-Grânoasă","countryCode":"RO","stateCode":"AB","latitude":46.2,"longitude":23.83333},{"name":"Buceş","countryCode":"RO","stateCode":"HD","latitude":46.18333,"longitude":22.93333},{"name":"Bucești","countryCode":"RO","stateCode":"GL","latitude":45.6525,"longitude":27.53008},{"name":"Bucharest","countryCode":"RO","stateCode":"B","latitude":44.43225,"longitude":26.10626},{"name":"Buchin","countryCode":"RO","stateCode":"CS","latitude":45.36667,"longitude":22.25},{"name":"Bucinişu","countryCode":"RO","stateCode":"OT","latitude":43.95,"longitude":24.25},{"name":"Bucium","countryCode":"RO","stateCode":"AB","latitude":46.26402,"longitude":23.1791},{"name":"Bucium-Orlea","countryCode":"RO","stateCode":"HD","latitude":45.58333,"longitude":22.96667},{"name":"Buciumeni","countryCode":"RO","stateCode":"DB","latitude":45.15,"longitude":25.45},{"name":"Buciumeni","countryCode":"RO","stateCode":"GL","latitude":46,"longitude":27.3},{"name":"Buciumeni","countryCode":"RO","stateCode":"IF","latitude":44.54975,"longitude":25.96419},{"name":"Buciumi","countryCode":"RO","stateCode":"BC","latitude":46.2023,"longitude":26.78445},{"name":"Buciumi","countryCode":"RO","stateCode":"MM","latitude":47.470326,"longitude":23.489258},{"name":"Buciumi","countryCode":"RO","stateCode":"SJ","latitude":47.03333,"longitude":23.06667},{"name":"Bucoşniţa","countryCode":"RO","stateCode":"CS","latitude":45.3,"longitude":22.26667},{"name":"Bucov","countryCode":"RO","stateCode":"PH","latitude":44.96667,"longitude":26.08333},{"name":"Bucova","countryCode":"RO","stateCode":"CS","latitude":45.50906,"longitude":22.63731},{"name":"Bucovăţ","countryCode":"RO","stateCode":"DJ","latitude":44.3,"longitude":23.75},{"name":"Bucovăț","countryCode":"RO","stateCode":"TM","latitude":45.75569,"longitude":21.38324},{"name":"Bucovineni","countryCode":"RO","stateCode":"BT","latitude":47.85,"longitude":26.33333},{"name":"Bucşani","countryCode":"RO","stateCode":"DB","latitude":44.86667,"longitude":25.65},{"name":"Bucşani","countryCode":"RO","stateCode":"GR","latitude":44.37611,"longitude":25.65528},{"name":"Bucșenești","countryCode":"RO","stateCode":"AG","latitude":45.30096,"longitude":24.65841},{"name":"Bucșenești-Lotași","countryCode":"RO","stateCode":"AG","latitude":45.01307,"longitude":24.96845},{"name":"Bucșești","countryCode":"RO","stateCode":"BC","latitude":46.48381,"longitude":26.5823},{"name":"Bucșoaia","countryCode":"RO","stateCode":"SV","latitude":47.53972,"longitude":25.81118},{"name":"Bucu","countryCode":"RO","stateCode":"IL","latitude":44.60532,"longitude":27.49337},{"name":"Bucureşci","countryCode":"RO","stateCode":"HD","latitude":46.13333,"longitude":22.9},{"name":"Buda","countryCode":"RO","stateCode":"BC","latitude":46.67111,"longitude":26.71953},{"name":"Buda","countryCode":"RO","stateCode":"BZ","latitude":45.5,"longitude":26.9},{"name":"Buda","countryCode":"RO","stateCode":"IS","latitude":47.40318,"longitude":26.67835},{"name":"Buda","countryCode":"RO","stateCode":"PH","latitude":44.82443,"longitude":26.18522},{"name":"Buda","countryCode":"RO","stateCode":"VS","latitude":46.76231,"longitude":27.42113},{"name":"Budacu de Jos","countryCode":"RO","stateCode":"BN","latitude":47.08333,"longitude":24.51667},{"name":"Budacu de Sus","countryCode":"RO","stateCode":"BN","latitude":47.06118,"longitude":24.65752},{"name":"Budăi","countryCode":"RO","stateCode":"IS","latitude":47.21773,"longitude":27.22282},{"name":"Budeasa Mică","countryCode":"RO","stateCode":"AG","latitude":44.95,"longitude":24.85},{"name":"Budeni","countryCode":"RO","stateCode":"SV","latitude":47.41383,"longitude":26.65927},{"name":"Budeşti","countryCode":"RO","stateCode":"BN","latitude":46.88333,"longitude":24.25},{"name":"Budeşti","countryCode":"RO","stateCode":"CL","latitude":44.23472,"longitude":26.46583},{"name":"Budeşti","countryCode":"RO","stateCode":"MM","latitude":47.73333,"longitude":23.95},{"name":"Budeşti","countryCode":"RO","stateCode":"VL","latitude":45.05,"longitude":24.38333},{"name":"Budești","countryCode":"RO","stateCode":"NT","latitude":46.94084,"longitude":26.71177},{"name":"Budești","countryCode":"RO","stateCode":"VN","latitude":45.62779,"longitude":27.05669},{"name":"Budila","countryCode":"RO","stateCode":"BV","latitude":45.66667,"longitude":25.8},{"name":"Budiu Mic","countryCode":"RO","stateCode":"MS","latitude":46.509206,"longitude":24.584807},{"name":"Budureasa","countryCode":"RO","stateCode":"BH","latitude":46.66667,"longitude":22.5},{"name":"Buduslău","countryCode":"RO","stateCode":"BH","latitude":47.4,"longitude":22.26667},{"name":"Buești","countryCode":"RO","stateCode":"IL","latitude":44.54473,"longitude":27.18729},{"name":"Buftea","countryCode":"RO","stateCode":"IF","latitude":44.56139,"longitude":25.94889},{"name":"Bughea de Jos","countryCode":"RO","stateCode":"AG","latitude":45.26667,"longitude":25},{"name":"Bughea de Jos","countryCode":"RO","stateCode":"PH","latitude":45.17985,"longitude":26.02044},{"name":"Bughea de Sus","countryCode":"RO","stateCode":"AG","latitude":45.29812,"longitude":25.03284},{"name":"Buhalnița","countryCode":"RO","stateCode":"IS","latitude":47.37892,"longitude":26.91547},{"name":"Buhoci","countryCode":"RO","stateCode":"BC","latitude":46.56667,"longitude":27.01667},{"name":"Buhuşi","countryCode":"RO","stateCode":"BC","latitude":46.71667,"longitude":26.7},{"name":"Bujor","countryCode":"RO","stateCode":"MS","latitude":46.65534,"longitude":24.173422},{"name":"Bujor-Hodaie","countryCode":"RO","stateCode":"MS","latitude":46.644947,"longitude":24.168328},{"name":"Bujoreni","countryCode":"RO","stateCode":"TR","latitude":44.11667,"longitude":25.63333},{"name":"Bujoreni","countryCode":"RO","stateCode":"VL","latitude":45.13333,"longitude":24.35},{"name":"Bujoru","countryCode":"RO","stateCode":"TR","latitude":43.71667,"longitude":25.56667},{"name":"Bulbucata","countryCode":"RO","stateCode":"GR","latitude":44.28333,"longitude":25.80333},{"name":"Bulgăruș","countryCode":"RO","stateCode":"TM","latitude":45.91947,"longitude":20.82219},{"name":"Buliga","countryCode":"RO","stateCode":"IL","latitude":44.35731,"longitude":27.79225},{"name":"Bulz","countryCode":"RO","stateCode":"BH","latitude":46.91667,"longitude":22.68333},{"name":"Bulzeşti","countryCode":"RO","stateCode":"DJ","latitude":44.53333,"longitude":23.88333},{"name":"Bulzeștii de Sus","countryCode":"RO","stateCode":"HD","latitude":46.3007,"longitude":22.76118},{"name":"Bumbeşti-Jiu","countryCode":"RO","stateCode":"GJ","latitude":45.16667,"longitude":23.4},{"name":"Buneşti","countryCode":"RO","stateCode":"BV","latitude":46.1,"longitude":25.05},{"name":"Buneşti","countryCode":"RO","stateCode":"VL","latitude":45.11667,"longitude":24.18333},{"name":"Buneşti","countryCode":"RO","stateCode":"VS","latitude":46.83333,"longitude":27.96667},{"name":"Bunești","countryCode":"RO","stateCode":"SV","latitude":47.52501,"longitude":26.28826},{"name":"Bungetu","countryCode":"RO","stateCode":"DB","latitude":44.84323,"longitude":25.53816},{"name":"Bunila","countryCode":"RO","stateCode":"HD","latitude":45.7,"longitude":22.66667},{"name":"Bunteşti","countryCode":"RO","stateCode":"BH","latitude":46.61667,"longitude":22.46667},{"name":"Burca","countryCode":"RO","stateCode":"VN","latitude":45.91224,"longitude":26.94905},{"name":"Buriaș","countryCode":"RO","stateCode":"IF","latitude":44.73304,"longitude":25.98053},{"name":"Burila Mare","countryCode":"RO","stateCode":"MH","latitude":44.45278,"longitude":22.57361},{"name":"Burjuc","countryCode":"RO","stateCode":"HD","latitude":45.95,"longitude":22.48333},{"name":"Burla","countryCode":"RO","stateCode":"SV","latitude":47.79033,"longitude":25.92696},{"name":"Bursuceni","countryCode":"RO","stateCode":"SV","latitude":47.65097,"longitude":26.4753},{"name":"Burueneşti","countryCode":"RO","stateCode":"BZ","latitude":45.31667,"longitude":26.35},{"name":"Buruienești","countryCode":"RO","stateCode":"NT","latitude":46.99595,"longitude":26.97732},{"name":"Burzuc","countryCode":"RO","stateCode":"BH","latitude":47.15552,"longitude":22.17096},{"name":"Bușag","countryCode":"RO","stateCode":"MM","latitude":47.658715,"longitude":23.427752},{"name":"Bușca","countryCode":"RO","stateCode":"OT","latitude":44.11166,"longitude":24.80238},{"name":"Buşteni","countryCode":"RO","stateCode":"PH","latitude":45.4,"longitude":25.53333},{"name":"Bustuchin","countryCode":"RO","stateCode":"GJ","latitude":44.96667,"longitude":23.73333},{"name":"Butea","countryCode":"RO","stateCode":"IS","latitude":47.06667,"longitude":26.91667},{"name":"Buteasa","countryCode":"RO","stateCode":"MM","latitude":47.448303,"longitude":23.549878},{"name":"Buteni","countryCode":"RO","stateCode":"AR","latitude":46.31667,"longitude":22.11667},{"name":"Butimanu","countryCode":"RO","stateCode":"DB","latitude":44.68333,"longitude":25.9},{"name":"Butoieşti","countryCode":"RO","stateCode":"MH","latitude":44.58333,"longitude":23.36667},{"name":"Buturugeni","countryCode":"RO","stateCode":"GR","latitude":44.36528,"longitude":25.83528},{"name":"Buza","countryCode":"RO","stateCode":"CJ","latitude":46.9,"longitude":24.15},{"name":"Buzău","countryCode":"RO","stateCode":"BZ","latitude":45.15,"longitude":26.83333},{"name":"Buzescu","countryCode":"RO","stateCode":"TR","latitude":44.01667,"longitude":25.23333},{"name":"Buzești","countryCode":"RO","stateCode":"MM","latitude":47.608449,"longitude":23.354169},{"name":"Buziaş","countryCode":"RO","stateCode":"TM","latitude":45.64917,"longitude":21.60361},{"name":"Buznea","countryCode":"RO","stateCode":"IS","latitude":47.19515,"longitude":27.01572},{"name":"Buzoeşti","countryCode":"RO","stateCode":"AG","latitude":44.58333,"longitude":24.91667},{"name":"C.a. Rosetti","countryCode":"RO","stateCode":"BZ","latitude":45.04622,"longitude":27.1664},{"name":"C.A. Rosetti","countryCode":"RO","stateCode":"TL","latitude":45.3,"longitude":29.56667},{"name":"Căbeşti","countryCode":"RO","stateCode":"BH","latitude":46.76667,"longitude":22.36667},{"name":"Cacica","countryCode":"RO","stateCode":"SV","latitude":47.63333,"longitude":25.9},{"name":"Căciulata","countryCode":"RO","stateCode":"MS","latitude":46.715135,"longitude":24.406023},{"name":"Căciulați","countryCode":"RO","stateCode":"IF","latitude":44.62741,"longitude":26.17255},{"name":"Căcuciu","countryCode":"RO","stateCode":"MS","latitude":46.725594,"longitude":24.849867},{"name":"Cadea","countryCode":"RO","stateCode":"BH","latitude":47.31185,"longitude":22.06225},{"name":"Căianu","countryCode":"RO","stateCode":"CJ","latitude":46.7846,"longitude":23.9185},{"name":"Căianu Mic","countryCode":"RO","stateCode":"BN","latitude":47.23333,"longitude":24.15},{"name":"Căianu Mic","countryCode":"RO","stateCode":"CJ","latitude":46.78333,"longitude":23.91667},{"name":"Câinenii Mici","countryCode":"RO","stateCode":"VL","latitude":45.48333,"longitude":24.3},{"name":"Căiuți","countryCode":"RO","stateCode":"BC","latitude":46.18057,"longitude":26.92571},{"name":"Căiuţi-Sat","countryCode":"RO","stateCode":"BC","latitude":46.18333,"longitude":26.93333},{"name":"Cajvana","countryCode":"RO","stateCode":"SV","latitude":47.7,"longitude":25.96667},{"name":"Călacea","countryCode":"RO","stateCode":"BH","latitude":46.67687,"longitude":21.93292},{"name":"Calafat","countryCode":"RO","stateCode":"DJ","latitude":43.99069,"longitude":22.93328},{"name":"Calafindeşti","countryCode":"RO","stateCode":"SV","latitude":47.85,"longitude":26.11667},{"name":"Călan","countryCode":"RO","stateCode":"HD","latitude":45.73333,"longitude":22.98333},{"name":"Călăraşi","countryCode":"RO","stateCode":"BT","latitude":47.61667,"longitude":27.26667},{"name":"Călăraşi","countryCode":"RO","stateCode":"CJ","latitude":46.48333,"longitude":23.86667},{"name":"Călăraşi","countryCode":"RO","stateCode":"CL","latitude":44.2051,"longitude":27.31356},{"name":"Călăraşi","countryCode":"RO","stateCode":"DJ","latitude":43.8,"longitude":24.05},{"name":"Călăţele","countryCode":"RO","stateCode":"CJ","latitude":46.76667,"longitude":23.01667},{"name":"Căldăraru","countryCode":"RO","stateCode":"AG","latitude":44.45,"longitude":24.95},{"name":"Căldăraru","countryCode":"RO","stateCode":"IF","latitude":44.41307,"longitude":26.26313},{"name":"Căldărăști","countryCode":"RO","stateCode":"BZ","latitude":44.89375,"longitude":27.034},{"name":"Călimăneşti","countryCode":"RO","stateCode":"VL","latitude":45.23333,"longitude":24.33333},{"name":"Călimănești","countryCode":"RO","stateCode":"MS","latitude":46.413325,"longitude":24.732709},{"name":"Călina","countryCode":"RO","stateCode":"VL","latitude":44.70205,"longitude":24.25439},{"name":"Călineşti","countryCode":"RO","stateCode":"AG","latitude":44.81667,"longitude":25.05},{"name":"Călineşti","countryCode":"RO","stateCode":"MM","latitude":47.78423,"longitude":23.96961},{"name":"Călineşti","countryCode":"RO","stateCode":"TR","latitude":44.08333,"longitude":25.23333},{"name":"Călinești","countryCode":"RO","stateCode":"OT","latitude":44.07727,"longitude":24.68796},{"name":"Călinești","countryCode":"RO","stateCode":"SV","latitude":47.80329,"longitude":26.15345},{"name":"Călineşti-Oaş","countryCode":"RO","stateCode":"SM","latitude":47.9,"longitude":23.3},{"name":"Călmăţuiu","countryCode":"RO","stateCode":"TR","latitude":43.96667,"longitude":24.86667},{"name":"Călmățuiu de Sus","countryCode":"RO","stateCode":"TR","latitude":44.02632,"longitude":24.8123},{"name":"Câlnic","countryCode":"RO","stateCode":"AB","latitude":45.88333,"longitude":23.66667},{"name":"Câlnic","countryCode":"RO","stateCode":"CS","latitude":45.33844,"longitude":21.85754},{"name":"Câlnic","countryCode":"RO","stateCode":"GJ","latitude":44.95,"longitude":23.08333},{"name":"Calomfirești","countryCode":"RO","stateCode":"TR","latitude":43.91736,"longitude":25.35801},{"name":"Calopăr","countryCode":"RO","stateCode":"DJ","latitude":44.16502,"longitude":23.7606},{"name":"Călugăreni","countryCode":"RO","stateCode":"GR","latitude":44.17167,"longitude":25.99556},{"name":"Călugăreni","countryCode":"RO","stateCode":"MS","latitude":46.629819,"longitude":24.877723},{"name":"Călugăreni","countryCode":"RO","stateCode":"PH","latitude":45.08333,"longitude":26.38333},{"name":"Călui","countryCode":"RO","stateCode":"OT","latitude":44.45297,"longitude":24.0636},{"name":"Călușeri","countryCode":"RO","stateCode":"MS","latitude":46.606373,"longitude":24.737173},{"name":"Calvini","countryCode":"RO","stateCode":"BZ","latitude":45.25,"longitude":26.3},{"name":"Camăr","countryCode":"RO","stateCode":"SJ","latitude":47.3,"longitude":22.61667},{"name":"Cămăraşu","countryCode":"RO","stateCode":"CJ","latitude":46.78333,"longitude":24.13333},{"name":"Cămărzana","countryCode":"RO","stateCode":"SM","latitude":48,"longitude":23.31667},{"name":"Cămin","countryCode":"RO","stateCode":"SM","latitude":47.72836,"longitude":22.47987},{"name":"Câmpani","countryCode":"RO","stateCode":"BH","latitude":46.51415,"longitude":22.52186},{"name":"Câmpani de Pomezeu","countryCode":"RO","stateCode":"BH","latitude":46.8,"longitude":22.31667},{"name":"Câmpeni","countryCode":"RO","stateCode":"AB","latitude":46.36667,"longitude":23.05},{"name":"Câmpenița","countryCode":"RO","stateCode":"MS","latitude":46.651211,"longitude":24.487338},{"name":"Câmpia Turzii","countryCode":"RO","stateCode":"CJ","latitude":46.55,"longitude":23.88333},{"name":"Câmpina","countryCode":"RO","stateCode":"PH","latitude":45.12619,"longitude":25.73496},{"name":"Câmpineanca","countryCode":"RO","stateCode":"VN","latitude":45.71166,"longitude":27.12832},{"name":"Câmpu Cetății","countryCode":"RO","stateCode":"MS","latitude":46.670427,"longitude":25.013973},{"name":"Câmpulung","countryCode":"RO","stateCode":"AG","latitude":45.26667,"longitude":25.05},{"name":"Câmpulung la Tisa","countryCode":"RO","stateCode":"MM","latitude":47.98651,"longitude":23.77263},{"name":"Câmpulung Moldovenesc","countryCode":"RO","stateCode":"SV","latitude":47.53333,"longitude":25.56667},{"name":"Câmpurelu","countryCode":"RO","stateCode":"GR","latitude":44.23392,"longitude":26.18719},{"name":"Câmpuri","countryCode":"RO","stateCode":"VN","latitude":46.01535,"longitude":26.78802},{"name":"Câmpurile de Jos","countryCode":"RO","stateCode":"VN","latitude":46.01667,"longitude":26.78333},{"name":"Cândeşti","countryCode":"RO","stateCode":"BT","latitude":47.93333,"longitude":26.2},{"name":"Cândeşti","countryCode":"RO","stateCode":"NT","latitude":46.71667,"longitude":26.58333},{"name":"Cândeşti Vale","countryCode":"RO","stateCode":"DB","latitude":45.08333,"longitude":25.21667},{"name":"Cându","countryCode":"RO","stateCode":"MS","latitude":46.599177,"longitude":24.887909},{"name":"Căneşti","countryCode":"RO","stateCode":"BZ","latitude":45.4,"longitude":26.6},{"name":"Căpâlna","countryCode":"RO","stateCode":"BH","latitude":46.73333,"longitude":22.1},{"name":"Căpâlna de Sus","countryCode":"RO","stateCode":"MS","latitude":46.378463,"longitude":24.43502},{"name":"Căpâlniţa","countryCode":"RO","stateCode":"HR","latitude":46.36667,"longitude":25.51667},{"name":"Căpățânenii Pământeni","countryCode":"RO","stateCode":"AG","latitude":45.31667,"longitude":24.65},{"name":"Căpățânești","countryCode":"RO","stateCode":"BZ","latitude":45.18333,"longitude":26.8},{"name":"Căpeni","countryCode":"RO","stateCode":"CV","latitude":46.04111,"longitude":25.57858},{"name":"Căpeți","countryCode":"RO","stateCode":"MS","latitude":46.63147,"longitude":25.07876},{"name":"Căpleni","countryCode":"RO","stateCode":"SM","latitude":47.71667,"longitude":22.5},{"name":"Caporal Alexa","countryCode":"RO","stateCode":"AR","latitude":46.33793,"longitude":21.58316},{"name":"Căpreni","countryCode":"RO","stateCode":"GJ","latitude":44.75,"longitude":23.61667},{"name":"Căprioru","countryCode":"RO","stateCode":"DB","latitude":44.98236,"longitude":25.28116},{"name":"Capu Câmpului","countryCode":"RO","stateCode":"SV","latitude":47.50822,"longitude":25.97959},{"name":"Capu Codrului","countryCode":"RO","stateCode":"SV","latitude":47.53117,"longitude":25.98724},{"name":"Capu Piscului","countryCode":"RO","stateCode":"AG","latitude":45.17999,"longitude":24.97679},{"name":"Căpușu de Câmpie","countryCode":"RO","stateCode":"MS","latitude":46.542263,"longitude":24.314142},{"name":"Căpuşu Mare","countryCode":"RO","stateCode":"CJ","latitude":46.78333,"longitude":23.3},{"name":"Caracal","countryCode":"RO","stateCode":"OT","latitude":44.11667,"longitude":24.35},{"name":"Caraclău","countryCode":"RO","stateCode":"BC","latitude":46.30696,"longitude":26.71641},{"name":"Cărand","countryCode":"RO","stateCode":"AR","latitude":46.45,"longitude":22.08333},{"name":"Carani","countryCode":"RO","stateCode":"TM","latitude":45.91095,"longitude":21.15686},{"name":"Caransebeş","countryCode":"RO","stateCode":"CS","latitude":45.41667,"longitude":22.21667},{"name":"Cărășeu","countryCode":"RO","stateCode":"SM","latitude":47.74126,"longitude":23.09798},{"name":"Caraşova","countryCode":"RO","stateCode":"CS","latitude":45.19861,"longitude":21.87},{"name":"Carastelec","countryCode":"RO","stateCode":"SJ","latitude":47.3,"longitude":22.7},{"name":"Caraula","countryCode":"RO","stateCode":"DJ","latitude":44.18333,"longitude":23.25},{"name":"Cărbunari","countryCode":"RO","stateCode":"CS","latitude":44.83444,"longitude":21.74417},{"name":"Cărbunari","countryCode":"RO","stateCode":"MM","latitude":47.575156,"longitude":23.644034},{"name":"Cărbuneşti","countryCode":"RO","stateCode":"PH","latitude":45.23333,"longitude":26.2},{"name":"Carcaliu","countryCode":"RO","stateCode":"TL","latitude":45.18333,"longitude":28.15},{"name":"Cârcea","countryCode":"RO","stateCode":"DJ","latitude":44.26917,"longitude":23.90007},{"name":"Carei","countryCode":"RO","stateCode":"SM","latitude":47.68333,"longitude":22.46667},{"name":"Cârja","countryCode":"RO","stateCode":"VS","latitude":46.14878,"longitude":28.11012},{"name":"Cârjiţi","countryCode":"RO","stateCode":"HD","latitude":45.85,"longitude":22.83333},{"name":"Cârjoaia","countryCode":"RO","stateCode":"IS","latitude":47.34032,"longitude":26.90863},{"name":"Cârlibaba","countryCode":"RO","stateCode":"SV","latitude":47.58333,"longitude":25.13333},{"name":"Cârligele","countryCode":"RO","stateCode":"VN","latitude":45.68333,"longitude":27.1},{"name":"Cârligi","countryCode":"RO","stateCode":"BC","latitude":46.76583,"longitude":26.85053},{"name":"Cârlogani","countryCode":"RO","stateCode":"OT","latitude":44.51667,"longitude":24.15},{"name":"Cârna","countryCode":"RO","stateCode":"DJ","latitude":43.88613,"longitude":23.60153},{"name":"Cârniceni","countryCode":"RO","stateCode":"IS","latitude":47.33942,"longitude":27.50508},{"name":"Carpen","countryCode":"RO","stateCode":"DJ","latitude":44.33333,"longitude":23.25},{"name":"Cărpinet","countryCode":"RO","stateCode":"BH","latitude":46.45,"longitude":22.48333},{"name":"Cărpiniş","countryCode":"RO","stateCode":"TM","latitude":45.78722,"longitude":20.90417},{"name":"Cărpiniș","countryCode":"RO","stateCode":"GJ","latitude":45.18407,"longitude":23.58052},{"name":"Cărpiniș","countryCode":"RO","stateCode":"MM","latitude":47.575555,"longitude":23.703365},{"name":"Cârţa","countryCode":"RO","stateCode":"HR","latitude":46.53333,"longitude":25.75},{"name":"Cârţa","countryCode":"RO","stateCode":"SB","latitude":45.78333,"longitude":24.56667},{"name":"Cârţişoara","countryCode":"RO","stateCode":"SB","latitude":45.71667,"longitude":24.58333},{"name":"Cartojani","countryCode":"RO","stateCode":"GR","latitude":44.43221,"longitude":25.48994},{"name":"Căscioarele","countryCode":"RO","stateCode":"CL","latitude":44.12611,"longitude":26.46972},{"name":"Căscioarele","countryCode":"RO","stateCode":"GR","latitude":44.49911,"longitude":25.63817},{"name":"Căşeiu","countryCode":"RO","stateCode":"CJ","latitude":47.18333,"longitude":23.86667},{"name":"Casimcea","countryCode":"RO","stateCode":"TL","latitude":44.73333,"longitude":28.36667},{"name":"Caşin","countryCode":"RO","stateCode":"BC","latitude":46.2,"longitude":26.75},{"name":"Cașoca","countryCode":"RO","stateCode":"BZ","latitude":45.48914,"longitude":26.26706},{"name":"Căstău","countryCode":"RO","stateCode":"HD","latitude":45.81465,"longitude":23.21173},{"name":"Castelu","countryCode":"RO","stateCode":"CT","latitude":44.25,"longitude":28.33333},{"name":"Castranova","countryCode":"RO","stateCode":"DJ","latitude":44.11667,"longitude":24.01667},{"name":"Castrele Traiane","countryCode":"RO","stateCode":"DJ","latitude":44.22865,"longitude":23.13921},{"name":"Cașva","countryCode":"RO","stateCode":"MS","latitude":46.781936,"longitude":24.87788},{"name":"Caţa","countryCode":"RO","stateCode":"BV","latitude":46.08333,"longitude":25.26667},{"name":"Catalina","countryCode":"RO","stateCode":"CV","latitude":45.96667,"longitude":26.15},{"name":"Cătălina","countryCode":"RO","stateCode":"MM","latitude":47.603835,"longitude":23.544591},{"name":"Cataloi","countryCode":"RO","stateCode":"TL","latitude":45.09581,"longitude":28.72856},{"name":"Cătămărești-Deal","countryCode":"RO","stateCode":"BT","latitude":47.76999,"longitude":26.59897},{"name":"Catane","countryCode":"RO","stateCode":"DJ","latitude":43.92671,"longitude":23.41178},{"name":"Catanele","countryCode":"RO","stateCode":"OT","latitude":44.38199,"longitude":24.56145},{"name":"Câţcău","countryCode":"RO","stateCode":"CJ","latitude":47.2,"longitude":23.78333},{"name":"Căteasca","countryCode":"RO","stateCode":"AG","latitude":44.76667,"longitude":25.08333},{"name":"Cățelu","countryCode":"RO","stateCode":"IF","latitude":44.40292,"longitude":26.21975},{"name":"Cătina","countryCode":"RO","stateCode":"BZ","latitude":45.3,"longitude":26.25},{"name":"Cătina","countryCode":"RO","stateCode":"CJ","latitude":46.85,"longitude":24.18333},{"name":"Cătina","countryCode":"RO","stateCode":"PH","latitude":45.00984,"longitude":25.78395},{"name":"Cătunele","countryCode":"RO","stateCode":"GJ","latitude":44.86442,"longitude":22.90707},{"name":"Căuaş","countryCode":"RO","stateCode":"SM","latitude":47.56667,"longitude":22.55},{"name":"Cavadineşti","countryCode":"RO","stateCode":"GL","latitude":46.06667,"longitude":28.01694},{"name":"Cavnic","countryCode":"RO","stateCode":"MM","latitude":47.66667,"longitude":23.86667},{"name":"Cazaci","countryCode":"RO","stateCode":"DB","latitude":44.80152,"longitude":25.55405},{"name":"Căzăneşti","countryCode":"RO","stateCode":"IL","latitude":44.61667,"longitude":27.01667},{"name":"Căzăneşti","countryCode":"RO","stateCode":"MH","latitude":44.72333,"longitude":22.89056},{"name":"Cazasu","countryCode":"RO","stateCode":"BR","latitude":45.27172,"longitude":27.89011},{"name":"Ceacu","countryCode":"RO","stateCode":"CL","latitude":44.2653,"longitude":27.25213},{"name":"Ceahlău","countryCode":"RO","stateCode":"NT","latitude":47.05,"longitude":25.96667},{"name":"Ceamurlia de Jos","countryCode":"RO","stateCode":"TL","latitude":44.73333,"longitude":28.71667},{"name":"Ceamurlia de Sus","countryCode":"RO","stateCode":"TL","latitude":44.76373,"longitude":28.60881},{"name":"Ceanu Mare","countryCode":"RO","stateCode":"CJ","latitude":46.66667,"longitude":23.95},{"name":"Ceardac","countryCode":"RO","stateCode":"VN","latitude":45.66967,"longitude":27.16611},{"name":"Ceatalchioi","countryCode":"RO","stateCode":"TL","latitude":45.28333,"longitude":28.78333},{"name":"Ceauru","countryCode":"RO","stateCode":"GJ","latitude":45.01175,"longitude":23.20211},{"name":"Cecălaca","countryCode":"RO","stateCode":"MS","latitude":46.394492,"longitude":24.040132},{"name":"Cefa","countryCode":"RO","stateCode":"BH","latitude":46.91667,"longitude":21.73333},{"name":"Cegani","countryCode":"RO","stateCode":"IL","latitude":44.46279,"longitude":27.90175},{"name":"Cehal","countryCode":"RO","stateCode":"SM","latitude":47.38333,"longitude":22.6},{"name":"Cehei","countryCode":"RO","stateCode":"SJ","latitude":47.25632,"longitude":22.77507},{"name":"Cehu Silvaniei","countryCode":"RO","stateCode":"SJ","latitude":47.41177,"longitude":23.17489},{"name":"Ceica","countryCode":"RO","stateCode":"BH","latitude":46.85,"longitude":22.18333},{"name":"Ceie","countryCode":"RO","stateCode":"MS","latitude":46.464066,"longitude":24.98427},{"name":"Celaru","countryCode":"RO","stateCode":"DJ","latitude":44.05,"longitude":24.13333},{"name":"Cenad","countryCode":"RO","stateCode":"TM","latitude":46.13333,"longitude":20.58333},{"name":"Cenade","countryCode":"RO","stateCode":"AB","latitude":46.05,"longitude":24.01667},{"name":"Cenei","countryCode":"RO","stateCode":"TM","latitude":45.71583,"longitude":20.90389},{"name":"Cepari","countryCode":"RO","stateCode":"OT","latitude":44.49733,"longitude":24.17122},{"name":"Ceparii Pământeni","countryCode":"RO","stateCode":"AG","latitude":45.21667,"longitude":24.56667},{"name":"Cepleniţa","countryCode":"RO","stateCode":"IS","latitude":47.38333,"longitude":27.01667},{"name":"Ceptura de Jos","countryCode":"RO","stateCode":"PH","latitude":45.02088,"longitude":26.32722},{"name":"Ceptura de Sus","countryCode":"RO","stateCode":"PH","latitude":45.01667,"longitude":26.31667},{"name":"Ceraşu","countryCode":"RO","stateCode":"PH","latitude":45.31667,"longitude":26.03333},{"name":"Cerăt","countryCode":"RO","stateCode":"DJ","latitude":44.06667,"longitude":23.66667},{"name":"Cerbăl","countryCode":"RO","stateCode":"HD","latitude":45.78333,"longitude":22.71667},{"name":"Cerchezu","countryCode":"RO","stateCode":"CT","latitude":43.81667,"longitude":28.1},{"name":"Cerdac","countryCode":"RO","stateCode":"BC","latitude":46.23794,"longitude":26.51638},{"name":"Cergău Mare","countryCode":"RO","stateCode":"AB","latitude":46.09869,"longitude":23.92284},{"name":"Cergău Mic","countryCode":"RO","stateCode":"AB","latitude":46.08333,"longitude":23.93333},{"name":"Cerghid","countryCode":"RO","stateCode":"MS","latitude":46.414509,"longitude":24.44602},{"name":"Cerghizel","countryCode":"RO","stateCode":"MS","latitude":46.44451,"longitude":24.446878},{"name":"Cermei","countryCode":"RO","stateCode":"AR","latitude":46.55,"longitude":21.85},{"name":"Cerna","countryCode":"RO","stateCode":"TL","latitude":45.08333,"longitude":28.31667},{"name":"Cernat","countryCode":"RO","stateCode":"CV","latitude":45.95,"longitude":26.03333},{"name":"Cernăteşti","countryCode":"RO","stateCode":"BZ","latitude":45.26667,"longitude":26.76667},{"name":"Cernăteşti","countryCode":"RO","stateCode":"DJ","latitude":44.45,"longitude":23.43333},{"name":"Cernavodă","countryCode":"RO","stateCode":"CT","latitude":44.33957,"longitude":28.03273},{"name":"Cernele","countryCode":"RO","stateCode":"DJ","latitude":44.33363,"longitude":23.7414},{"name":"Cerneşti","countryCode":"RO","stateCode":"MM","latitude":47.51667,"longitude":23.75},{"name":"Cerneți","countryCode":"RO","stateCode":"MH","latitude":44.63476,"longitude":22.70931},{"name":"Cernetu","countryCode":"RO","stateCode":"TR","latitude":43.90727,"longitude":25.45688},{"name":"Cernica","countryCode":"RO","stateCode":"IF","latitude":44.41667,"longitude":26.28333},{"name":"Cernişoara","countryCode":"RO","stateCode":"VL","latitude":45.03333,"longitude":23.98333},{"name":"Cernu","countryCode":"RO","stateCode":"BC","latitude":46.46999,"longitude":26.58477},{"name":"Certeju de Sus","countryCode":"RO","stateCode":"HD","latitude":45.96667,"longitude":22.96667},{"name":"Cerţeşti","countryCode":"RO","stateCode":"GL","latitude":46.01667,"longitude":27.61667},{"name":"Certeze","countryCode":"RO","stateCode":"SM","latitude":47.9,"longitude":23.46667},{"name":"Ceru-Băcăinţi","countryCode":"RO","stateCode":"AB","latitude":45.98333,"longitude":23.25},{"name":"Cervenia","countryCode":"RO","stateCode":"TR","latitude":43.83333,"longitude":25.46667},{"name":"Cetariu","countryCode":"RO","stateCode":"BH","latitude":47.13333,"longitude":22.01667},{"name":"Cetate","countryCode":"RO","stateCode":"DJ","latitude":44.1,"longitude":23.05},{"name":"Cetatea","countryCode":"RO","stateCode":"GR","latitude":43.95105,"longitude":25.9345},{"name":"Cetatea de Baltă","countryCode":"RO","stateCode":"AB","latitude":46.24794,"longitude":24.17244},{"name":"Cetățele","countryCode":"RO","stateCode":"MM","latitude":47.598809,"longitude":23.73945},{"name":"Cetăţeni","countryCode":"RO","stateCode":"AG","latitude":45.2,"longitude":25.18333},{"name":"Ceuaș","countryCode":"RO","stateCode":"MS","latitude":46.34277778,"longitude":24.44305556},{"name":"Ceuașu de Câmpie","countryCode":"RO","stateCode":"MS","latitude":46.642932,"longitude":24.513871},{"name":"Cezieni","countryCode":"RO","stateCode":"OT","latitude":44.18333,"longitude":24.26667},{"name":"Checea","countryCode":"RO","stateCode":"TM","latitude":45.75298,"longitude":20.83596},{"name":"Chechiș","countryCode":"RO","stateCode":"MM","latitude":47.584414,"longitude":23.603885},{"name":"Cheia","countryCode":"RO","stateCode":"VL","latitude":45.18306,"longitude":24.21666},{"name":"Chelința","countryCode":"RO","stateCode":"MM","latitude":47.45311,"longitude":23.31799},{"name":"Chendrea","countryCode":"RO","stateCode":"SJ","latitude":47.12236,"longitude":23.29904},{"name":"Chendu","countryCode":"RO","stateCode":"MS","latitude":46.390869,"longitude":24.73045},{"name":"Cherechiu","countryCode":"RO","stateCode":"BH","latitude":47.38333,"longitude":22.13333},{"name":"Chereluș","countryCode":"RO","stateCode":"AR","latitude":46.4686,"longitude":21.70706},{"name":"Cheșereu","countryCode":"RO","stateCode":"BH","latitude":47.42779,"longitude":22.11416},{"name":"Chesinț","countryCode":"RO","stateCode":"AR","latitude":46.04973,"longitude":21.57944},{"name":"Cheț","countryCode":"RO","stateCode":"BH","latitude":47.41943,"longitude":22.33877},{"name":"Chețani","countryCode":"RO","stateCode":"MS","latitude":46.47,"longitude":24.03},{"name":"Chevereşu Mare","countryCode":"RO","stateCode":"TM","latitude":45.66694,"longitude":21.49083},{"name":"Chiajna","countryCode":"RO","stateCode":"IF","latitude":44.46,"longitude":25.97333},{"name":"Chibed","countryCode":"RO","stateCode":"MS","latitude":46.52944444,"longitude":24.96333333},{"name":"Chichiş","countryCode":"RO","stateCode":"CV","latitude":45.78333,"longitude":25.8},{"name":"Chier","countryCode":"RO","stateCode":"AR","latitude":46.34199,"longitude":21.82488},{"name":"Chieşd","countryCode":"RO","stateCode":"SJ","latitude":47.38333,"longitude":22.88333},{"name":"Chiheru de Jos","countryCode":"RO","stateCode":"MS","latitude":46.687002,"longitude":24.881636},{"name":"Chiheru de Sus","countryCode":"RO","stateCode":"MS","latitude":46.681348,"longitude":24.903598},{"name":"Chilia Veche","countryCode":"RO","stateCode":"TL","latitude":45.41667,"longitude":29.28333},{"name":"Chilii","countryCode":"RO","stateCode":"NT","latitude":46.80254,"longitude":27.03394},{"name":"Chiliile","countryCode":"RO","stateCode":"BZ","latitude":45.45,"longitude":26.58333},{"name":"Chinari","countryCode":"RO","stateCode":"MS","latitude":46.605257,"longitude":24.589691},{"name":"Chinciuș","countryCode":"RO","stateCode":"MS","latitude":46.352354,"longitude":24.183233},{"name":"Chinteni","countryCode":"RO","stateCode":"CJ","latitude":46.86667,"longitude":23.53333},{"name":"Chintinici","countryCode":"RO","stateCode":"NT","latitude":46.82754,"longitude":26.49339},{"name":"Chiochiş","countryCode":"RO","stateCode":"BN","latitude":46.98333,"longitude":24.18333},{"name":"Chiojdeanca","countryCode":"RO","stateCode":"PH","latitude":45.16667,"longitude":26.26667},{"name":"Chiojdeni","countryCode":"RO","stateCode":"VN","latitude":45.55,"longitude":26.86667},{"name":"Chiojdu","countryCode":"RO","stateCode":"BZ","latitude":45.35,"longitude":26.2},{"name":"Chiraftei","countryCode":"RO","stateCode":"GL","latitude":45.7722,"longitude":28.02716},{"name":"Chircești","countryCode":"RO","stateCode":"VS","latitude":46.84629,"longitude":27.8492},{"name":"Chiriacu","countryCode":"RO","stateCode":"GR","latitude":44.05036,"longitude":25.77726},{"name":"Chirileu","countryCode":"RO","stateCode":"MS","latitude":46.476644,"longitude":24.382965},{"name":"Chirnogeni","countryCode":"RO","stateCode":"CT","latitude":43.9,"longitude":28.23333},{"name":"Chirnogi","countryCode":"RO","stateCode":"CL","latitude":44.11667,"longitude":26.56667},{"name":"Chirpăr","countryCode":"RO","stateCode":"SB","latitude":45.9,"longitude":24.6},{"name":"Chisălița","countryCode":"RO","stateCode":"MS","latitude":46.568091,"longitude":24.314757},{"name":"Chiscani","countryCode":"RO","stateCode":"BR","latitude":45.18333,"longitude":27.93333},{"name":"Chișcăreni","countryCode":"RO","stateCode":"IS","latitude":47.46974,"longitude":27.19626},{"name":"Chiselet","countryCode":"RO","stateCode":"CL","latitude":44.18333,"longitude":26.85},{"name":"Chisindia","countryCode":"RO","stateCode":"AR","latitude":46.28333,"longitude":22.1},{"name":"Chişineu-Criş","countryCode":"RO","stateCode":"AR","latitude":46.52509,"longitude":21.51844},{"name":"Chişlaz","countryCode":"RO","stateCode":"BH","latitude":47.28333,"longitude":22.23333},{"name":"Chișoda","countryCode":"RO","stateCode":"TM","latitude":45.7038,"longitude":21.21437},{"name":"Chitila","countryCode":"RO","stateCode":"IF","latitude":44.50806,"longitude":25.98222},{"name":"Chițoc","countryCode":"RO","stateCode":"VS","latitude":46.59545,"longitude":27.6745},{"name":"Chițorani","countryCode":"RO","stateCode":"PH","latitude":44.97458,"longitude":26.11895},{"name":"Chiuiești","countryCode":"RO","stateCode":"CJ","latitude":47.29686,"longitude":23.87553},{"name":"Chiuza","countryCode":"RO","stateCode":"BN","latitude":47.23333,"longitude":24.25},{"name":"Chiuzbaia","countryCode":"RO","stateCode":"MM","latitude":47.699548,"longitude":23.68056},{"name":"Ciacova","countryCode":"RO","stateCode":"TM","latitude":45.50806,"longitude":21.12861},{"name":"Ciba","countryCode":"RO","stateCode":"MS","latitude":46.479226,"longitude":24.568063},{"name":"Cibu","countryCode":"RO","stateCode":"MS","latitude":46.379038,"longitude":24.803708},{"name":"Cicănești","countryCode":"RO","stateCode":"AG","latitude":45.24601,"longitude":24.60526},{"name":"Cicârlău","countryCode":"RO","stateCode":"MM","latitude":47.69155,"longitude":23.4038},{"name":"Ciceu","countryCode":"RO","stateCode":"HR","latitude":46.41328,"longitude":25.78204},{"name":"Ciceu-Giurgeşti","countryCode":"RO","stateCode":"BN","latitude":47.25,"longitude":24.01667},{"name":"Ciceu-Mihăiești","countryCode":"RO","stateCode":"BN","latitude":47.18568,"longitude":23.9748},