[{"name":"Adorjan","countryCode":"RS","stateCode":"VO","latitude":46.00333,"longitude":20.04007},{"name":"Aleksandrovo","countryCode":"RS","stateCode":"VO","latitude":45.63755,"longitude":20.59288},{"name":"Alibunar","countryCode":"RS","stateCode":"VO","latitude":45.08083,"longitude":20.96583},{"name":"Apatin","countryCode":"RS","stateCode":"VO","latitude":45.6726,"longitude":18.978},{"name":"Aradac","countryCode":"RS","stateCode":"VO","latitude":45.38346,"longitude":20.30137},{"name":"Aranđelovac","countryCode":"RS","stateCode":"02","latitude":44.30694,"longitude":20.56},{"name":"Arilje","countryCode":"RS","stateCode":"02","latitude":43.75306,"longitude":20.09556},{"name":"Bačka Palanka","countryCode":"RS","stateCode":"VO","latitude":45.24966,"longitude":19.39664},{"name":"Bačka Topola","countryCode":"RS","stateCode":"VO","latitude":45.81516,"longitude":19.6318},{"name":"Bački Breg","countryCode":"RS","stateCode":"VO","latitude":45.92034,"longitude":18.92944},{"name":"Bački Petrovac","countryCode":"RS","stateCode":"VO","latitude":45.36056,"longitude":19.59167},{"name":"Bačko Gradište","countryCode":"RS","stateCode":"VO","latitude":45.53271,"longitude":20.03082},{"name":"Bačko Petrovo Selo","countryCode":"RS","stateCode":"VO","latitude":45.70681,"longitude":20.07928},{"name":"Badovinci","countryCode":"RS","stateCode":"02","latitude":44.78534,"longitude":19.37146},{"name":"Bajina Bašta","countryCode":"RS","stateCode":"02","latitude":43.97083,"longitude":19.5675},{"name":"Banatska Topola","countryCode":"RS","stateCode":"VO","latitude":45.67248,"longitude":20.4653},{"name":"Banatski Despotovac","countryCode":"RS","stateCode":"VO","latitude":45.36606,"longitude":20.66407},{"name":"Banatski Dvor","countryCode":"RS","stateCode":"VO","latitude":45.51866,"longitude":20.51146},{"name":"Banatski Karlovac","countryCode":"RS","stateCode":"VO","latitude":45.04987,"longitude":21.018},{"name":"Banatsko Karađorđevo","countryCode":"RS","stateCode":"VO","latitude":45.58693,"longitude":20.56421},{"name":"Banatsko Veliko Selo","countryCode":"RS","stateCode":"VO","latitude":45.81961,"longitude":20.60772},{"name":"Banovo Polje","countryCode":"RS","stateCode":"02","latitude":44.9104,"longitude":19.44916},{"name":"Baranda","countryCode":"RS","stateCode":"VO","latitude":45.08459,"longitude":20.44264},{"name":"Barič","countryCode":"RS","stateCode":"02","latitude":44.6507,"longitude":20.25941},{"name":"Barice","countryCode":"RS","stateCode":"VO","latitude":45.18189,"longitude":21.08279},{"name":"Bašaid","countryCode":"RS","stateCode":"VO","latitude":45.64102,"longitude":20.41434},{"name":"Bečej","countryCode":"RS","stateCode":"VO","latitude":45.61632,"longitude":20.03331},{"name":"Bečmen","countryCode":"RS","stateCode":"02","latitude":44.77983,"longitude":20.20577},{"name":"Bela Crkva","countryCode":"RS","stateCode":"VO","latitude":44.8975,"longitude":21.41722},{"name":"Belegiš","countryCode":"RS","stateCode":"VO","latitude":45.0192,"longitude":20.33323},{"name":"Belgrade","countryCode":"RS","stateCode":"02","latitude":44.80401,"longitude":20.46513},{"name":"Belo Blato","countryCode":"RS","stateCode":"VO","latitude":45.27278,"longitude":20.375},{"name":"Belotić","countryCode":"RS","stateCode":"02","latitude":44.81782,"longitude":19.54801},{"name":"Beška","countryCode":"RS","stateCode":"VO","latitude":45.13092,"longitude":20.06698},{"name":"Biljača","countryCode":"RS","stateCode":"02","latitude":42.35518,"longitude":21.74781},{"name":"Bočar","countryCode":"RS","stateCode":"VO","latitude":45.76994,"longitude":20.2839},{"name":"Bogatić","countryCode":"RS","stateCode":"02","latitude":44.8375,"longitude":19.48056},{"name":"Bogojevo","countryCode":"RS","stateCode":"VO","latitude":45.53015,"longitude":19.13022},{"name":"Bogosavac","countryCode":"RS","stateCode":"02","latitude":44.71799,"longitude":19.59533},{"name":"Boka","countryCode":"RS","stateCode":"VO","latitude":45.3554,"longitude":20.82987},{"name":"Boljevci","countryCode":"RS","stateCode":"02","latitude":44.72355,"longitude":20.22348},{"name":"Bor","countryCode":"RS","stateCode":"02","latitude":44.36667,"longitude":22.25},{"name":"Bosut","countryCode":"RS","stateCode":"VO","latitude":44.92977,"longitude":19.36086},{"name":"Botoš","countryCode":"RS","stateCode":"VO","latitude":45.30837,"longitude":20.63514},{"name":"Brdarica","countryCode":"RS","stateCode":"02","latitude":44.55376,"longitude":19.7715},{"name":"Buđanovci","countryCode":"RS","stateCode":"VO","latitude":44.89388,"longitude":19.86344},{"name":"Bukor","countryCode":"RS","stateCode":"02","latitude":44.49523,"longitude":19.57116},{"name":"Čačak","countryCode":"RS","stateCode":"02","latitude":43.89139,"longitude":20.34972},{"name":"Čajetina","countryCode":"RS","stateCode":"02","latitude":43.74977,"longitude":19.71273},{"name":"Čelarevo","countryCode":"RS","stateCode":"VO","latitude":45.26999,"longitude":19.52484},{"name":"Čenta","countryCode":"RS","stateCode":"VO","latitude":45.10814,"longitude":20.38947},{"name":"Čestereg","countryCode":"RS","stateCode":"VO","latitude":45.56361,"longitude":20.53194},{"name":"Ćićevac","countryCode":"RS","stateCode":"02","latitude":43.71882,"longitude":21.44085},{"name":"Čoka","countryCode":"RS","stateCode":"VO","latitude":45.9425,"longitude":20.14333},{"name":"Čokešina","countryCode":"RS","stateCode":"02","latitude":44.65319,"longitude":19.39016},{"name":"Čortanovci","countryCode":"RS","stateCode":"VO","latitude":45.1546,"longitude":20.01851},{"name":"Crepaja","countryCode":"RS","stateCode":"VO","latitude":45.00984,"longitude":20.63702},{"name":"Crna Bara","countryCode":"RS","stateCode":"02","latitude":44.87374,"longitude":19.3948},{"name":"Ćuprija","countryCode":"RS","stateCode":"02","latitude":43.9275,"longitude":21.37},{"name":"Čurug","countryCode":"RS","stateCode":"VO","latitude":45.47221,"longitude":20.06861},{"name":"Debeljača","countryCode":"RS","stateCode":"VO","latitude":45.0707,"longitude":20.60153},{"name":"Despotovo","countryCode":"RS","stateCode":"VO","latitude":45.45983,"longitude":19.52653},{"name":"Dobanovci","countryCode":"RS","stateCode":"02","latitude":44.82631,"longitude":20.22487},{"name":"Dobrić","countryCode":"RS","stateCode":"02","latitude":44.70224,"longitude":19.57931},{"name":"Dobrica","countryCode":"RS","stateCode":"VO","latitude":45.21339,"longitude":20.84995},{"name":"Donji Dobrić","countryCode":"RS","stateCode":"02","latitude":44.61183,"longitude":19.33109},{"name":"Donji Milanovac","countryCode":"RS","stateCode":"02","latitude":44.46593,"longitude":22.1517},{"name":"Doroslovo","countryCode":"RS","stateCode":"VO","latitude":45.60699,"longitude":19.18868},{"name":"Draginje","countryCode":"RS","stateCode":"02","latitude":44.53302,"longitude":19.7625},{"name":"Drenovac","countryCode":"RS","stateCode":"02","latitude":44.86649,"longitude":19.70943},{"name":"Dublje","countryCode":"RS","stateCode":"02","latitude":44.80117,"longitude":19.50902},{"name":"Duboka","countryCode":"RS","stateCode":"02","latitude":44.52223,"longitude":21.7603},{"name":"Ðurđevo","countryCode":"RS","stateCode":"VO","latitude":45.32591,"longitude":20.06532},{"name":"Ðurići","countryCode":"RS","stateCode":"02","latitude":43.82533,"longitude":19.41233},{"name":"Ečka","countryCode":"RS","stateCode":"VO","latitude":45.32328,"longitude":20.44294},{"name":"Elemir","countryCode":"RS","stateCode":"VO","latitude":45.44263,"longitude":20.30003},{"name":"Farkaždin","countryCode":"RS","stateCode":"VO","latitude":45.19172,"longitude":20.47239},{"name":"Gakovo","countryCode":"RS","stateCode":"VO","latitude":45.90078,"longitude":19.06138},{"name":"Gardinovci","countryCode":"RS","stateCode":"VO","latitude":45.20359,"longitude":20.13558},{"name":"Gložan","countryCode":"RS","stateCode":"VO","latitude":45.27954,"longitude":19.56838},{"name":"Glušci","countryCode":"RS","stateCode":"02","latitude":44.89021,"longitude":19.54913},{"name":"Golubac","countryCode":"RS","stateCode":"02","latitude":44.65296,"longitude":21.63199},{"name":"Golubinci","countryCode":"RS","stateCode":"VO","latitude":44.98533,"longitude":20.06339},{"name":"Gornja Bukovica","countryCode":"RS","stateCode":"02","latitude":44.33987,"longitude":19.81368},{"name":"Gornji Breg","countryCode":"RS","stateCode":"VO","latitude":45.91995,"longitude":20.01766},{"name":"Gornji Milanovac","countryCode":"RS","stateCode":"02","latitude":44.02603,"longitude":20.46152},{"name":"Grabovac","countryCode":"RS","stateCode":"02","latitude":44.60049,"longitude":20.08539},{"name":"Grabovci","countryCode":"RS","stateCode":"VO","latitude":44.76496,"longitude":19.84489},{"name":"Gudurica","countryCode":"RS","stateCode":"VO","latitude":45.16816,"longitude":21.44264},{"name":"Hajdučica","countryCode":"RS","stateCode":"VO","latitude":45.2501,"longitude":20.96016},{"name":"Hetin","countryCode":"RS","stateCode":"VO","latitude":45.66202,"longitude":20.79138},{"name":"Hrtkovci","countryCode":"RS","stateCode":"VO","latitude":44.88155,"longitude":19.76374},{"name":"Idvor","countryCode":"RS","stateCode":"VO","latitude":45.18895,"longitude":20.51442},{"name":"Ilandža","countryCode":"RS","stateCode":"VO","latitude":45.16897,"longitude":20.92008},{"name":"Inđija","countryCode":"RS","stateCode":"VO","latitude":45.04816,"longitude":20.08165},{"name":"Irig","countryCode":"RS","stateCode":"VO","latitude":45.0523,"longitude":19.84448},{"name":"Izbište","countryCode":"RS","stateCode":"VO","latitude":45.02253,"longitude":21.18388},{"name":"Jablanica","countryCode":"RS","stateCode":"02","latitude":42.99528,"longitude":21.91778},{"name":"Jadranska Lešnica","countryCode":"RS","stateCode":"02","latitude":44.5973,"longitude":19.35209},{"name":"Jagodina","countryCode":"RS","stateCode":"02","latitude":43.97713,"longitude":21.26121},{"name":"Janošik","countryCode":"RS","stateCode":"VO","latitude":45.17141,"longitude":21.00658},{"name":"Jarak","countryCode":"RS","stateCode":"VO","latitude":44.91843,"longitude":19.75477},{"name":"Jarebice","countryCode":"RS","stateCode":"02","latitude":44.53995,"longitude":19.42418},{"name":"Jarkovac","countryCode":"RS","stateCode":"VO","latitude":45.26985,"longitude":20.76078},{"name":"Jaša Tomić","countryCode":"RS","stateCode":"VO","latitude":45.44725,"longitude":20.85546},{"name":"Jazovo","countryCode":"RS","stateCode":"VO","latitude":45.89876,"longitude":20.2213},{"name":"Jelenča","countryCode":"RS","stateCode":"02","latitude":44.727,"longitude":19.735},{"name":"Jermenovci","countryCode":"RS","stateCode":"VO","latitude":45.18635,"longitude":21.0455},{"name":"Jevremovac","countryCode":"RS","stateCode":"02","latitude":44.72172,"longitude":19.66364},{"name":"Joševa","countryCode":"RS","stateCode":"02","latitude":44.58772,"longitude":19.40967},{"name":"Kamenica","countryCode":"RS","stateCode":"02","latitude":44.343,"longitude":19.72333},{"name":"Kanjiža","countryCode":"RS","stateCode":"VO","latitude":46.06667,"longitude":20.05},{"name":"Kikinda","countryCode":"RS","stateCode":"VO","latitude":45.82972,"longitude":20.46528},{"name":"Kisač","countryCode":"RS","stateCode":"VO","latitude":45.35421,"longitude":19.72975},{"name":"Klek","countryCode":"RS","stateCode":"VO","latitude":45.42254,"longitude":20.48049},{"name":"Klenak","countryCode":"RS","stateCode":"VO","latitude":44.78846,"longitude":19.71004},{"name":"Klenje","countryCode":"RS","stateCode":"02","latitude":44.80794,"longitude":19.43508},{"name":"Knićanin","countryCode":"RS","stateCode":"VO","latitude":45.18675,"longitude":20.319},{"name":"Knjazevac","countryCode":"RS","stateCode":"02","latitude":43.56634,"longitude":22.25701},{"name":"Kolubara","countryCode":"RS","stateCode":"02","latitude":44.26333,"longitude":19.8875},{"name":"Kolut","countryCode":"RS","stateCode":"VO","latitude":45.89292,"longitude":18.9276},{"name":"Konak","countryCode":"RS","stateCode":"VO","latitude":45.31575,"longitude":20.91468},{"name":"Kovačica","countryCode":"RS","stateCode":"VO","latitude":45.11167,"longitude":20.62139},{"name":"Kovilj","countryCode":"RS","stateCode":"VO","latitude":45.23422,"longitude":20.02327},{"name":"Kovin","countryCode":"RS","stateCode":"VO","latitude":44.7475,"longitude":20.97611},{"name":"Kozjak","countryCode":"RS","stateCode":"02","latitude":44.58727,"longitude":19.28412},{"name":"Kozjak","countryCode":"RS","stateCode":"VO","latitude":45.18264,"longitude":20.86381},{"name":"Kragujevac","countryCode":"RS","stateCode":"02","latitude":44.01667,"longitude":20.91667},{"name":"Krajišnik","countryCode":"RS","stateCode":"VO","latitude":45.45283,"longitude":20.72976},{"name":"Kraljevo","countryCode":"RS","stateCode":"02","latitude":43.72583,"longitude":20.68944},{"name":"Krčedin","countryCode":"RS","stateCode":"VO","latitude":45.13871,"longitude":20.13308},{"name":"Krivaja","countryCode":"RS","stateCode":"02","latitude":44.55021,"longitude":19.59153},{"name":"Krupanj","countryCode":"RS","stateCode":"02","latitude":44.36556,"longitude":19.36194},{"name":"Kruševac","countryCode":"RS","stateCode":"02","latitude":43.58,"longitude":21.33389},{"name":"Kulpin","countryCode":"RS","stateCode":"VO","latitude":45.4024,"longitude":19.58814},{"name":"Kumane","countryCode":"RS","stateCode":"VO","latitude":45.53946,"longitude":20.22902},{"name":"Kupinovo","countryCode":"RS","stateCode":"VO","latitude":44.70708,"longitude":20.04959},{"name":"Kupusina","countryCode":"RS","stateCode":"VO","latitude":45.73759,"longitude":19.01082},{"name":"Kuštilj","countryCode":"RS","stateCode":"VO","latitude":45.03487,"longitude":21.37989},{"name":"Lagja e Poshtme","countryCode":"RS","stateCode":"02","latitude":42.38853,"longitude":21.72971},{"name":"Lapovo","countryCode":"RS","stateCode":"02","latitude":44.18424,"longitude":21.09727},{"name":"Lazarevac","countryCode":"RS","stateCode":"02","latitude":44.38534,"longitude":20.2557},{"name":"Lazarevo","countryCode":"RS","stateCode":"VO","latitude":45.38893,"longitude":20.53999},{"name":"Leskovac","countryCode":"RS","stateCode":"02","latitude":42.99806,"longitude":21.94611},{"name":"Lešnica","countryCode":"RS","stateCode":"02","latitude":44.6525,"longitude":19.31},{"name":"Lipnički Šor","countryCode":"RS","stateCode":"02","latitude":44.58058,"longitude":19.26572},{"name":"Lipolist","countryCode":"RS","stateCode":"02","latitude":44.69783,"longitude":19.50101},{"name":"Ljig","countryCode":"RS","stateCode":"02","latitude":44.23007,"longitude":20.23819},{"name":"Ljubovija","countryCode":"RS","stateCode":"02","latitude":44.18944,"longitude":19.37667},{"name":"Ljukovo","countryCode":"RS","stateCode":"VO","latitude":45.02604,"longitude":20.02737},{"name":"Lok","countryCode":"RS","stateCode":"VO","latitude":45.21583,"longitude":20.21222},{"name":"Lokve","countryCode":"RS","stateCode":"VO","latitude":45.15198,"longitude":21.03073},{"name":"Lugavčina","countryCode":"RS","stateCode":"02","latitude":44.52314,"longitude":21.07083},{"name":"Lukićevo","countryCode":"RS","stateCode":"VO","latitude":45.33815,"longitude":20.49895},{"name":"Mačva","countryCode":"RS","stateCode":"02","latitude":44.61472,"longitude":19.47222},{"name":"Mačvanska Mitrovica","countryCode":"RS","stateCode":"VO","latitude":44.96739,"longitude":19.59314},{"name":"Maglić","countryCode":"RS","stateCode":"VO","latitude":45.36248,"longitude":19.53211},{"name":"Majdanpek","countryCode":"RS","stateCode":"02","latitude":44.42771,"longitude":21.94596},{"name":"Majur","countryCode":"RS","stateCode":"02","latitude":44.77105,"longitude":19.65512},{"name":"Mala Moštanica","countryCode":"RS","stateCode":"02","latitude":44.63834,"longitude":20.306},{"name":"Mali Zvornik","countryCode":"RS","stateCode":"02","latitude":44.37344,"longitude":19.10651},{"name":"Margita","countryCode":"RS","stateCode":"VO","latitude":45.21598,"longitude":21.17527},{"name":"Međa","countryCode":"RS","stateCode":"VO","latitude":45.53815,"longitude":20.80677},{"name":"Melenci","countryCode":"RS","stateCode":"VO","latitude":45.5168,"longitude":20.31961},{"name":"Metković","countryCode":"RS","stateCode":"02","latitude":44.85617,"longitude":19.54654},{"name":"Mihajlovo","countryCode":"RS","stateCode":"VO","latitude":45.47085,"longitude":20.41508},{"name":"Miratovac","countryCode":"RS","stateCode":"02","latitude":42.25846,"longitude":21.66456},{"name":"Mokrin","countryCode":"RS","stateCode":"VO","latitude":45.93362,"longitude":20.41215},{"name":"Mol","countryCode":"RS","stateCode":"VO","latitude":45.76457,"longitude":20.13286},{"name":"Morava","countryCode":"RS","stateCode":"02","latitude":43.80389,"longitude":20.17806},{"name":"Mošorin","countryCode":"RS","stateCode":"VO","latitude":45.30196,"longitude":20.16919},{"name":"Nakovo","countryCode":"RS","stateCode":"VO","latitude":45.87503,"longitude":20.56709},{"name":"Negotin","countryCode":"RS","stateCode":"02","latitude":44.22639,"longitude":22.53083},{"name":"Neuzina","countryCode":"RS","stateCode":"VO","latitude":45.3446,"longitude":20.71418},{"name":"Nikinci","countryCode":"RS","stateCode":"VO","latitude":44.85017,"longitude":19.82321},{"name":"Nikolinci","countryCode":"RS","stateCode":"VO","latitude":45.05245,"longitude":21.06695},{"name":"Niš","countryCode":"RS","stateCode":"02","latitude":43.32472,"longitude":21.90333},{"name":"Nišava","countryCode":"RS","stateCode":"02","latitude":43.32306,"longitude":21.89444},{"name":"Nova Crnja","countryCode":"RS","stateCode":"VO","latitude":45.66833,"longitude":20.605},{"name":"Nova Pazova","countryCode":"RS","stateCode":"VO","latitude":44.94366,"longitude":20.21931},{"name":"Novi Banovci","countryCode":"RS","stateCode":"VO","latitude":44.95691,"longitude":20.28076},{"name":"Novi Itebej","countryCode":"RS","stateCode":"VO","latitude":45.55918,"longitude":20.7003},{"name":"Novi Karlovci","countryCode":"RS","stateCode":"VO","latitude":45.07636,"longitude":20.17948},{"name":"Novi Kneževac","countryCode":"RS","stateCode":"VO","latitude":46.05,"longitude":20.1},{"name":"Novi Kozarci","countryCode":"RS","stateCode":"VO","latitude":45.78241,"longitude":20.62289},{"name":"Novi Pazar","countryCode":"RS","stateCode":"02","latitude":43.13667,"longitude":20.51222},{"name":"Novi Sad","countryCode":"RS","stateCode":"VO","latitude":45.25167,"longitude":19.83694},{"name":"Novi Slankamen","countryCode":"RS","stateCode":"VO","latitude":45.12554,"longitude":20.23914},{"name":"Novo Miloševo","countryCode":"RS","stateCode":"VO","latitude":45.71916,"longitude":20.30364},{"name":"Novo Selo","countryCode":"RS","stateCode":"02","latitude":44.67041,"longitude":19.34495},{"name":"Obrenovac","countryCode":"RS","stateCode":"02","latitude":44.65486,"longitude":20.20017},{"name":"Obrovac","countryCode":"RS","stateCode":"VO","latitude":45.32106,"longitude":19.35048},{"name":"Opovo","countryCode":"RS","stateCode":"VO","latitude":45.05222,"longitude":20.43028},{"name":"Orlovat","countryCode":"RS","stateCode":"VO","latitude":45.24171,"longitude":20.58089},{"name":"Osečina","countryCode":"RS","stateCode":"02","latitude":44.37306,"longitude":19.60139},{"name":"Osječenik","countryCode":"RS","stateCode":"02","latitude":43.14528,"longitude":19.85889},{"name":"Ostojićevo","countryCode":"RS","stateCode":"VO","latitude":45.88863,"longitude":20.16642},{"name":"Ostružnica","countryCode":"RS","stateCode":"02","latitude":44.72769,"longitude":20.31845},{"name":"Ovča","countryCode":"RS","stateCode":"02","latitude":44.88349,"longitude":20.53336},{"name":"Padej","countryCode":"RS","stateCode":"VO","latitude":45.82756,"longitude":20.16279},{"name":"Padina","countryCode":"RS","stateCode":"VO","latitude":45.11988,"longitude":20.7286},{"name":"Pančevo","countryCode":"RS","stateCode":"VO","latitude":44.87177,"longitude":20.64167},{"name":"Paraćin","countryCode":"RS","stateCode":"02","latitude":43.86083,"longitude":21.40778},{"name":"Pavliš","countryCode":"RS","stateCode":"VO","latitude":45.10569,"longitude":21.23952},{"name":"Pčinja","countryCode":"RS","stateCode":"02","latitude":42.56278,"longitude":21.8825},{"name":"Pećinci","countryCode":"RS","stateCode":"VO","latitude":44.90889,"longitude":19.96639},{"name":"Perlez","countryCode":"RS","stateCode":"VO","latitude":45.20813,"longitude":20.38197},{"name":"Petkovica","countryCode":"RS","stateCode":"02","latitude":44.66627,"longitude":19.43923},{"name":"Petrovaradin","countryCode":"RS","stateCode":"VO","latitude":45.24667,"longitude":19.87944},{"name":"Pirot","countryCode":"RS","stateCode":"02","latitude":43.17528,"longitude":22.59278},{"name":"Plandište","countryCode":"RS","stateCode":"VO","latitude":45.22722,"longitude":21.12167},{"name":"Platičevo","countryCode":"RS","stateCode":"VO","latitude":44.82213,"longitude":19.79487},{"name":"Pocerski Pričinović","countryCode":"RS","stateCode":"02","latitude":44.72222,"longitude":19.70722},{"name":"Podunavlje District","countryCode":"RS","stateCode":"02","latitude":44.48417,"longitude":20.91167},{"name":"Pomoravlje","countryCode":"RS","stateCode":"02","latitude":43.93667,"longitude":21.40222},{"name":"Požarevac","countryCode":"RS","stateCode":"02","latitude":44.62133,"longitude":21.18782},{"name":"Priboj","countryCode":"RS","stateCode":"02","latitude":43.58306,"longitude":19.52519},{"name":"Prigrevica","countryCode":"RS","stateCode":"VO","latitude":45.67636,"longitude":19.08809},{"name":"Prijepolje","countryCode":"RS","stateCode":"02","latitude":43.38996,"longitude":19.6487},{"name":"Prislonica","countryCode":"RS","stateCode":"02","latitude":43.95223,"longitude":20.43521},{"name":"Prnjavor","countryCode":"RS","stateCode":"02","latitude":44.70061,"longitude":19.38695},{"name":"Prokuplje","countryCode":"RS","stateCode":"02","latitude":43.23417,"longitude":21.58806},{"name":"Putinci","countryCode":"RS","stateCode":"VO","latitude":44.99259,"longitude":19.97102},{"name":"Radenka","countryCode":"RS","stateCode":"02","latitude":44.58345,"longitude":21.76469},{"name":"Radenković","countryCode":"RS","stateCode":"VO","latitude":44.92191,"longitude":19.49543},{"name":"Radojevo","countryCode":"RS","stateCode":"VO","latitude":45.74617,"longitude":20.78917},{"name":"Radovnica","countryCode":"RS","stateCode":"02","latitude":42.43364,"longitude":22.22861},{"name":"Rajince","countryCode":"RS","stateCode":"02","latitude":42.3787,"longitude":21.69591},{"name":"Rasina","countryCode":"RS","stateCode":"02","latitude":43.55917,"longitude":21.21472},{"name":"Raška","countryCode":"RS","stateCode":"02","latitude":43.26694,"longitude":20.65278},{"name":"Ravni Topolovac","countryCode":"RS","stateCode":"VO","latitude":45.46082,"longitude":20.56939},{"name":"Ravnje","countryCode":"RS","stateCode":"VO","latitude":44.94326,"longitude":19.4228},{"name":"Ravno Selo","countryCode":"RS","stateCode":"VO","latitude":45.44967,"longitude":19.62097},{"name":"Ribari","countryCode":"RS","stateCode":"02","latitude":44.70961,"longitude":19.42472},{"name":"Riđica","countryCode":"RS","stateCode":"VO","latitude":45.99088,"longitude":19.10635},{"name":"Ruma","countryCode":"RS","stateCode":"VO","latitude":45.00806,"longitude":19.82222},{"name":"Rumenka","countryCode":"RS","stateCode":"VO","latitude":45.294,"longitude":19.74306},{"name":"Rumska","countryCode":"RS","stateCode":"02","latitude":44.57261,"longitude":19.58988},{"name":"Rušanj","countryCode":"RS","stateCode":"02","latitude":44.68477,"longitude":20.44993},{"name":"Rusko Selo","countryCode":"RS","stateCode":"VO","latitude":45.76291,"longitude":20.57117},{"name":"Šabac","countryCode":"RS","stateCode":"02","latitude":44.74667,"longitude":19.69},{"name":"Sajan","countryCode":"RS","stateCode":"VO","latitude":45.84227,"longitude":20.27815},{"name":"Šajkaš","countryCode":"RS","stateCode":"VO","latitude":45.27315,"longitude":20.09051},{"name":"Sakule","countryCode":"RS","stateCode":"VO","latitude":45.14667,"longitude":20.48619},{"name":"Salaš Crnobarski","countryCode":"RS","stateCode":"02","latitude":44.82843,"longitude":19.39437},{"name":"Salaš Noćajski","countryCode":"RS","stateCode":"VO","latitude":44.94722,"longitude":19.58611},{"name":"Samoljica","countryCode":"RS","stateCode":"02","latitude":42.38445,"longitude":21.73708},{"name":"Samoš","countryCode":"RS","stateCode":"VO","latitude":45.20255,"longitude":20.77392},{"name":"Sanad","countryCode":"RS","stateCode":"VO","latitude":45.97596,"longitude":20.10816},{"name":"Šašinci","countryCode":"RS","stateCode":"VO","latitude":44.96514,"longitude":19.74151},{"name":"Sečanj","countryCode":"RS","stateCode":"VO","latitude":45.36667,"longitude":20.77222},{"name":"Sefkerin","countryCode":"RS","stateCode":"VO","latitude":45.00501,"longitude":20.48256},{"name":"Seleuš","countryCode":"RS","stateCode":"VO","latitude":45.1277,"longitude":20.91461},{"name":"Senta","countryCode":"RS","stateCode":"VO","latitude":45.9275,"longitude":20.07722},{"name":"Ševarice","countryCode":"RS","stateCode":"02","latitude":44.86704,"longitude":19.66006},{"name":"Ševica","countryCode":"RS","stateCode":"02","latitude":44.50883,"longitude":21.72296},{"name":"Šimanovci","countryCode":"RS","stateCode":"VO","latitude":44.87393,"longitude":20.09175},{"name":"Sinošević","countryCode":"RS","stateCode":"02","latitude":44.61503,"longitude":19.63601},{"name":"Sjenica","countryCode":"RS","stateCode":"02","latitude":43.27306,"longitude":19.99944},{"name":"Smederevo","countryCode":"RS","stateCode":"02","latitude":44.66436,"longitude":20.92763},{"name":"Smederevska Palanka","countryCode":"RS","stateCode":"02","latitude":44.36548,"longitude":20.95885},{"name":"Sokolovica","countryCode":"RS","stateCode":"02","latitude":43.21528,"longitude":20.31556},{"name":"Sokolovo Brdo","countryCode":"RS","stateCode":"02","latitude":43.13694,"longitude":19.80556},{"name":"Sombor","countryCode":"RS","stateCode":"VO","latitude":45.77417,"longitude":19.11222},{"name":"Sonta","countryCode":"RS","stateCode":"VO","latitude":45.59427,"longitude":19.09719},{"name":"Sremčica","countryCode":"RS","stateCode":"02","latitude":44.67653,"longitude":20.39232},{"name":"Sremska Mitrovica","countryCode":"RS","stateCode":"VO","latitude":44.97639,"longitude":19.61222},{"name":"Sremski Karlovci","countryCode":"RS","stateCode":"VO","latitude":45.20285,"longitude":19.93373},{"name":"Srpska Crnja","countryCode":"RS","stateCode":"VO","latitude":45.72538,"longitude":20.69008},{"name":"Srpski Itebej","countryCode":"RS","stateCode":"VO","latitude":45.56715,"longitude":20.7135},{"name":"Stajićevo","countryCode":"RS","stateCode":"VO","latitude":45.29489,"longitude":20.45845},{"name":"Stanišić","countryCode":"RS","stateCode":"VO","latitude":45.93895,"longitude":19.16709},{"name":"Stara Pazova","countryCode":"RS","stateCode":"VO","latitude":44.985,"longitude":20.16083},{"name":"Stari Banovci","countryCode":"RS","stateCode":"VO","latitude":44.9842,"longitude":20.28382},{"name":"Stari Lec","countryCode":"RS","stateCode":"VO","latitude":45.28401,"longitude":20.96433},{"name":"Stepanovićevo","countryCode":"RS","stateCode":"VO","latitude":45.41369,"longitude":19.7},{"name":"Stepojevac","countryCode":"RS","stateCode":"02","latitude":44.51278,"longitude":20.295},{"name":"Štitar","countryCode":"RS","stateCode":"02","latitude":44.79415,"longitude":19.59529},{"name":"Stubline","countryCode":"RS","stateCode":"02","latitude":44.57476,"longitude":20.13477},{"name":"Subotica","countryCode":"RS","stateCode":"VO","latitude":46.1,"longitude":19.66667},{"name":"Šumadija","countryCode":"RS","stateCode":"02","latitude":44.00222,"longitude":20.91778},{"name":"Sumulicë","countryCode":"RS","stateCode":"02","latitude":42.38682,"longitude":21.734},{"name":"Surčin","countryCode":"RS","stateCode":"02","latitude":44.79306,"longitude":20.28028},{"name":"Surduk","countryCode":"RS","stateCode":"VO","latitude":45.07118,"longitude":20.3251},{"name":"Sutjeska","countryCode":"RS","stateCode":"VO","latitude":45.38312,"longitude":20.6962},{"name":"Tabanović","countryCode":"RS","stateCode":"02","latitude":44.82018,"longitude":19.64128},{"name":"Taraš","countryCode":"RS","stateCode":"VO","latitude":45.46737,"longitude":20.19867},{"name":"Tiszahegyes","countryCode":"RS","stateCode":"VO","latitude":45.82648,"longitude":20.31791},{"name":"Titel","countryCode":"RS","stateCode":"VO","latitude":45.20611,"longitude":20.29444},{"name":"Toba","countryCode":"RS","stateCode":"VO","latitude":45.68943,"longitude":20.55714},{"name":"Tomaševac","countryCode":"RS","stateCode":"VO","latitude":45.26855,"longitude":20.62272},{"name":"Toplica","countryCode":"RS","stateCode":"02","latitude":43.14194,"longitude":21.27806},{"name":"Torak","countryCode":"RS","stateCode":"VO","latitude":45.50928,"longitude":20.609},{"name":"Torda","countryCode":"RS","stateCode":"VO","latitude":45.58423,"longitude":20.459},{"name":"Tršić","countryCode":"RS","stateCode":"02","latitude":44.49502,"longitude":19.2649},{"name":"Trstenik","countryCode":"RS","stateCode":"02","latitude":43.61694,"longitude":21.0025},{"name":"Turija","countryCode":"RS","stateCode":"02","latitude":44.52273,"longitude":21.63945},{"name":"Tutin","countryCode":"RS","stateCode":"02","latitude":42.99028,"longitude":20.33139},{"name":"Ugrinovci","countryCode":"RS","stateCode":"02","latitude":44.87635,"longitude":20.18763},{"name":"Uljma","countryCode":"RS","stateCode":"VO","latitude":45.04213,"longitude":21.15393},{"name":"Umka","countryCode":"RS","stateCode":"02","latitude":44.67806,"longitude":20.30472},{"name":"Uzdin","countryCode":"RS","stateCode":"VO","latitude":45.20512,"longitude":20.62342},{"name":"Užice","countryCode":"RS","stateCode":"02","latitude":43.85861,"longitude":19.84878},{"name":"Uzveće","countryCode":"RS","stateCode":"02","latitude":44.87861,"longitude":19.60356},{"name":"Valjevo","countryCode":"RS","stateCode":"02","latitude":44.27513,"longitude":19.89821},{"name":"Varna","countryCode":"RS","stateCode":"02","latitude":44.67914,"longitude":19.6515},{"name":"Velika Greda","countryCode":"RS","stateCode":"VO","latitude":45.24376,"longitude":21.03498},{"name":"Velika Moštanica","countryCode":"RS","stateCode":"02","latitude":44.66486,"longitude":20.35395},{"name":"Veliki Gaj","countryCode":"RS","stateCode":"VO","latitude":45.28849,"longitude":21.17057},{"name":"Veliko Središte","countryCode":"RS","stateCode":"VO","latitude":45.17919,"longitude":21.40353},{"name":"Veternik","countryCode":"RS","stateCode":"VO","latitude":45.25446,"longitude":19.7588},{"name":"Vilovo","countryCode":"RS","stateCode":"VO","latitude":45.24859,"longitude":20.15521},{"name":"Višnjićevo","countryCode":"RS","stateCode":"VO","latitude":44.96731,"longitude":19.28993},{"name":"Vladimirci","countryCode":"RS","stateCode":"02","latitude":44.61472,"longitude":19.78528},{"name":"Vladimirovac","countryCode":"RS","stateCode":"VO","latitude":45.03122,"longitude":20.86566},{"name":"Vlajkovac","countryCode":"RS","stateCode":"VO","latitude":45.07207,"longitude":21.19945},{"name":"Vojka","countryCode":"RS","stateCode":"VO","latitude":44.93713,"longitude":20.15236},{"name":"Vojvoda Stepa","countryCode":"RS","stateCode":"VO","latitude":45.68537,"longitude":20.65536},{"name":"Vranić","countryCode":"RS","stateCode":"02","latitude":44.60237,"longitude":20.32872},{"name":"Vranje","countryCode":"RS","stateCode":"02","latitude":42.55139,"longitude":21.90028},{"name":"Vrbas","countryCode":"RS","stateCode":"VO","latitude":45.57139,"longitude":19.64083},{"name":"Vrdnik","countryCode":"RS","stateCode":"VO","latitude":45.12174,"longitude":19.79227},{"name":"Vrnjačka Banja","countryCode":"RS","stateCode":"02","latitude":43.62725,"longitude":20.89634},{"name":"Vršac","countryCode":"RS","stateCode":"VO","latitude":45.11667,"longitude":21.30361},{"name":"Žabalj","countryCode":"RS","stateCode":"VO","latitude":45.37222,"longitude":20.06389},{"name":"Zaječar","countryCode":"RS","stateCode":"02","latitude":43.69917,"longitude":21.98778},{"name":"Zemun","countryCode":"RS","stateCode":"02","latitude":44.8458,"longitude":20.40116},{"name":"Žitište","countryCode":"RS","stateCode":"VO","latitude":45.485,"longitude":20.54972},{"name":"Zlatibor","countryCode":"RS","stateCode":"02","latitude":43.729,"longitude":19.70029},{"name":"Zmajevo","countryCode":"RS","stateCode":"VO","latitude":45.45408,"longitude":19.6905},{"name":"Zminjak","countryCode":"RS","stateCode":"02","latitude":44.75711,"longitude":19.4707},{"name":"Zrenjanin","countryCode":"RS","stateCode":"VO","latitude":45.38361,"longitude":20.38194},{"name":"Žujince","countryCode":"RS","stateCode":"02","latitude":42.31568,"longitude":21.70212},{"name":"Zvečka","countryCode":"RS","stateCode":"02","latitude":44.64025,"longitude":20.16432}]
