[{"name":"Ajdovščina","countryCode":"SI","stateCode":"001","latitude":45.88601,"longitude":13.90946},{"name":"Ankaran","countryCode":"SI","stateCode":"213","latitude":45.57861,"longitude":13.73611},{"name":"Apače","countryCode":"SI","stateCode":"195","latitude":46.69722,"longitude":15.91056},{"name":"Bakovci","countryCode":"SI","stateCode":"080","latitude":46.61889,"longitude":16.15028},{"name":"Beltinci","countryCode":"SI","stateCode":"002","latitude":46.60528,"longitude":16.24056},{"name":"Benedikt","countryCode":"SI","stateCode":"148","latitude":46.60861,"longitude":15.88833},{"name":"Bilje","countryCode":"SI","stateCode":"075","latitude":45.89444,"longitude":13.63222},{"name":"Bistrica ob Dravi","countryCode":"SI","stateCode":"108","latitude":46.55419,"longitude":15.54855},{"name":"Bistrica ob Sotli","countryCode":"SI","stateCode":"149","latitude":46.05889,"longitude":15.66417},{"name":"Bistrica pri Tržiču","countryCode":"SI","stateCode":"131","latitude":46.35472,"longitude":14.29167},{"name":"Bled","countryCode":"SI","stateCode":"003","latitude":46.36917,"longitude":14.11361},{"name":"Bohinjska Bistrica","countryCode":"SI","stateCode":"004","latitude":46.27216,"longitude":13.9535},{"name":"Borovnica","countryCode":"SI","stateCode":"005","latitude":45.91583,"longitude":14.36306},{"name":"Bovec","countryCode":"SI","stateCode":"006","latitude":46.33808,"longitude":13.55245},{"name":"Braslovče","countryCode":"SI","stateCode":"151","latitude":46.28972,"longitude":15.03889},{"name":"Bresternica","countryCode":"SI","stateCode":"070","latitude":46.56972,"longitude":15.575},{"name":"Brežice","countryCode":"SI","stateCode":"009","latitude":45.90333,"longitude":15.59111},{"name":"Brezovica pri Ljubljani","countryCode":"SI","stateCode":"008","latitude":46.03333,"longitude":14.4},{"name":"Britof","countryCode":"SI","stateCode":"052","latitude":46.26024,"longitude":14.39037},{"name":"Cankova","countryCode":"SI","stateCode":"152","latitude":46.72083,"longitude":16.0225},{"name":"Celje","countryCode":"SI","stateCode":"011","latitude":46.23092,"longitude":15.26044},{"name":"Cerklje na Gorenjskem","countryCode":"SI","stateCode":"012","latitude":46.25417,"longitude":14.48861},{"name":"Cerknica","countryCode":"SI","stateCode":"013","latitude":45.79306,"longitude":14.3625},{"name":"Cerkno","countryCode":"SI","stateCode":"014","latitude":46.12556,"longitude":13.98167},{"name":"Cerkvenjak","countryCode":"SI","stateCode":"153","latitude":46.57056,"longitude":15.94361},{"name":"Černelavci","countryCode":"SI","stateCode":"080","latitude":46.66667,"longitude":16.13333},{"name":"Cirkulane","countryCode":"SI","stateCode":"001","latitude":46.34408,"longitude":15.99472},{"name":"Črenšovci","countryCode":"SI","stateCode":"015","latitude":46.55794,"longitude":16.3041},{"name":"Črna na Koroškem","countryCode":"SI","stateCode":"016","latitude":46.47045,"longitude":14.85009},{"name":"Črnomelj","countryCode":"SI","stateCode":"017","latitude":45.57111,"longitude":15.18889},{"name":"Črnuče District","countryCode":"SI","stateCode":"186","latitude":46.11506,"longitude":14.55371},{"name":"Dekani","countryCode":"SI","stateCode":"050","latitude":45.54972,"longitude":13.81361},{"name":"Deskle","countryCode":"SI","stateCode":"044","latitude":46.05307,"longitude":13.61382},{"name":"Destrnik","countryCode":"SI","stateCode":"018","latitude":46.49254,"longitude":15.87893},{"name":"Divača","countryCode":"SI","stateCode":"019","latitude":45.68472,"longitude":13.97028},{"name":"Dob","countryCode":"SI","stateCode":"023","latitude":46.15194,"longitude":14.62861},{"name":"Dobje pri Planini","countryCode":"SI","stateCode":"154","latitude":46.13747,"longitude":15.39412},{"name":"Dobrna","countryCode":"SI","stateCode":"155","latitude":46.3375,"longitude":15.22639},{"name":"Dobrova","countryCode":"SI","stateCode":"021","latitude":46.0458,"longitude":14.39186},{"name":"Dobrovnik","countryCode":"SI","stateCode":"156","latitude":46.65139,"longitude":16.3525},{"name":"Dobrovo","countryCode":"SI","stateCode":"007","latitude":45.99639,"longitude":13.52639},{"name":"Dol pri Hrastniku","countryCode":"SI","stateCode":"034","latitude":46.14194,"longitude":15.11278},{"name":"Dol pri Ljubljani","countryCode":"SI","stateCode":"022","latitude":46.08861,"longitude":14.60083},{"name":"Dolenjske Toplice","countryCode":"SI","stateCode":"157","latitude":45.75657,"longitude":15.05917},{"name":"Domžale","countryCode":"SI","stateCode":"023","latitude":46.13774,"longitude":14.59371},{"name":"Dornava","countryCode":"SI","stateCode":"024","latitude":46.43667,"longitude":15.95361},{"name":"Dragomer","countryCode":"SI","stateCode":"004","latitude":46.01667,"longitude":14.38333},{"name":"Dravlje District","countryCode":"SI","stateCode":"061","latitude":46.0729,"longitude":14.44741},{"name":"Dravograd","countryCode":"SI","stateCode":"025","latitude":46.58806,"longitude":15.01917},{"name":"Fram","countryCode":"SI","stateCode":"098","latitude":46.456,"longitude":15.63007},{"name":"Gančani","countryCode":"SI","stateCode":"002","latitude":46.6325,"longitude":16.25111},{"name":"Golnik","countryCode":"SI","stateCode":"052","latitude":46.33333,"longitude":14.33333},{"name":"Gorenja Vas","countryCode":"SI","stateCode":"027","latitude":46.10722,"longitude":14.14806},{"name":"Gorišnica","countryCode":"SI","stateCode":"028","latitude":46.41472,"longitude":16.01389},{"name":"Gornja Radgona","countryCode":"SI","stateCode":"029","latitude":46.67333,"longitude":15.99222},{"name":"Gornji Grad","countryCode":"SI","stateCode":"030","latitude":46.29528,"longitude":14.80833},{"name":"Gornji Petrovci","countryCode":"SI","stateCode":"031","latitude":46.80528,"longitude":16.2225},{"name":"Gotovlje","countryCode":"SI","stateCode":"190","latitude":46.27418,"longitude":15.15186},{"name":"Grad","countryCode":"SI","stateCode":"158","latitude":46.8,"longitude":16.1},{"name":"Grosuplje","countryCode":"SI","stateCode":"032","latitude":45.95556,"longitude":14.65889},{"name":"Hodoš","countryCode":"SI","stateCode":"161","latitude":46.82333,"longitude":16.33417},{"name":"Horjul","countryCode":"SI","stateCode":"162","latitude":46.02361,"longitude":14.29917},{"name":"Hotinja Vas","countryCode":"SI","stateCode":"160","latitude":46.46667,"longitude":15.66667},{"name":"Hrastje","countryCode":"SI","stateCode":"117","latitude":46.21667,"longitude":14.4},{"name":"Hrastnik","countryCode":"SI","stateCode":"034","latitude":46.14611,"longitude":15.08139},{"name":"Hrib-Loški Potok","countryCode":"SI","stateCode":"066","latitude":45.70688,"longitude":14.61674},{"name":"Hrušica","countryCode":"SI","stateCode":"041","latitude":46.445,"longitude":14.01778},{"name":"Hrvatini","countryCode":"SI","stateCode":"050","latitude":45.58278,"longitude":13.75667},{"name":"Idrija","countryCode":"SI","stateCode":"036","latitude":46.00278,"longitude":14.03056},{"name":"Ig","countryCode":"SI","stateCode":"037","latitude":45.96028,"longitude":14.52889},{"name":"Ilirska Bistrica","countryCode":"SI","stateCode":"038","latitude":45.56757,"longitude":14.24571},{"name":"Ivančna Gorica","countryCode":"SI","stateCode":"039","latitude":45.93833,"longitude":14.80444},{"name":"Izlake","countryCode":"SI","stateCode":"142","latitude":46.15,"longitude":14.95},{"name":"Izola","countryCode":"SI","stateCode":"040","latitude":45.53694,"longitude":13.66194},{"name":"Jagodje","countryCode":"SI","stateCode":"040","latitude":45.52845,"longitude":13.64721},{"name":"Jarše District","countryCode":"SI","stateCode":"061","latitude":46.07345,"longitude":14.55431},{"name":"Jesenice","countryCode":"SI","stateCode":"041","latitude":46.43056,"longitude":14.06694},{"name":"Juršinci","countryCode":"SI","stateCode":"042","latitude":46.48472,"longitude":15.97139},{"name":"Kamnica","countryCode":"SI","stateCode":"070","latitude":46.57444,"longitude":15.61417},{"name":"Kamnik","countryCode":"SI","stateCode":"043","latitude":46.22587,"longitude":14.61207},{"name":"Kanal","countryCode":"SI","stateCode":"044","latitude":46.08861,"longitude":13.63972},{"name":"Kidričevo","countryCode":"SI","stateCode":"045","latitude":46.40361,"longitude":15.79111},{"name":"Kisovec","countryCode":"SI","stateCode":"142","latitude":46.13911,"longitude":14.96295},{"name":"Kobarid","countryCode":"SI","stateCode":"046","latitude":46.24761,"longitude":13.57907},{"name":"Kobilje","countryCode":"SI","stateCode":"047","latitude":46.68472,"longitude":16.39778},{"name":"Kočevje","countryCode":"SI","stateCode":"048","latitude":45.64333,"longitude":14.86333},{"name":"Kokrica","countryCode":"SI","stateCode":"052","latitude":46.27028,"longitude":14.36111},{"name":"Komen","countryCode":"SI","stateCode":"049","latitude":45.81528,"longitude":13.74833},{"name":"Komenda","countryCode":"SI","stateCode":"164","latitude":46.20484,"longitude":14.53839},{"name":"Koper","countryCode":"SI","stateCode":"050","latitude":45.54694,"longitude":13.72944},{"name":"Koroška Bela","countryCode":"SI","stateCode":"041","latitude":46.44913,"longitude":14.11135},{"name":"Kostanjevica na Krki","countryCode":"SI","stateCode":"003","latitude":45.84611,"longitude":15.42222},{"name":"Kostel","countryCode":"SI","stateCode":"165","latitude":45.50842,"longitude":14.91005},{"name":"Kotlje","countryCode":"SI","stateCode":"103","latitude":46.52139,"longitude":14.98694},{"name":"Kozina","countryCode":"SI","stateCode":"035","latitude":45.61,"longitude":13.93556},{"name":"Kozje","countryCode":"SI","stateCode":"051","latitude":46.075,"longitude":15.56028},{"name":"Kranj","countryCode":"SI","stateCode":"052","latitude":46.23887,"longitude":14.35561},{"name":"Kranjska Gora","countryCode":"SI","stateCode":"053","latitude":46.45689,"longitude":13.77824},{"name":"Križevci pri Ljutomeru","countryCode":"SI","stateCode":"166","latitude":46.56833,"longitude":16.13861},{"name":"Krog","countryCode":"SI","stateCode":"080","latitude":46.63806,"longitude":16.14139},{"name":"Kromberk","countryCode":"SI","stateCode":"084","latitude":45.96083,"longitude":13.66556},{"name":"Krško","countryCode":"SI","stateCode":"054","latitude":45.95915,"longitude":15.49167},{"name":"Kuzma","countryCode":"SI","stateCode":"056","latitude":46.83694,"longitude":16.08333},{"name":"Laško","countryCode":"SI","stateCode":"057","latitude":46.15463,"longitude":15.23555},{"name":"Lavrica","countryCode":"SI","stateCode":"123","latitude":46.00002,"longitude":14.5573},{"name":"Legen","countryCode":"SI","stateCode":"112","latitude":46.50651,"longitude":15.14424},{"name":"Lenart v Slov. Goricah","countryCode":"SI","stateCode":"058","latitude":46.57611,"longitude":15.83139},{"name":"Lendava","countryCode":"SI","stateCode":"059","latitude":46.56494,"longitude":16.45091},{"name":"Lesce","countryCode":"SI","stateCode":"102","latitude":46.36111,"longitude":14.15778},{"name":"Leskova Dolina","countryCode":"SI","stateCode":"065","latitude":45.62139,"longitude":14.46056},{"name":"Leskovec pri Krškem","countryCode":"SI","stateCode":"054","latitude":45.93566,"longitude":15.47184},{"name":"Limbuš","countryCode":"SI","stateCode":"070","latitude":46.55361,"longitude":15.58361},{"name":"Lipovci","countryCode":"SI","stateCode":"002","latitude":46.62833,"longitude":16.22806},{"name":"Litija","countryCode":"SI","stateCode":"060","latitude":46.05861,"longitude":14.8225},{"name":"Ljubečna","countryCode":"SI","stateCode":"011","latitude":46.25567,"longitude":15.3243},{"name":"Ljubljana","countryCode":"SI","stateCode":"061","latitude":46.05108,"longitude":14.50513},{"name":"Ljubno ob Savinji","countryCode":"SI","stateCode":"062","latitude":46.34358,"longitude":14.83377},{"name":"Ljutomer","countryCode":"SI","stateCode":"063","latitude":46.52083,"longitude":16.1975},{"name":"Log pri Brezovici","countryCode":"SI","stateCode":"004","latitude":46.01667,"longitude":14.36667},{"name":"Logatec","countryCode":"SI","stateCode":"064","latitude":45.91444,"longitude":14.22583},{"name":"Lokavec","countryCode":"SI","stateCode":"001","latitude":45.90167,"longitude":13.87972},{"name":"Lovrenc na Pohorju","countryCode":"SI","stateCode":"167","latitude":46.54056,"longitude":15.39306},{"name":"Luče","countryCode":"SI","stateCode":"067","latitude":46.35611,"longitude":14.74667},{"name":"Lucija","countryCode":"SI","stateCode":"090","latitude":45.50526,"longitude":13.6024},{"name":"Lukovica pri Domžalah","countryCode":"SI","stateCode":"068","latitude":46.16988,"longitude":14.69179},{"name":"Majšperk","countryCode":"SI","stateCode":"069","latitude":46.35167,"longitude":15.73361},{"name":"Makole","countryCode":"SI","stateCode":"005","latitude":46.31722,"longitude":15.66722},{"name":"Maribor","countryCode":"SI","stateCode":"070","latitude":46.55472,"longitude":15.64667},{"name":"Markovci","countryCode":"SI","stateCode":"168","latitude":46.39557,"longitude":15.92831},{"name":"Medvode","countryCode":"SI","stateCode":"071","latitude":46.1422,"longitude":14.41114},{"name":"Mekinje","countryCode":"SI","stateCode":"043","latitude":46.23333,"longitude":14.61667},{"name":"Mengeš","countryCode":"SI","stateCode":"072","latitude":46.16694,"longitude":14.575},{"name":"Metlika","countryCode":"SI","stateCode":"073","latitude":45.64722,"longitude":15.31417},{"name":"Mežica","countryCode":"SI","stateCode":"074","latitude":46.52139,"longitude":14.85444},{"name":"Miklavž na Dravskem Polju","countryCode":"SI","stateCode":"169","latitude":46.50583,"longitude":15.69722},{"name":"Miren","countryCode":"SI","stateCode":"075","latitude":45.89556,"longitude":13.6075},{"name":"Mirna","countryCode":"SI","stateCode":"006","latitude":45.95528,"longitude":15.06194},{"name":"Mirna Peč","countryCode":"SI","stateCode":"170","latitude":45.86028,"longitude":15.08333},{"name":"Mislinja","countryCode":"SI","stateCode":"076","latitude":46.44141,"longitude":15.20027},{"name":"Mlaka pri Kranju","countryCode":"SI","stateCode":"052","latitude":46.28333,"longitude":14.35},{"name":"Mojstrana","countryCode":"SI","stateCode":"053","latitude":46.42383,"longitude":13.8752},{"name":"Mokronog","countryCode":"SI","stateCode":"007","latitude":45.93417,"longitude":15.14083},{"name":"Moravče","countryCode":"SI","stateCode":"077","latitude":46.13694,"longitude":14.745},{"name":"Moravske Toplice","countryCode":"SI","stateCode":"078","latitude":46.68313,"longitude":16.2208},{"name":"Morje","countryCode":"SI","stateCode":"098","latitude":46.44444,"longitude":15.62139},{"name":"Moste","countryCode":"SI","stateCode":"164","latitude":46.195,"longitude":14.55139},{"name":"Mozirje","countryCode":"SI","stateCode":"079","latitude":46.33944,"longitude":14.96333},{"name":"Murska Sobota","countryCode":"SI","stateCode":"080","latitude":46.6625,"longitude":16.16639},{"name":"Muta","countryCode":"SI","stateCode":"081","latitude":46.61139,"longitude":15.16611},{"name":"Naklo","countryCode":"SI","stateCode":"082","latitude":46.27278,"longitude":14.31722},{"name":"Nazarje","countryCode":"SI","stateCode":"083","latitude":46.31757,"longitude":14.94674},{"name":"Notranje Gorice","countryCode":"SI","stateCode":"008","latitude":45.9875,"longitude":14.39889},{"name":"Nova Gorica","countryCode":"SI","stateCode":"084","latitude":45.95604,"longitude":13.64837},{"name":"Nova Vas","countryCode":"SI","stateCode":"150","latitude":45.77167,"longitude":14.50583},{"name":"Novo Mesto","countryCode":"SI","stateCode":"085","latitude":45.80397,"longitude":15.16886},{"name":"Odranci","countryCode":"SI","stateCode":"086","latitude":46.58667,"longitude":16.28028},{"name":"Opčina Ljubljana-Bežigrad","countryCode":"SI","stateCode":"061","latitude":46.08333,"longitude":14.53333},{"name":"Oplotnica","countryCode":"SI","stateCode":"171","latitude":46.38778,"longitude":15.44667},{"name":"Opština [historical] Ljubljana-Šiška","countryCode":"SI","stateCode":"071","latitude":46.16667,"longitude":14.43333},{"name":"Opština Ljubljana-Center","countryCode":"SI","stateCode":"061","latitude":46.05,"longitude":14.53333},{"name":"Opština Ljubljana-Moste-Polje","countryCode":"SI","stateCode":"061","latitude":46.06667,"longitude":14.61667},{"name":"Opština Ljubljana-Vič-Rudnik","countryCode":"SI","stateCode":"008","latitude":46.03333,"longitude":14.41667},{"name":"Ormož","countryCode":"SI","stateCode":"087","latitude":46.41139,"longitude":16.15444},{"name":"Osilnica","countryCode":"SI","stateCode":"088","latitude":45.52914,"longitude":14.69838},{"name":"Pameče","countryCode":"SI","stateCode":"112","latitude":46.53417,"longitude":15.07917},{"name":"Pekre","countryCode":"SI","stateCode":"070","latitude":46.54722,"longitude":15.59556},{"name":"Pesnica pri Mariboru","countryCode":"SI","stateCode":"089","latitude":46.60694,"longitude":15.67667},{"name":"Piran","countryCode":"SI","stateCode":"090","latitude":45.52778,"longitude":13.57056},{"name":"Pivka","countryCode":"SI","stateCode":"091","latitude":45.68292,"longitude":14.19588},{"name":"Pobegi","countryCode":"SI","stateCode":"050","latitude":45.53944,"longitude":13.79611},{"name":"Podčetrtek","countryCode":"SI","stateCode":"092","latitude":46.15694,"longitude":15.59861},{"name":"Podlehnik","countryCode":"SI","stateCode":"172","latitude":46.33528,"longitude":15.88},{"name":"Podvelka","countryCode":"SI","stateCode":"093","latitude":46.58694,"longitude":15.33056},{"name":"Poljčane","countryCode":"SI","stateCode":"009","latitude":46.31194,"longitude":15.57917},{"name":"Polzela","countryCode":"SI","stateCode":"173","latitude":46.28333,"longitude":15.06667},{"name":"Portorož","countryCode":"SI","stateCode":"090","latitude":45.51429,"longitude":13.59206},{"name":"Postojna","countryCode":"SI","stateCode":"094","latitude":45.77435,"longitude":14.21528},{"name":"Prade","countryCode":"SI","stateCode":"050","latitude":45.54003,"longitude":13.77607},{"name":"Pragersko","countryCode":"SI","stateCode":"113","latitude":46.39667,"longitude":15.66},{"name":"Prebold","countryCode":"SI","stateCode":"174","latitude":46.23694,"longitude":15.0925},{"name":"Preddvor","countryCode":"SI","stateCode":"095","latitude":46.3025,"longitude":14.42306},{"name":"Preserje pri Radomljah","countryCode":"SI","stateCode":"072","latitude":46.16911,"longitude":14.59698},{"name":"Prevalje","countryCode":"SI","stateCode":"175","latitude":46.54694,"longitude":14.92083},{"name":"Prvačina","countryCode":"SI","stateCode":"084","latitude":45.89,"longitude":13.71806},{"name":"Ptuj","countryCode":"SI","stateCode":"096","latitude":46.42005,"longitude":15.87018},{"name":"Puconci","countryCode":"SI","stateCode":"097","latitude":46.70667,"longitude":16.15639},{"name":"Rače","countryCode":"SI","stateCode":"098","latitude":46.45194,"longitude":15.68139},{"name":"Radeče","countryCode":"SI","stateCode":"099","latitude":46.06806,"longitude":15.18389},{"name":"Radenci","countryCode":"SI","stateCode":"100","latitude":46.64201,"longitude":16.03781},{"name":"Radizel","countryCode":"SI","stateCode":"160","latitude":46.47444,"longitude":15.65583},{"name":"Radlje ob Dravi","countryCode":"SI","stateCode":"101","latitude":46.61417,"longitude":15.22639},{"name":"Radomlje","countryCode":"SI","stateCode":"023","latitude":46.17361,"longitude":14.61222},{"name":"Radovljica","countryCode":"SI","stateCode":"102","latitude":46.34444,"longitude":14.17444},{"name":"Rakek","countryCode":"SI","stateCode":"013","latitude":45.81333,"longitude":14.31111},{"name":"Rakičan","countryCode":"SI","stateCode":"080","latitude":46.65167,"longitude":16.20417},{"name":"Ravne","countryCode":"SI","stateCode":"126","latitude":46.41413,"longitude":15.06087},{"name":"Ravne na Koroškem","countryCode":"SI","stateCode":"103","latitude":46.54306,"longitude":14.96917},{"name":"Razkrižje","countryCode":"SI","stateCode":"176","latitude":46.52167,"longitude":16.28111},{"name":"Razvanje","countryCode":"SI","stateCode":"070","latitude":46.51444,"longitude":15.63611},{"name":"Rečica ob Savinji","countryCode":"SI","stateCode":"008","latitude":46.31667,"longitude":14.91667},{"name":"Renče","countryCode":"SI","stateCode":"201","latitude":45.89,"longitude":13.66861},{"name":"Ribnica","countryCode":"SI","stateCode":"104","latitude":45.73861,"longitude":14.7275},{"name":"Ribnica na Pohorju","countryCode":"SI","stateCode":"177","latitude":46.535,"longitude":15.27278},{"name":"Rogaška Slatina","countryCode":"SI","stateCode":"106","latitude":46.2375,"longitude":15.63972},{"name":"Rogašovci","countryCode":"SI","stateCode":"105","latitude":46.8,"longitude":16.03333},{"name":"Rogatec","countryCode":"SI","stateCode":"107","latitude":46.22944,"longitude":15.70028},{"name":"Rogoza","countryCode":"SI","stateCode":"160","latitude":46.5,"longitude":15.68333},{"name":"Rožna Dolina","countryCode":"SI","stateCode":"183","latitude":45.94194,"longitude":13.66779},{"name":"Rožnik District","countryCode":"SI","stateCode":"061","latitude":46.05999,"longitude":14.46779},{"name":"Ruše","countryCode":"SI","stateCode":"108","latitude":46.53944,"longitude":15.51583},{"name":"Šalovci","countryCode":"SI","stateCode":"033","latitude":46.825,"longitude":16.29806},{"name":"Seča","countryCode":"SI","stateCode":"090","latitude":45.49584,"longitude":13.61466},{"name":"Selnica ob Dravi","countryCode":"SI","stateCode":"178","latitude":46.55,"longitude":15.495},{"name":"Selnica ob Muri","countryCode":"SI","stateCode":"118","latitude":46.68333,"longitude":15.7},{"name":"Semič","countryCode":"SI","stateCode":"109","latitude":45.64611,"longitude":15.18222},{"name":"Šempas","countryCode":"SI","stateCode":"084","latitude":45.93028,"longitude":13.74361},{"name":"Šempeter pri Gorici","countryCode":"SI","stateCode":"183","latitude":45.9275,"longitude":13.64111},{"name":"Šempeter v Savinj. Dolini","countryCode":"SI","stateCode":"190","latitude":46.25639,"longitude":15.12194},{"name":"Šenčur","countryCode":"SI","stateCode":"117","latitude":46.24556,"longitude":14.41972},{"name":"Senovo","countryCode":"SI","stateCode":"054","latitude":46.02361,"longitude":15.47694},{"name":"Šentilj v Slov. Goricah","countryCode":"SI","stateCode":"118","latitude":46.68167,"longitude":15.64806},{"name":"Šentjernej","countryCode":"SI","stateCode":"119","latitude":45.84,"longitude":15.33611},{"name":"Šentjur","countryCode":"SI","stateCode":"120","latitude":46.21722,"longitude":15.3975},{"name":"Šentrupert","countryCode":"SI","stateCode":"211","latitude":45.97778,"longitude":15.09556},{"name":"Šentvid District","countryCode":"SI","stateCode":"061","latitude":46.10559,"longitude":14.43329},{"name":"Šentvid pri Stični","countryCode":"SI","stateCode":"039","latitude":45.95004,"longitude":14.84344},{"name":"Sevnica","countryCode":"SI","stateCode":"110","latitude":46.00778,"longitude":15.31556},{"name":"Sežana","countryCode":"SI","stateCode":"111","latitude":45.70924,"longitude":13.87333},{"name":"Škocjan","countryCode":"SI","stateCode":"121","latitude":45.90667,"longitude":15.29139},{"name":"Škofja Loka","countryCode":"SI","stateCode":"122","latitude":46.16551,"longitude":14.30626},{"name":"Škofljica","countryCode":"SI","stateCode":"123","latitude":45.98333,"longitude":14.57667},{"name":"Slovenj Gradec","countryCode":"SI","stateCode":"112","latitude":46.51028,"longitude":15.08056},{"name":"Slovenska Bistrica","countryCode":"SI","stateCode":"113","latitude":46.39278,"longitude":15.57444},{"name":"Slovenske Konjice","countryCode":"SI","stateCode":"114","latitude":46.33667,"longitude":15.42583},{"name":"Slovenski Javornik","countryCode":"SI","stateCode":"041","latitude":46.42611,"longitude":14.08722},{"name":"Šmarca","countryCode":"SI","stateCode":"043","latitude":46.19333,"longitude":14.59667},{"name":"Šmarje pri Jelšah","countryCode":"SI","stateCode":"124","latitude":46.22722,"longitude":15.51917},{"name":"Šmarje-Sap","countryCode":"SI","stateCode":"032","latitude":45.97618,"longitude":14.61177},{"name":"Šmarjeta","countryCode":"SI","stateCode":"206","latitude":45.88333,"longitude":15.25},{"name":"Šmartno ob Paki","countryCode":"SI","stateCode":"125","latitude":46.33333,"longitude":15.03333},{"name":"Šmartno pri Litiji","countryCode":"SI","stateCode":"194","latitude":46.04444,"longitude":14.84417},{"name":"Šmartno pri Slovenj Gradcu","countryCode":"SI","stateCode":"112","latitude":46.48944,"longitude":15.10667},{"name":"Sodražica","countryCode":"SI","stateCode":"179","latitude":45.76111,"longitude":14.63556},{"name":"Solčava","countryCode":"SI","stateCode":"180","latitude":46.41944,"longitude":14.69361},{"name":"Solkan","countryCode":"SI","stateCode":"084","latitude":45.97139,"longitude":13.64944},{"name":"Šoštanj","countryCode":"SI","stateCode":"126","latitude":46.38,"longitude":15.04861},{"name":"Sostro District","countryCode":"SI","stateCode":"061","latitude":46.04341,"longitude":14.67293},{"name":"Spodnja Hajdina","countryCode":"SI","stateCode":"159","latitude":46.40889,"longitude":15.84694},{"name":"Spodnja Idrija","countryCode":"SI","stateCode":"036","latitude":46.03194,"longitude":14.02722},{"name":"Spodnje Hoče","countryCode":"SI","stateCode":"160","latitude":46.5,"longitude":15.65},{"name":"Spodnje Škofije","countryCode":"SI","stateCode":"050","latitude":45.57167,"longitude":13.7925},{"name":"Spodnji Duplek","countryCode":"SI","stateCode":"026","latitude":46.50306,"longitude":15.74528},{"name":"Središče ob Dravi","countryCode":"SI","stateCode":"202","latitude":46.39417,"longitude":16.26806},{"name":"Starše","countryCode":"SI","stateCode":"115","latitude":46.46583,"longitude":15.76722},{"name":"Štore","countryCode":"SI","stateCode":"127","latitude":46.22083,"longitude":15.31389},{"name":"Straža","countryCode":"SI","stateCode":"203","latitude":45.78,"longitude":15.07278},{"name":"Sv. Ana v Slov. Goricah","countryCode":"SI","stateCode":"181","latitude":46.64917,"longitude":15.84417},{"name":"Sv. Anton","countryCode":"SI","stateCode":"050","latitude":45.52583,"longitude":13.83194},{"name":"Sv. Duh","countryCode":"SI","stateCode":"122","latitude":46.18333,"longitude":14.33333},{"name":"Sv. Trojica v Slov. Goricah","countryCode":"SI","stateCode":"204","latitude":46.57667,"longitude":15.87694},{"name":"Sveti Jurij ob Ščavnici","countryCode":"SI","stateCode":"210","latitude":46.5695,"longitude":16.02347},{"name":"Sveti Tomaž","countryCode":"SI","stateCode":"205","latitude":46.48417,"longitude":16.08361},{"name":"Tabor","countryCode":"SI","stateCode":"184","latitude":46.23611,"longitude":15.01833},{"name":"Tišina","countryCode":"SI","stateCode":"010","latitude":46.65806,"longitude":16.09167},{"name":"Tolmin","countryCode":"SI","stateCode":"128","latitude":46.18304,"longitude":13.73321},{"name":"Topolšica","countryCode":"SI","stateCode":"126","latitude":46.40028,"longitude":15.02157},{"name":"Trbovlje","countryCode":"SI","stateCode":"129","latitude":46.155,"longitude":15.05333},{"name":"Trebnje","countryCode":"SI","stateCode":"130","latitude":45.90417,"longitude":15.02167},{"name":"Trnovlje pri Celju","countryCode":"SI","stateCode":"011","latitude":46.25667,"longitude":15.29528},{"name":"Trnovo District","countryCode":"SI","stateCode":"061","latitude":46.02412,"longitude":14.48891},{"name":"Trnovska Vas","countryCode":"SI","stateCode":"185","latitude":46.52019,"longitude":15.88657},{"name":"Tržič","countryCode":"SI","stateCode":"131","latitude":46.36357,"longitude":14.31046},{"name":"Trzin","countryCode":"SI","stateCode":"186","latitude":46.13333,"longitude":14.56667},{"name":"Turnišče","countryCode":"SI","stateCode":"132","latitude":46.62778,"longitude":16.32028},{"name":"Velika Polana","countryCode":"SI","stateCode":"187","latitude":46.57194,"longitude":16.34694},{"name":"Velike Lašče","countryCode":"SI","stateCode":"134","latitude":45.83222,"longitude":14.63639},{"name":"Verd","countryCode":"SI","stateCode":"140","latitude":45.95667,"longitude":14.30583},{"name":"Veržej","countryCode":"SI","stateCode":"188","latitude":46.58361,"longitude":16.16528},{"name":"Vič District","countryCode":"SI","stateCode":"061","latitude":46.00779,"longitude":14.46968},{"name":"Videm","countryCode":"SI","stateCode":"020","latitude":45.85,"longitude":14.69417},{"name":"Videm pri Ptuju","countryCode":"SI","stateCode":"135","latitude":46.36861,"longitude":15.90639},{"name":"Vipava","countryCode":"SI","stateCode":"136","latitude":45.84667,"longitude":13.96306},{"name":"Vir","countryCode":"SI","stateCode":"023","latitude":46.15325,"longitude":14.60741},{"name":"Vitanje","countryCode":"SI","stateCode":"137","latitude":46.38167,"longitude":15.29583},{"name":"Vitomarci","countryCode":"SI","stateCode":"182","latitude":46.5275,"longitude":15.93944},{"name":"Vnanje Gorice","countryCode":"SI","stateCode":"008","latitude":46.00722,"longitude":14.42194},{"name":"Vodice","countryCode":"SI","stateCode":"138","latitude":46.18987,"longitude":14.49492},{"name":"Vojnik","countryCode":"SI","stateCode":"139","latitude":46.29333,"longitude":15.30333},{"name":"Volčja Draga","countryCode":"SI","stateCode":"201","latitude":45.90694,"longitude":13.6775},{"name":"Vransko","countryCode":"SI","stateCode":"189","latitude":46.24389,"longitude":14.95139},{"name":"Vrhnika","countryCode":"SI","stateCode":"140","latitude":45.9635,"longitude":14.29484},{"name":"Vrtojba","countryCode":"SI","stateCode":"183","latitude":45.9125,"longitude":13.63417},{"name":"Vuzenica","countryCode":"SI","stateCode":"141","latitude":46.59639,"longitude":15.16722},{"name":"Zabukovica","countryCode":"SI","stateCode":"190","latitude":46.21408,"longitude":15.15954},{"name":"Zagorje ob Savi","countryCode":"SI","stateCode":"142","latitude":46.13179,"longitude":14.99694},{"name":"Žalec","countryCode":"SI","stateCode":"190","latitude":46.25151,"longitude":15.16482},{"name":"Zasip","countryCode":"SI","stateCode":"003","latitude":46.39284,"longitude":14.10869},{"name":"Zavrč","countryCode":"SI","stateCode":"143","latitude":46.39167,"longitude":16.04972},{"name":"Železniki","countryCode":"SI","stateCode":"146","latitude":46.22482,"longitude":14.17205},{"name":"Žetale","countryCode":"SI","stateCode":"191","latitude":46.27356,"longitude":15.82658},{"name":"Zgornja Kungota","countryCode":"SI","stateCode":"055","latitude":46.63917,"longitude":15.61556},{"name":"Zgornja Polskava","countryCode":"SI","stateCode":"113","latitude":46.42556,"longitude":15.61222},{"name":"Zgornje Bitnje","countryCode":"SI","stateCode":"052","latitude":46.22,"longitude":14.33667},{"name":"Zgornje Gorje","countryCode":"SI","stateCode":"002","latitude":46.37962,"longitude":14.06937},{"name":"Zgornje Jezersko","countryCode":"SI","stateCode":"163","latitude":46.3941,"longitude":14.50659},{"name":"Zgornje Pirniče","countryCode":"SI","stateCode":"071","latitude":46.14251,"longitude":14.43158},{"name":"Zgornji Duplek","countryCode":"SI","stateCode":"026","latitude":46.51361,"longitude":15.72083},{"name":"Žiri","countryCode":"SI","stateCode":"147","latitude":46.04222,"longitude":14.10722},{"name":"Žirovnica","countryCode":"SI","stateCode":"192","latitude":46.40472,"longitude":14.14},{"name":"Zreče","countryCode":"SI","stateCode":"144","latitude":46.38222,"longitude":15.37917},{"name":"Žužemberk","countryCode":"SI","stateCode":"193","latitude":45.83389,"longitude":14.92917}]
