[{"name":"Bánovce nad Bebravou","countryCode":"SK","stateCode":"TC","latitude":48.7213,"longitude":18.25754},{"name":"Banská Bystrica","countryCode":"SK","stateCode":"BC","latitude":48.73946,"longitude":19.15349},{"name":"Banská Štiavnica","countryCode":"SK","stateCode":"BC","latitude":48.44858,"longitude":18.91003},{"name":"Bardejov","countryCode":"SK","stateCode":"PV","latitude":49.29175,"longitude":21.27271},{"name":"Bojnice","countryCode":"SK","stateCode":"TC","latitude":48.78511,"longitude":18.5864},{"name":"Bratislava","countryCode":"SK","stateCode":"BL","latitude":48.14816,"longitude":17.10674},{"name":"Bratislava - Vajnory","countryCode":"SK","stateCode":"BL","latitude":48.20563,"longitude":17.20759},{"name":"Brezno","countryCode":"SK","stateCode":"BC","latitude":48.80431,"longitude":19.63631},{"name":"Brezová pod Bradlom","countryCode":"SK","stateCode":"TC","latitude":48.66349,"longitude":17.53905},{"name":"Bytča","countryCode":"SK","stateCode":"ZI","latitude":49.22404,"longitude":18.55878},{"name":"Čachtice","countryCode":"SK","stateCode":"TC","latitude":48.71226,"longitude":17.78704},{"name":"Čadca","countryCode":"SK","stateCode":"ZI","latitude":49.43503,"longitude":18.78895},{"name":"Chlmec","countryCode":"SK","stateCode":"PV","latitude":48.88628,"longitude":21.9393},{"name":"Čierna nad Tisou","countryCode":"SK","stateCode":"KI","latitude":48.41704,"longitude":22.08865},{"name":"Čierny Balog","countryCode":"SK","stateCode":"BC","latitude":48.74722,"longitude":19.65125},{"name":"Detva","countryCode":"SK","stateCode":"BC","latitude":48.56082,"longitude":19.41954},{"name":"Dobšiná","countryCode":"SK","stateCode":"KI","latitude":48.82073,"longitude":20.36988},{"name":"Dolný Kubín","countryCode":"SK","stateCode":"ZI","latitude":49.20983,"longitude":19.30341},{"name":"Dubnica nad Váhom","countryCode":"SK","stateCode":"TC","latitude":48.95981,"longitude":18.16634},{"name":"Dudince","countryCode":"SK","stateCode":"BC","latitude":48.17135,"longitude":18.88782},{"name":"Dunajská Lužná","countryCode":"SK","stateCode":"BL","latitude":48.08347,"longitude":17.26072},{"name":"Dunajská Streda","countryCode":"SK","stateCode":"TA","latitude":47.99268,"longitude":17.61211},{"name":"Fiľakovo","countryCode":"SK","stateCode":"BC","latitude":48.26757,"longitude":19.82473},{"name":"Gabčíkovo","countryCode":"SK","stateCode":"TA","latitude":47.89211,"longitude":17.57884},{"name":"Galanta","countryCode":"SK","stateCode":"TA","latitude":48.19001,"longitude":17.72747},{"name":"Gbely","countryCode":"SK","stateCode":"TA","latitude":48.718,"longitude":17.11628},{"name":"Gelnica","countryCode":"SK","stateCode":"KI","latitude":48.85584,"longitude":20.93713},{"name":"Giraltovce","countryCode":"SK","stateCode":"PV","latitude":49.11398,"longitude":21.51731},{"name":"Handlová","countryCode":"SK","stateCode":"TC","latitude":48.7276,"longitude":18.76012},{"name":"Hlohovec","countryCode":"SK","stateCode":"TA","latitude":48.43174,"longitude":17.8031},{"name":"Holíč","countryCode":"SK","stateCode":"TA","latitude":48.81105,"longitude":17.16238},{"name":"Hriňová","countryCode":"SK","stateCode":"BC","latitude":48.57787,"longitude":19.52574},{"name":"Hrochoť,Slovakia","countryCode":"SK","stateCode":"BC","latitude":48.65567,"longitude":19.31284},{"name":"Humenné","countryCode":"SK","stateCode":"PV","latitude":48.93707,"longitude":21.91625},{"name":"Hurbanovo","countryCode":"SK","stateCode":"NI","latitude":47.86984,"longitude":18.19233},{"name":"Hybe","countryCode":"SK","stateCode":"ZI","latitude":49.04439,"longitude":19.82895},{"name":"Ilava","countryCode":"SK","stateCode":"TC","latitude":48.99769,"longitude":18.2353},{"name":"Ivanka pri Dunaji","countryCode":"SK","stateCode":"BL","latitude":48.18675,"longitude":17.2554},{"name":"Kavečany","countryCode":"SK","stateCode":"KI","latitude":48.77592,"longitude":21.20587},{"name":"Kežmarok","countryCode":"SK","stateCode":"PV","latitude":49.13571,"longitude":20.43352},{"name":"Kolárovo","countryCode":"SK","stateCode":"NI","latitude":47.92294,"longitude":17.98467},{"name":"Komárno","countryCode":"SK","stateCode":"NI","latitude":47.76356,"longitude":18.12263},{"name":"Košice","countryCode":"SK","stateCode":"KI","latitude":48.71395,"longitude":21.25808},{"name":"Košice I","countryCode":"SK","stateCode":"KI","latitude":48.72914,"longitude":21.25004},{"name":"Košice II","countryCode":"SK","stateCode":"KI","latitude":48.69753,"longitude":21.22273},{"name":"Košice III","countryCode":"SK","stateCode":"KI","latitude":48.73242,"longitude":21.29047},{"name":"Košice IV","countryCode":"SK","stateCode":"KI","latitude":48.68691,"longitude":21.2657},{"name":"Kováčová","countryCode":"SK","stateCode":"BC","latitude":48.60148,"longitude":19.10252},{"name":"Krasňany","countryCode":"SK","stateCode":"ZI","latitude":49.21491,"longitude":18.88718},{"name":"Kremnica","countryCode":"SK","stateCode":"BC","latitude":48.70519,"longitude":18.91834},{"name":"Krompachy","countryCode":"SK","stateCode":"KI","latitude":48.91447,"longitude":20.87514},{"name":"Krupina","countryCode":"SK","stateCode":"BC","latitude":48.3554,"longitude":19.06474},{"name":"Kysucké Nové Mesto","countryCode":"SK","stateCode":"ZI","latitude":49.3,"longitude":18.78333},{"name":"Lehota pod Vtáčnikom","countryCode":"SK","stateCode":"TC","latitude":48.69138,"longitude":18.59944},{"name":"Leopoldov","countryCode":"SK","stateCode":"TA","latitude":48.44575,"longitude":17.76458},{"name":"Levice","countryCode":"SK","stateCode":"NI","latitude":48.21563,"longitude":18.60705},{"name":"Levoča","countryCode":"SK","stateCode":"PV","latitude":49.02173,"longitude":20.59212},{"name":"Lipany","countryCode":"SK","stateCode":"PV","latitude":49.15376,"longitude":20.96382},{"name":"Liptovský Hrádok","countryCode":"SK","stateCode":"ZI","latitude":49.03962,"longitude":19.72335},{"name":"Liptovský Mikuláš","countryCode":"SK","stateCode":"ZI","latitude":49.08061,"longitude":19.62218},{"name":"Ľubica","countryCode":"SK","stateCode":"PV","latitude":49.11667,"longitude":20.45},{"name":"Lučenec","countryCode":"SK","stateCode":"BC","latitude":48.33249,"longitude":19.66708},{"name":"Lúčky","countryCode":"SK","stateCode":"ZI","latitude":49.12944,"longitude":19.40228},{"name":"Malacky","countryCode":"SK","stateCode":"BL","latitude":48.43604,"longitude":17.02188},{"name":"Marianka","countryCode":"SK","stateCode":"BL","latitude":48.24903,"longitude":17.064},{"name":"Martin","countryCode":"SK","stateCode":"ZI","latitude":49.06651,"longitude":18.92399},{"name":"Medzev","countryCode":"SK","stateCode":"KI","latitude":48.70041,"longitude":20.89367},{"name":"Medzilaborce","countryCode":"SK","stateCode":"PV","latitude":49.27195,"longitude":21.90073},{"name":"Michalovce","countryCode":"SK","stateCode":"KI","latitude":48.75434,"longitude":21.9195},{"name":"Modra","countryCode":"SK","stateCode":"BL","latitude":48.33397,"longitude":17.30711},{"name":"Moldava nad Bodvou","countryCode":"SK","stateCode":"KI","latitude":48.61428,"longitude":20.99957},{"name":"Myjava","countryCode":"SK","stateCode":"TC","latitude":48.75876,"longitude":17.56866},{"name":"Námestovo","countryCode":"SK","stateCode":"ZI","latitude":49.4079,"longitude":19.48032},{"name":"Nemšová","countryCode":"SK","stateCode":"TC","latitude":48.96702,"longitude":18.11892},{"name":"Nitra","countryCode":"SK","stateCode":"NI","latitude":48.30763,"longitude":18.08453},{"name":"Nižná","countryCode":"SK","stateCode":"ZI","latitude":49.31046,"longitude":19.52428},{"name":"Nová Baňa","countryCode":"SK","stateCode":"BC","latitude":48.42305,"longitude":18.64037},{"name":"Nová Dubnica","countryCode":"SK","stateCode":"TC","latitude":48.93479,"longitude":18.14632},{"name":"Nová Lesná","countryCode":"SK","stateCode":"PV","latitude":49.12253,"longitude":20.26737},{"name":"Nováky","countryCode":"SK","stateCode":"TC","latitude":48.71106,"longitude":18.53389},{"name":"Nové Mesto nad Váhom","countryCode":"SK","stateCode":"TC","latitude":48.75763,"longitude":17.8309},{"name":"Nové Zámky","countryCode":"SK","stateCode":"NI","latitude":47.98544,"longitude":18.16195},{"name":"Okres Bánovce nad Bebravou","countryCode":"SK","stateCode":"TC","latitude":48.71908,"longitude":18.25773},{"name":"Okres Banská Bystrica","countryCode":"SK","stateCode":"BC","latitude":48.73333,"longitude":19.15},{"name":"Okres Banská Štiavnica","countryCode":"SK","stateCode":"BC","latitude":48.44961,"longitude":18.9082},{"name":"Okres Bardejov","countryCode":"SK","stateCode":"PV","latitude":49.28333,"longitude":21.28333},{"name":"Okres Bratislava I","countryCode":"SK","stateCode":"BL","latitude":48.14653,"longitude":17.10584},{"name":"Okres Bratislava II","countryCode":"SK","stateCode":"BL","latitude":48.1528,"longitude":17.17764},{"name":"Okres Bratislava III","countryCode":"SK","stateCode":"BL","latitude":48.18543,"longitude":17.1379},{"name":"Okres Bratislava IV","countryCode":"SK","stateCode":"BL","latitude":48.22787,"longitude":16.99722},{"name":"Okres Bratislava V","countryCode":"SK","stateCode":"BL","latitude":48.11122,"longitude":17.09444},{"name":"Okres Brezno","countryCode":"SK","stateCode":"BC","latitude":48.8,"longitude":19.75},{"name":"Okres Bytča","countryCode":"SK","stateCode":"ZI","latitude":49.22267,"longitude":18.55844},{"name":"Okres Čadca","countryCode":"SK","stateCode":"ZI","latitude":49.43333,"longitude":18.78333},{"name":"Okres Detva","countryCode":"SK","stateCode":"BC","latitude":48.55985,"longitude":19.42044},{"name":"Okres Dolný Kubín","countryCode":"SK","stateCode":"ZI","latitude":49.2,"longitude":19.3},{"name":"Okres Dunajská Streda","countryCode":"SK","stateCode":"TA","latitude":47.99635,"longitude":17.60937},{"name":"Okres Galanta","countryCode":"SK","stateCode":"TA","latitude":48.2,"longitude":17.71667},{"name":"Okres Gelnica","countryCode":"SK","stateCode":"KI","latitude":48.85207,"longitude":20.93385},{"name":"Okres Hlohovec","countryCode":"SK","stateCode":"TA","latitude":48.41667,"longitude":17.75},{"name":"Okres Humenné","countryCode":"SK","stateCode":"PV","latitude":48.93333,"longitude":21.91667},{"name":"Okres Ilava","countryCode":"SK","stateCode":"TC","latitude":48.99641,"longitude":18.23374},{"name":"Okres Kežmarok","countryCode":"SK","stateCode":"PV","latitude":49.13593,"longitude":20.42929},{"name":"Okres Komárno","countryCode":"SK","stateCode":"NI","latitude":47.76667,"longitude":18.13333},{"name":"Okres Kosice-okolie","countryCode":"SK","stateCode":"KI","latitude":48.77897,"longitude":21.41373},{"name":"Okres Krupina","countryCode":"SK","stateCode":"BC","latitude":48.35736,"longitude":19.06334},{"name":"Okres Kysucké Nové Mesto","countryCode":"SK","stateCode":"ZI","latitude":49.30206,"longitude":18.78603},{"name":"Okres Levice","countryCode":"SK","stateCode":"NI","latitude":48.21667,"longitude":18.6},{"name":"Okres Levoča","countryCode":"SK","stateCode":"PV","latitude":49.01986,"longitude":20.57688},{"name":"Okres Liptovský Mikuláš","countryCode":"SK","stateCode":"ZI","latitude":49.08333,"longitude":19.61667},{"name":"Okres Lučenec","countryCode":"SK","stateCode":"BC","latitude":48.33333,"longitude":19.66667},{"name":"Okres Malacky","countryCode":"SK","stateCode":"BL","latitude":48.43458,"longitude":17.02166},{"name":"Okres Martin","countryCode":"SK","stateCode":"ZI","latitude":49.06667,"longitude":18.93333},{"name":"Okres Medzilaborce","countryCode":"SK","stateCode":"PV","latitude":49.27062,"longitude":21.902},{"name":"Okres Michalovce","countryCode":"SK","stateCode":"KI","latitude":48.75,"longitude":21.93333},{"name":"Okres Myjava","countryCode":"SK","stateCode":"TC","latitude":48.75,"longitude":17.58333},{"name":"Okres Namestovo","countryCode":"SK","stateCode":"ZI","latitude":49.40651,"longitude":19.4767},{"name":"Okres Nitra","countryCode":"SK","stateCode":"NI","latitude":48.31667,"longitude":18.08333},{"name":"Okres Nové Mesto nad Váhom","countryCode":"SK","stateCode":"TC","latitude":48.75466,"longitude":17.83506},{"name":"Okres Nové Zámky","countryCode":"SK","stateCode":"NI","latitude":47.98333,"longitude":18.16667},{"name":"Okres Partizánske","countryCode":"SK","stateCode":"TC","latitude":48.62613,"longitude":18.37957},{"name":"Okres Pezinok","countryCode":"SK","stateCode":"BL","latitude":48.28785,"longitude":17.26799},{"name":"Okres Piešťany","countryCode":"SK","stateCode":"TA","latitude":48.59064,"longitude":17.82679},{"name":"Okres Poltár","countryCode":"SK","stateCode":"BC","latitude":48.42895,"longitude":19.79488},{"name":"Okres Poprad","countryCode":"SK","stateCode":"PV","latitude":49.05,"longitude":20.3},{"name":"Okres Považská Bystrica","countryCode":"SK","stateCode":"TC","latitude":49.11667,"longitude":18.45},{"name":"Okres Prešov","countryCode":"SK","stateCode":"PV","latitude":49,"longitude":21.25},{"name":"Okres Prievidza","countryCode":"SK","stateCode":"TC","latitude":48.76667,"longitude":18.63333},{"name":"Okres Púchov","countryCode":"SK","stateCode":"TC","latitude":49.12406,"longitude":18.32477},{"name":"Okres Revúca","countryCode":"SK","stateCode":"BC","latitude":48.683,"longitude":20.11568},{"name":"Okres Rožňava","countryCode":"SK","stateCode":"KI","latitude":48.66667,"longitude":20.53333},{"name":"Okres Ružomberok","countryCode":"SK","stateCode":"ZI","latitude":49.07494,"longitude":19.30083},{"name":"Okres Sabinov","countryCode":"SK","stateCode":"PV","latitude":49.10115,"longitude":21.09844},{"name":"Okres Šaľa","countryCode":"SK","stateCode":"NI","latitude":48.1477,"longitude":17.87306},{"name":"Okres Senec","countryCode":"SK","stateCode":"BL","latitude":48.22187,"longitude":17.40328},{"name":"Okres Senica","countryCode":"SK","stateCode":"TA","latitude":48.68333,"longitude":17.36667},{"name":"Okres Skalica","countryCode":"SK","stateCode":"TA","latitude":48.75,"longitude":17.16667},{"name":"Okres Snina","countryCode":"SK","stateCode":"PV","latitude":48.98579,"longitude":22.15059},{"name":"Okres Sobrance","countryCode":"SK","stateCode":"KI","latitude":48.74247,"longitude":22.18197},{"name":"Okres Spišská Nová Ves","countryCode":"SK","stateCode":"KI","latitude":48.95,"longitude":20.56667},{"name":"Okres Stará Ĺubovňa","countryCode":"SK","stateCode":"PV","latitude":49.3,"longitude":20.7},{"name":"Okres Stropkov","countryCode":"SK","stateCode":"PV","latitude":49.20249,"longitude":21.65025},{"name":"Okres Svidník","countryCode":"SK","stateCode":"PV","latitude":49.3,"longitude":21.56667},{"name":"Okres Topoľčany","countryCode":"SK","stateCode":"NI","latitude":48.56667,"longitude":18.18333},{"name":"Okres Trebišov","countryCode":"SK","stateCode":"KI","latitude":48.63333,"longitude":21.71667},{"name":"Okres Trenčín","countryCode":"SK","stateCode":"TC","latitude":48.8952,"longitude":18.04264},{"name":"Okres Trnava","countryCode":"SK","stateCode":"TA","latitude":48.36667,"longitude":17.6},{"name":"Okres Turčianske Teplice","countryCode":"SK","stateCode":"ZI","latitude":48.86283,"longitude":18.85759},{"name":"Okres Tvrdošín","countryCode":"SK","stateCode":"ZI","latitude":49.33421,"longitude":19.55461},{"name":"Okres Veľký Krtíš","countryCode":"SK","stateCode":"BC","latitude":48.2,"longitude":19.35},{"name":"Okres Vranov nad Topľou","countryCode":"SK","stateCode":"PV","latitude":48.9,"longitude":21.68333},{"name":"Okres Žarnovica","countryCode":"SK","stateCode":"BC","latitude":48.48438,"longitude":18.72076},{"name":"Okres Žiar nad Hronom","countryCode":"SK","stateCode":"BC","latitude":48.58333,"longitude":18.86667},{"name":"Okres Žilina","countryCode":"SK","stateCode":"ZI","latitude":49.22303,"longitude":18.74044},{"name":"Okres Zlaté Moravce","countryCode":"SK","stateCode":"NI","latitude":48.38294,"longitude":18.39842},{"name":"Okres Zvolen","countryCode":"SK","stateCode":"BC","latitude":48.58333,"longitude":19.13333},{"name":"Oravská Lesná","countryCode":"SK","stateCode":"ZI","latitude":49.36672,"longitude":19.18093},{"name":"Oravský Podzámok","countryCode":"SK","stateCode":"ZI","latitude":49.25939,"longitude":19.3569},{"name":"Partizánske","countryCode":"SK","stateCode":"TC","latitude":48.62861,"longitude":18.38455},{"name":"Pezinok","countryCode":"SK","stateCode":"BL","latitude":48.28986,"longitude":17.26664},{"name":"Piešťany","countryCode":"SK","stateCode":"TA","latitude":48.59479,"longitude":17.82591},{"name":"Podolínec","countryCode":"SK","stateCode":"PV","latitude":49.25869,"longitude":20.536},{"name":"Poltár","countryCode":"SK","stateCode":"BC","latitude":48.43094,"longitude":19.79408},{"name":"Poprad","countryCode":"SK","stateCode":"PV","latitude":49.06144,"longitude":20.29798},{"name":"Považská Bystrica","countryCode":"SK","stateCode":"TC","latitude":49.12153,"longitude":18.42169},{"name":"Prešov","countryCode":"SK","stateCode":"PV","latitude":48.99839,"longitude":21.23393},{"name":"Pribylina","countryCode":"SK","stateCode":"ZI","latitude":49.0995,"longitude":19.79427},{"name":"Prievidza","countryCode":"SK","stateCode":"TC","latitude":48.77446,"longitude":18.6275},{"name":"Púchov","countryCode":"SK","stateCode":"TC","latitude":49.12494,"longitude":18.32597},{"name":"Rajec","countryCode":"SK","stateCode":"ZI","latitude":49.08899,"longitude":18.64007},{"name":"Revúca","countryCode":"SK","stateCode":"BC","latitude":48.68346,"longitude":20.11734},{"name":"Rimavská Sobota","countryCode":"SK","stateCode":"BC","latitude":48.38284,"longitude":20.02239},{"name":"Rožňava","countryCode":"SK","stateCode":"KI","latitude":48.66009,"longitude":20.53758},{"name":"Ružomberok","countryCode":"SK","stateCode":"ZI","latitude":49.0748,"longitude":19.30751},{"name":"Sabinov","countryCode":"SK","stateCode":"PV","latitude":49.10309,"longitude":21.0988},{"name":"Šahy","countryCode":"SK","stateCode":"NI","latitude":48.07408,"longitude":18.94946},{"name":"Šaľa","countryCode":"SK","stateCode":"NI","latitude":48.15127,"longitude":17.88062},{"name":"Šamorín","countryCode":"SK","stateCode":"TA","latitude":48.03015,"longitude":17.30972},{"name":"Sečovce","countryCode":"SK","stateCode":"KI","latitude":48.70074,"longitude":21.66104},{"name":"Senec","countryCode":"SK","stateCode":"BL","latitude":48.21951,"longitude":17.40043},{"name":"Senica","countryCode":"SK","stateCode":"TA","latitude":48.67922,"longitude":17.36697},{"name":"Skalica","countryCode":"SK","stateCode":"TA","latitude":48.8449,"longitude":17.22635},{"name":"Sládkovičovo","countryCode":"SK","stateCode":"TA","latitude":48.20137,"longitude":17.63852},{"name":"Smolenice","countryCode":"SK","stateCode":"TA","latitude":48.50478,"longitude":17.43067},{"name":"Snina","countryCode":"SK","stateCode":"PV","latitude":48.98857,"longitude":22.15099},{"name":"Sobrance","countryCode":"SK","stateCode":"KI","latitude":48.74455,"longitude":22.18136},{"name":"Spišská Belá","countryCode":"SK","stateCode":"PV","latitude":49.18725,"longitude":20.45948},{"name":"Spišská Nová Ves","countryCode":"SK","stateCode":"KI","latitude":48.94464,"longitude":20.56153},{"name":"Spišské Podhradie","countryCode":"SK","stateCode":"PV","latitude":49.00088,"longitude":20.75307},{"name":"Stará Ľubovňa","countryCode":"SK","stateCode":"PV","latitude":49.29859,"longitude":20.6862},{"name":"Stará Turá","countryCode":"SK","stateCode":"TC","latitude":48.77721,"longitude":17.69433},{"name":"Strážske","countryCode":"SK","stateCode":"KI","latitude":48.8735,"longitude":21.83668},{"name":"Štrba","countryCode":"SK","stateCode":"PV","latitude":49.05913,"longitude":20.07975},{"name":"Stropkov","countryCode":"SK","stateCode":"PV","latitude":49.20211,"longitude":21.65216},{"name":"Stupava","countryCode":"SK","stateCode":"BL","latitude":48.27474,"longitude":17.03173},{"name":"Štúrovo","countryCode":"SK","stateCode":"NI","latitude":47.79495,"longitude":18.7175},{"name":"Šurany","countryCode":"SK","stateCode":"NI","latitude":48.08613,"longitude":18.18447},{"name":"Svätý Anton","countryCode":"SK","stateCode":"BC","latitude":48.41923,"longitude":18.9401},{"name":"Svätý Jur","countryCode":"SK","stateCode":"BL","latitude":48.25216,"longitude":17.21539},{"name":"Svidník","countryCode":"SK","stateCode":"PV","latitude":49.30819,"longitude":21.5703},{"name":"Svit","countryCode":"SK","stateCode":"PV","latitude":49.06014,"longitude":20.20695},{"name":"Svodín","countryCode":"SK","stateCode":"NI","latitude":47.91054,"longitude":18.49967},{"name":"Terchová","countryCode":"SK","stateCode":"ZI","latitude":49.25895,"longitude":19.02935},{"name":"Tisovec","countryCode":"SK","stateCode":"BC","latitude":48.67738,"longitude":19.94364},{"name":"Tlmače","countryCode":"SK","stateCode":"NI","latitude":48.28926,"longitude":18.53152},{"name":"Topoľčany","countryCode":"SK","stateCode":"NI","latitude":48.56361,"longitude":18.16712},{"name":"Trebišov","countryCode":"SK","stateCode":"KI","latitude":48.62858,"longitude":21.71954},{"name":"Trenčianske Teplice","countryCode":"SK","stateCode":"TC","latitude":48.91063,"longitude":18.16691},{"name":"Trenčín","countryCode":"SK","stateCode":"TC","latitude":48.89452,"longitude":18.04436},{"name":"Trnava","countryCode":"SK","stateCode":"TA","latitude":48.37741,"longitude":17.58723},{"name":"Trstená","countryCode":"SK","stateCode":"ZI","latitude":49.36101,"longitude":19.61249},{"name":"Turčianske Teplice","countryCode":"SK","stateCode":"ZI","latitude":48.86225,"longitude":18.86048},{"name":"Turzovka","countryCode":"SK","stateCode":"ZI","latitude":49.40429,"longitude":18.62258},{"name":"Tvrdošín","countryCode":"SK","stateCode":"ZI","latitude":49.337,"longitude":19.556},{"name":"Veľký Krtíš","countryCode":"SK","stateCode":"BC","latitude":48.21059,"longitude":19.35043},{"name":"Veľký Meder","countryCode":"SK","stateCode":"TA","latitude":47.85798,"longitude":17.76884},{"name":"Vinné","countryCode":"SK","stateCode":"KI","latitude":48.80965,"longitude":21.96757},{"name":"Vinosady","countryCode":"SK","stateCode":"BL","latitude":48.31142,"longitude":17.29042},{"name":"Vráble","countryCode":"SK","stateCode":"NI","latitude":48.24371,"longitude":18.30846},{"name":"Vranov nad Topľou","countryCode":"SK","stateCode":"PV","latitude":48.88836,"longitude":21.68479},{"name":"Vrbov","countryCode":"SK","stateCode":"PV","latitude":49.08764,"longitude":20.4253},{"name":"Vrbové","countryCode":"SK","stateCode":"TA","latitude":48.61973,"longitude":17.7226},{"name":"Vrútky","countryCode":"SK","stateCode":"ZI","latitude":49.11328,"longitude":18.91714},{"name":"Vyšné Ružbachy","countryCode":"SK","stateCode":"PV","latitude":49.30387,"longitude":20.56558},{"name":"Vysoké Tatry","countryCode":"SK","stateCode":"PV","latitude":49.13637,"longitude":20.24386},{"name":"Žarnovica","countryCode":"SK","stateCode":"BC","latitude":48.48123,"longitude":18.71565},{"name":"Ždiar","countryCode":"SK","stateCode":"PV","latitude":49.271,"longitude":20.26239},{"name":"Žehra","countryCode":"SK","stateCode":"KI","latitude":48.9796,"longitude":20.7917},{"name":"Želiezovce","countryCode":"SK","stateCode":"NI","latitude":48.05075,"longitude":18.65421},{"name":"Žiar nad Hronom","countryCode":"SK","stateCode":"BC","latitude":48.59184,"longitude":18.84958},{"name":"Žilina","countryCode":"SK","stateCode":"ZI","latitude":49.22315,"longitude":18.73941},{"name":"Zlaté Moravce","countryCode":"SK","stateCode":"NI","latitude":48.38553,"longitude":18.40063},{"name":"Zvolen","countryCode":"SK","stateCode":"BC","latitude":48.57442,"longitude":19.15324}]
