[{"name":"Abéché","countryCode":"TD","stateCode":"OD","latitude":13.82916,"longitude":20.8324},{"name":"Adré","countryCode":"TD","stateCode":"OD","latitude":13.46648,"longitude":22.19875},{"name":"Am Timan","countryCode":"TD","stateCode":"SA","latitude":11.0297,"longitude":20.2827},{"name":"Aozou","countryCode":"TD","stateCode":"TI","latitude":21.8375,"longitude":17.4275},{"name":"Ati","countryCode":"TD","stateCode":"BA","latitude":13.2154,"longitude":18.3353},{"name":"Bébédja","countryCode":"TD","stateCode":"LR","latitude":8.6761,"longitude":16.566},{"name":"Béboto","countryCode":"TD","stateCode":"LR","latitude":8.26681,"longitude":16.93898},{"name":"Beïnamar","countryCode":"TD","stateCode":"LO","latitude":8.6698,"longitude":15.3813},{"name":"Benoy","countryCode":"TD","stateCode":"LO","latitude":8.98327,"longitude":16.31991},{"name":"Béré","countryCode":"TD","stateCode":"TA","latitude":9.3202,"longitude":16.1552},{"name":"Biltine","countryCode":"TD","stateCode":"WF","latitude":14.52791,"longitude":20.92749},{"name":"Bitkine","countryCode":"TD","stateCode":"GR","latitude":11.9801,"longitude":18.2138},{"name":"Bokoro","countryCode":"TD","stateCode":"HL","latitude":12.37813,"longitude":17.05876},{"name":"Bol","countryCode":"TD","stateCode":"LC","latitude":13.46706,"longitude":14.71363},{"name":"Bongor","countryCode":"TD","stateCode":"ME","latitude":10.28056,"longitude":15.37222},{"name":"Doba","countryCode":"TD","stateCode":"LR","latitude":8.65,"longitude":16.85},{"name":"Fada","countryCode":"TD","stateCode":"EO","latitude":17.18535,"longitude":21.58114},{"name":"Faya-Largeau","countryCode":"TD","stateCode":"BO","latitude":17.9257,"longitude":19.10428},{"name":"Goundi","countryCode":"TD","stateCode":"MA","latitude":9.36267,"longitude":17.36597},{"name":"Gounou Gaya","countryCode":"TD","stateCode":"ME","latitude":9.6294,"longitude":15.5132},{"name":"Goz Beïda","countryCode":"TD","stateCode":"SI","latitude":12.22484,"longitude":21.41034},{"name":"Goz Béïda","countryCode":"TD","stateCode":"OD","latitude":13.94563,"longitude":20.5468},{"name":"Guelendeng","countryCode":"TD","stateCode":"ME","latitude":10.91762,"longitude":15.55011},{"name":"Iriba","countryCode":"TD","stateCode":"WF","latitude":15.11667,"longitude":22.25},{"name":"Kelo","countryCode":"TD","stateCode":"TA","latitude":9.30859,"longitude":15.80658},{"name":"Koumra","countryCode":"TD","stateCode":"MA","latitude":8.91256,"longitude":17.55392},{"name":"Kyabé","countryCode":"TD","stateCode":"MC","latitude":9.45149,"longitude":18.94493},{"name":"Lac Wey","countryCode":"TD","stateCode":"LO","latitude":8.70502,"longitude":15.98303},{"name":"Laï","countryCode":"TD","stateCode":"TA","latitude":9.3972,"longitude":16.30066},{"name":"Mao","countryCode":"TD","stateCode":"KA","latitude":14.12116,"longitude":15.3103},{"name":"Massaguet","countryCode":"TD","stateCode":"HL","latitude":12.47554,"longitude":15.43647},{"name":"Massakory","countryCode":"TD","stateCode":"HL","latitude":12.996,"longitude":15.72927},{"name":"Mboursou Léré","countryCode":"TD","stateCode":"MO","latitude":9.7639,"longitude":14.1539},{"name":"Melfi","countryCode":"TD","stateCode":"GR","latitude":11.0598,"longitude":17.9355},{"name":"Moïssala","countryCode":"TD","stateCode":"MA","latitude":8.3404,"longitude":17.7663},{"name":"Mongo","countryCode":"TD","stateCode":"GR","latitude":12.18441,"longitude":18.69303},{"name":"Moundou","countryCode":"TD","stateCode":"LO","latitude":8.56667,"longitude":16.08333},{"name":"Moussoro","countryCode":"TD","stateCode":"BG","latitude":13.64143,"longitude":16.48941},{"name":"Oum Hadjer","countryCode":"TD","stateCode":"BA","latitude":13.2954,"longitude":19.6966},{"name":"Pala","countryCode":"TD","stateCode":"MO","latitude":9.3642,"longitude":14.9046},{"name":"Sarh","countryCode":"TD","stateCode":"MC","latitude":9.1429,"longitude":18.3923}]
