[{"name":"Amnat Charoen","countryCode":"TH","stateCode":"37","latitude":15.85851,"longitude":104.62883},{"name":"Amphoe Akat Amnuai","countryCode":"TH","stateCode":"47","latitude":17.63589,"longitude":103.9759},{"name":"Amphoe Amphawa","countryCode":"TH","stateCode":"75","latitude":13.36721,"longitude":99.91232},{"name":"Amphoe Ao Luek","countryCode":"TH","stateCode":"81","latitude":8.38526,"longitude":98.75378},{"name":"Amphoe Aranyaprathet","countryCode":"TH","stateCode":"27","latitude":13.69086,"longitude":102.47693},{"name":"Amphoe At Samat","countryCode":"TH","stateCode":"45","latitude":15.84014,"longitude":103.86619},{"name":"Amphoe Ba Cho","countryCode":"TH","stateCode":"96","latitude":6.54591,"longitude":101.64923},{"name":"Amphoe Ban Bueng","countryCode":"TH","stateCode":"20","latitude":13.2528,"longitude":101.18151},{"name":"Amphoe Ban Chang","countryCode":"TH","stateCode":"21","latitude":12.7323,"longitude":101.04878},{"name":"Amphoe Ban Dan","countryCode":"TH","stateCode":"31","latitude":15.12363,"longitude":103.18937},{"name":"Amphoe Ban Dan Lan Hoi","countryCode":"TH","stateCode":"64","latitude":17.05278,"longitude":99.49148},{"name":"Amphoe Ban Dung","countryCode":"TH","stateCode":"41","latitude":17.71134,"longitude":103.26729},{"name":"Amphoe Ban Fang","countryCode":"TH","stateCode":"40","latitude":16.49162,"longitude":102.61669},{"name":"Amphoe Ban Haet","countryCode":"TH","stateCode":"40","latitude":16.20067,"longitude":102.77465},{"name":"Amphoe Ban Hong","countryCode":"TH","stateCode":"51","latitude":18.27422,"longitude":98.83794},{"name":"Amphoe Ban Kha","countryCode":"TH","stateCode":"70","latitude":13.32374,"longitude":99.37323},{"name":"Amphoe Ban Khai","countryCode":"TH","stateCode":"21","latitude":12.83827,"longitude":101.3421},{"name":"Amphoe Ban Khok","countryCode":"TH","stateCode":"53","latitude":18.1468,"longitude":101.0661},{"name":"Amphoe Ban Kruat","countryCode":"TH","stateCode":"31","latitude":14.39205,"longitude":103.11494},{"name":"Amphoe Ban Laem","countryCode":"TH","stateCode":"76","latitude":13.16968,"longitude":99.98771},{"name":"Amphoe Ban Lat","countryCode":"TH","stateCode":"76","latitude":13.04533,"longitude":99.83788},{"name":"Amphoe Ban Luang","countryCode":"TH","stateCode":"55","latitude":18.88375,"longitude":100.46014},{"name":"Amphoe Ban Lueam","countryCode":"TH","stateCode":"30","latitude":15.57431,"longitude":102.14204},{"name":"Amphoe Ban Mai Chaiyaphot","countryCode":"TH","stateCode":"31","latitude":15.57857,"longitude":102.84394},{"name":"Amphoe Ban Mi","countryCode":"TH","stateCode":"16","latitude":15.06154,"longitude":100.552},{"name":"Amphoe Ban Mo","countryCode":"TH","stateCode":"19","latitude":14.60804,"longitude":100.72404},{"name":"Amphoe Ban Muang","countryCode":"TH","stateCode":"47","latitude":17.89569,"longitude":103.52793},{"name":"Amphoe Ban Na","countryCode":"TH","stateCode":"26","latitude":14.26799,"longitude":101.06445},{"name":"Amphoe Ban Na Doem","countryCode":"TH","stateCode":"84","latitude":8.9061,"longitude":99.28136},{"name":"Amphoe Ban Na San","countryCode":"TH","stateCode":"84","latitude":8.80063,"longitude":99.40201},{"name":"Amphoe Ban Phaeng","countryCode":"TH","stateCode":"48","latitude":17.86955,"longitude":104.22744},{"name":"Amphoe Ban Phaeo","countryCode":"TH","stateCode":"74","latitude":13.58747,"longitude":100.11789},{"name":"Amphoe Ban Phai","countryCode":"TH","stateCode":"40","latitude":16.04603,"longitude":102.77755},{"name":"Amphoe Ban Pho","countryCode":"TH","stateCode":"24","latitude":13.61,"longitude":101.07838},{"name":"Amphoe Ban Phraek","countryCode":"TH","stateCode":"14","latitude":14.64381,"longitude":100.54883},{"name":"Amphoe Ban Phue","countryCode":"TH","stateCode":"41","latitude":17.67709,"longitude":102.44563},{"name":"Amphoe Ban Pong","countryCode":"TH","stateCode":"70","latitude":13.8166,"longitude":99.82147},{"name":"Amphoe Ban Rai","countryCode":"TH","stateCode":"61","latitude":15.24921,"longitude":99.32817},{"name":"Amphoe Ban Sang","countryCode":"TH","stateCode":"25","latitude":13.95005,"longitude":101.25063},{"name":"Amphoe Ban Tak","countryCode":"TH","stateCode":"63","latitude":17.09163,"longitude":99.06648},{"name":"Amphoe Ban Takhun","countryCode":"TH","stateCode":"84","latitude":9.10423,"longitude":98.67222},{"name":"Amphoe Ban Thi","countryCode":"TH","stateCode":"51","latitude":18.65894,"longitude":99.15883},{"name":"Amphoe Bang Ban","countryCode":"TH","stateCode":"14","latitude":14.38333,"longitude":100.46667},{"name":"Amphoe Bang Bo","countryCode":"TH","stateCode":"11","latitude":13.5896,"longitude":100.86711},{"name":"Amphoe Bang Bua Thong","countryCode":"TH","stateCode":"12","latitude":13.92641,"longitude":100.3936},{"name":"Amphoe Bang Kaeo","countryCode":"TH","stateCode":"93","latitude":7.41775,"longitude":100.17164},{"name":"Amphoe Bang Khan","countryCode":"TH","stateCode":"80","latitude":8.01208,"longitude":99.48449},{"name":"Amphoe Bang Khla","countryCode":"TH","stateCode":"24","latitude":13.74186,"longitude":101.20754},{"name":"Amphoe Bang Khonthi","countryCode":"TH","stateCode":"75","latitude":13.47448,"longitude":99.94838},{"name":"Amphoe Bang Klam","countryCode":"TH","stateCode":"90","latitude":7.06404,"longitude":100.40664},{"name":"Amphoe Bang Krathum","countryCode":"TH","stateCode":"65","latitude":16.59323,"longitude":100.35042},{"name":"Amphoe Bang Kruai","countryCode":"TH","stateCode":"12","latitude":13.80249,"longitude":100.41525},{"name":"Amphoe Bang Len","countryCode":"TH","stateCode":"73","latitude":14.05,"longitude":100.18333},{"name":"Amphoe Bang Mun Nak","countryCode":"TH","stateCode":"66","latitude":16.02656,"longitude":100.43194},{"name":"Amphoe Bang Nam Priao","countryCode":"TH","stateCode":"24","latitude":13.88034,"longitude":101.03232},{"name":"Amphoe Bang Pa-in","countryCode":"TH","stateCode":"14","latitude":14.23482,"longitude":100.5941},{"name":"Amphoe Bang Pahan","countryCode":"TH","stateCode":"14","latitude":14.47174,"longitude":100.54731},{"name":"Amphoe Bang Pakong","countryCode":"TH","stateCode":"24","latitude":13.53241,"longitude":100.96045},{"name":"Amphoe Bang Phae","countryCode":"TH","stateCode":"70","latitude":13.68333,"longitude":99.98333},{"name":"Amphoe Bang Phli","countryCode":"TH","stateCode":"11","latitude":13.61972,"longitude":100.72582},{"name":"Amphoe Bang Pla Ma","countryCode":"TH","stateCode":"72","latitude":14.34985,"longitude":100.14479},{"name":"Amphoe Bang Rachan","countryCode":"TH","stateCode":"17","latitude":14.89959,"longitude":100.27795},{"name":"Amphoe Bang Rakam","countryCode":"TH","stateCode":"65","latitude":16.71844,"longitude":100.04217},{"name":"Amphoe Bang Sai","countryCode":"TH","stateCode":"14","latitude":14.21043,"longitude":100.49422},{"name":"Amphoe Bang Sao Thong","countryCode":"TH","stateCode":"11","latitude":13.63286,"longitude":100.81038},{"name":"Amphoe Bang Saphan","countryCode":"TH","stateCode":"77","latitude":11.29402,"longitude":99.44406},{"name":"Amphoe Bang Saphan Noi","countryCode":"TH","stateCode":"77","latitude":11.07057,"longitude":99.34105},{"name":"Amphoe Bang Yai","countryCode":"TH","stateCode":"12","latitude":13.85385,"longitude":100.37318},{"name":"Amphoe Bannang Sata","countryCode":"TH","stateCode":"95","latitude":6.25643,"longitude":101.27852},{"name":"Amphoe Banphot Phisai","countryCode":"TH","stateCode":"60","latitude":15.99714,"longitude":99.99409},{"name":"Amphoe Benchalak","countryCode":"TH","stateCode":"33","latitude":14.78319,"longitude":104.71879},{"name":"Amphoe Betong","countryCode":"TH","stateCode":"95","latitude":5.86362,"longitude":101.22737},{"name":"Amphoe Bo Kluea","countryCode":"TH","stateCode":"55","latitude":19.08994,"longitude":101.18952},{"name":"Amphoe Bo Phloi","countryCode":"TH","stateCode":"71","latitude":14.38723,"longitude":99.4499},{"name":"Amphoe Bo Rai","countryCode":"TH","stateCode":"23","latitude":12.55816,"longitude":102.56566},{"name":"Amphoe Bo Thong","countryCode":"TH","stateCode":"20","latitude":13.24227,"longitude":101.50864},{"name":"Amphoe Borabue","countryCode":"TH","stateCode":"44","latitude":15.98881,"longitude":103.12521},{"name":"Amphoe Bua Chet","countryCode":"TH","stateCode":"32","latitude":14.48406,"longitude":103.97809},{"name":"Amphoe Bua Lai","countryCode":"TH","stateCode":"30","latitude":15.66917,"longitude":102.51761},{"name":"Amphoe Bua Yai","countryCode":"TH","stateCode":"30","latitude":15.58488,"longitude":102.38738},{"name":"Amphoe Bueng Bun","countryCode":"TH","stateCode":"33","latitude":15.30288,"longitude":104.06166},{"name":"Amphoe Bueng Khong Long","countryCode":"TH","stateCode":"38","latitude":18.00899,"longitude":104.07302},{"name":"Amphoe Bueng Na Rang","countryCode":"TH","stateCode":"66","latitude":16.18642,"longitude":100.14293},{"name":"Amphoe Bueng Sam Phan","countryCode":"TH","stateCode":"67","latitude":15.8165,"longitude":101.00399},{"name":"Amphoe Bueng Samakkhi","countryCode":"TH","stateCode":"62","latitude":16.21262,"longitude":99.9672},{"name":"Amphoe Bung Khla","countryCode":"TH","stateCode":"38","latitude":18.24726,"longitude":103.99427},{"name":"Amphoe Buntharik","countryCode":"TH","stateCode":"34","latitude":14.70495,"longitude":105.40444},{"name":"Amphoe Cha-am","countryCode":"TH","stateCode":"76","latitude":12.75374,"longitude":99.89828},{"name":"Amphoe Cha-uat","countryCode":"TH","stateCode":"80","latitude":7.95645,"longitude":99.98929},{"name":"Amphoe Chae Hom","countryCode":"TH","stateCode":"52","latitude":18.75404,"longitude":99.66822},{"name":"Amphoe Chai Badan","countryCode":"TH","stateCode":"16","latitude":15.18944,"longitude":101.12682},{"name":"Amphoe Chai Buri","countryCode":"TH","stateCode":"84","latitude":8.43883,"longitude":99.07721},{"name":"Amphoe Chai Prakan","countryCode":"TH","stateCode":"50","latitude":19.674,"longitude":99.17478},{"name":"Amphoe Chai Wan","countryCode":"TH","stateCode":"41","latitude":17.21581,"longitude":103.27832},{"name":"Amphoe Chaiya","countryCode":"TH","stateCode":"84","latitude":9.49141,"longitude":98.99568},{"name":"Amphoe Chaiyo","countryCode":"TH","stateCode":"15","latitude":14.67225,"longitude":100.46786},{"name":"Amphoe Chakkarat","countryCode":"TH","stateCode":"30","latitude":14.95686,"longitude":102.43718},{"name":"Amphoe Chaloem Phra Kiat","countryCode":"TH","stateCode":"19","latitude":14.65671,"longitude":100.90838},{"name":"Amphoe Chaloem Phra Kiat","countryCode":"TH","stateCode":"30","latitude":14.9754,"longitude":102.29372},{"name":"Amphoe Chaloem Phra Kiat","countryCode":"TH","stateCode":"31","latitude":14.55725,"longitude":102.89878},{"name":"Amphoe Chaloem Phra Kiat","countryCode":"TH","stateCode":"55","latitude":19.50618,"longitude":101.14249},{"name":"Amphoe Chaloem Phra Kiat","countryCode":"TH","stateCode":"80","latitude":8.18333,"longitude":100.05},{"name":"Amphoe Chamni","countryCode":"TH","stateCode":"31","latitude":14.78636,"longitude":102.85386},{"name":"Amphoe Chana","countryCode":"TH","stateCode":"90","latitude":6.89584,"longitude":100.70126},{"name":"Amphoe Chanae","countryCode":"TH","stateCode":"96","latitude":6.04591,"longitude":101.61765},{"name":"Amphoe Chang Klang","countryCode":"TH","stateCode":"80","latitude":8.35697,"longitude":99.64592},{"name":"Amphoe Changhan","countryCode":"TH","stateCode":"45","latitude":16.16213,"longitude":103.61605},{"name":"Amphoe Chanuman","countryCode":"TH","stateCode":"37","latitude":16.12553,"longitude":104.92279},{"name":"Amphoe Charoen Sin","countryCode":"TH","stateCode":"47","latitude":17.63327,"longitude":103.52218},{"name":"Amphoe Chat Trakan","countryCode":"TH","stateCode":"65","latitude":17.39357,"longitude":100.6846},{"name":"Amphoe Chaturaphak Phiman","countryCode":"TH","stateCode":"45","latitude":15.8267,"longitude":103.54934},{"name":"Amphoe Chawang","countryCode":"TH","stateCode":"80","latitude":8.46322,"longitude":99.51107},{"name":"Amphoe Chian Yai","countryCode":"TH","stateCode":"80","latitude":8.11719,"longitude":100.15819},{"name":"Amphoe Chiang Dao","countryCode":"TH","stateCode":"50","latitude":19.51279,"longitude":98.9418},{"name":"Amphoe Chiang Kham","countryCode":"TH","stateCode":"56","latitude":19.47061,"longitude":100.33868},{"name":"Amphoe Chiang Khan","countryCode":"TH","stateCode":"42","latitude":17.82441,"longitude":101.73424},{"name":"Amphoe Chiang Khong","countryCode":"TH","stateCode":"57","latitude":20.13587,"longitude":100.36527},{"name":"Amphoe Chiang Khwan","countryCode":"TH","stateCode":"45","latitude":16.14887,"longitude":103.74924},{"name":"Amphoe Chiang Klang","countryCode":"TH","stateCode":"55","latitude":19.30637,"longitude":100.87878},{"name":"Amphoe Chiang Muan","countryCode":"TH","stateCode":"56","latitude":18.90385,"longitude":100.31792},{"name":"Amphoe Chiang Saen","countryCode":"TH","stateCode":"57","latitude":20.23572,"longitude":100.15537},{"name":"Amphoe Chiang Yuen","countryCode":"TH","stateCode":"44","latitude":16.40942,"longitude":103.07005},{"name":"Amphoe Cho-airong","countryCode":"TH","stateCode":"96","latitude":6.23011,"longitude":101.84721},{"name":"Amphoe Chok Chai","countryCode":"TH","stateCode":"30","latitude":14.76341,"longitude":102.20338},{"name":"Amphoe Chom Bueng","countryCode":"TH","stateCode":"70","latitude":13.6252,"longitude":99.5187},{"name":"Amphoe Chom Phra","countryCode":"TH","stateCode":"32","latitude":15.14356,"longitude":103.57881},{"name":"Amphoe Chom Thong","countryCode":"TH","stateCode":"50","latitude":18.39242,"longitude":98.59761},{"name":"Amphoe Chon Daen","countryCode":"TH","stateCode":"67","latitude":16.10735,"longitude":100.83572},{"name":"Amphoe Chonnabot","countryCode":"TH","stateCode":"40","latitude":16.02249,"longitude":102.55946},{"name":"Amphoe Chuen Chom","countryCode":"TH","stateCode":"44","latitude":16.54801,"longitude":103.14796},{"name":"Amphoe Chulabhorn","countryCode":"TH","stateCode":"80","latitude":8.07591,"longitude":99.85365},{"name":"Amphoe Chum Phae","countryCode":"TH","stateCode":"40","latitude":16.61591,"longitude":102.09619},{"name":"Amphoe Chum Phuang","countryCode":"TH","stateCode":"30","latitude":15.2599,"longitude":102.75756},{"name":"Amphoe Chum Ta Bong","countryCode":"TH","stateCode":"60","latitude":15.68311,"longitude":99.56908},{"name":"Amphoe Chumphon Buri","countryCode":"TH","stateCode":"32","latitude":15.37942,"longitude":103.37095},{"name":"Amphoe Chumsaeng","countryCode":"TH","stateCode":"60","latitude":15.84745,"longitude":100.28971},{"name":"Amphoe Chun","countryCode":"TH","stateCode":"56","latitude":19.36803,"longitude":100.14492},{"name":"Amphoe Damnoen Saduak","countryCode":"TH","stateCode":"70","latitude":13.56537,"longitude":99.97042},{"name":"Amphoe Dan Chang","countryCode":"TH","stateCode":"72","latitude":14.88388,"longitude":99.51642},{"name":"Amphoe Dan Khun Thot","countryCode":"TH","stateCode":"30","latitude":15.21835,"longitude":101.6979},{"name":"Amphoe Dan Makham Tia","countryCode":"TH","stateCode":"71","latitude":13.83422,"longitude":99.34125},{"name":"Amphoe Dan Sai","countryCode":"TH","stateCode":"42","latitude":17.22101,"longitude":101.22373},{"name":"Amphoe Den Chai","countryCode":"TH","stateCode":"54","latitude":17.91667,"longitude":100.03333},{"name":"Amphoe Det Udom","countryCode":"TH","stateCode":"34","latitude":14.85153,"longitude":105.07511},{"name":"Amphoe Doembang Nangbuat","countryCode":"TH","stateCode":"72","latitude":14.87394,"longitude":100.04669},{"name":"Amphoe Doi Lo","countryCode":"TH","stateCode":"50","latitude":18.5333,"longitude":98.76843},{"name":"Amphoe Doi Luang","countryCode":"TH","stateCode":"57","latitude":20.14496,"longitude":100.15712},{"name":"Amphoe Doi Saket","countryCode":"TH","stateCode":"50","latitude":18.92372,"longitude":99.21272},{"name":"Amphoe Doi Tao","countryCode":"TH","stateCode":"50","latitude":17.89703,"longitude":98.66292},{"name":"Amphoe Dok Kham Tai","countryCode":"TH","stateCode":"56","latitude":19.10813,"longitude":100.05657},{"name":"Amphoe Don Chan","countryCode":"TH","stateCode":"46","latitude":16.46667,"longitude":103.71667},{"name":"Amphoe Don Chedi","countryCode":"TH","stateCode":"72","latitude":14.64804,"longitude":99.94734},{"name":"Amphoe Don Mot Daeng","countryCode":"TH","stateCode":"34","latitude":15.37694,"longitude":105.02107},{"name":"Amphoe Don Phut","countryCode":"TH","stateCode":"19","latitude":14.60758,"longitude":100.61578},{"name":"Amphoe Don Sak","countryCode":"TH","stateCode":"84","latitude":9.21063,"longitude":99.68887},{"name":"Amphoe Don Tan","countryCode":"TH","stateCode":"49","latitude":16.28796,"longitude":104.82231},{"name":"Amphoe Don Tum","countryCode":"TH","stateCode":"73","latitude":13.94499,"longitude":100.09003},{"name":"Amphoe Dong Charoen","countryCode":"TH","stateCode":"66","latitude":15.99848,"longitude":100.59572},{"name":"Amphoe Dong Luang","countryCode":"TH","stateCode":"49","latitude":16.79649,"longitude":104.35562},{"name":"Amphoe Erawan","countryCode":"TH","stateCode":"42","latitude":17.28823,"longitude":101.97443},{"name":"Amphoe Fak Tha","countryCode":"TH","stateCode":"53","latitude":18.00078,"longitude":100.88885},{"name":"Amphoe Fang","countryCode":"TH","stateCode":"50","latitude":19.8755,"longitude":99.16345},{"name":"Amphoe Fao Rai","countryCode":"TH","stateCode":"43","latitude":18.00275,"longitude":103.2964},{"name":"Amphoe Galyani Vadhana","countryCode":"TH","stateCode":"50","latitude":18.94439,"longitude":98.30329},{"name":"Amphoe Hang Chat","countryCode":"TH","stateCode":"52","latitude":18.35497,"longitude":99.27978},{"name":"Amphoe Hang Dong","countryCode":"TH","stateCode":"50","latitude":18.73869,"longitude":98.88439},{"name":"Amphoe Hankha","countryCode":"TH","stateCode":"18","latitude":15.05048,"longitude":99.9609},{"name":"Amphoe Hat Samran","countryCode":"TH","stateCode":"92","latitude":7.25733,"longitude":99.5816},{"name":"Amphoe Hat Yai","countryCode":"TH","stateCode":"90","latitude":6.98092,"longitude":100.46539},{"name":"Amphoe Hot","countryCode":"TH","stateCode":"50","latitude":18.11581,"longitude":98.46377},{"name":"Amphoe Hua Hin","countryCode":"TH","stateCode":"77","latitude":12.53522,"longitude":99.70366},{"name":"Amphoe Hua Sai","countryCode":"TH","stateCode":"80","latitude":8.01181,"longitude":100.24614},{"name":"Amphoe Hua Taphan","countryCode":"TH","stateCode":"37","latitude":15.67594,"longitude":104.52702},{"name":"Amphoe Huai Khot","countryCode":"TH","stateCode":"61","latitude":15.32761,"longitude":99.51941},{"name":"Amphoe Huai Krachao","countryCode":"TH","stateCode":"71","latitude":14.34056,"longitude":99.67633},{"name":"Amphoe Huai Mek","countryCode":"TH","stateCode":"46","latitude":16.58868,"longitude":103.24098},{"name":"Amphoe Huai Phueng","countryCode":"TH","stateCode":"46","latitude":16.66972,"longitude":103.87997},{"name":"Amphoe Huai Rat","countryCode":"TH","stateCode":"31","latitude":15.00896,"longitude":103.23499},{"name":"Amphoe Huai Thalaeng","countryCode":"TH","stateCode":"30","latitude":15.04244,"longitude":102.63535},{"name":"Amphoe Huai Thap Than","countryCode":"TH","stateCode":"33","latitude":15.01808,"longitude":104.03875},{"name":"Amphoe Huai Yot","countryCode":"TH","stateCode":"92","latitude":7.80063,"longitude":99.605},{"name":"Amphoe In Buri","countryCode":"TH","stateCode":"17","latitude":15.02057,"longitude":100.34865},{"name":"Amphoe Kabang","countryCode":"TH","stateCode":"95","latitude":6.37923,"longitude":100.98348},{"name":"Amphoe Kabin Buri","countryCode":"TH","stateCode":"25","latitude":13.9,"longitude":101.8},{"name":"Amphoe Kae Dam","countryCode":"TH","stateCode":"44","latitude":16.04961,"longitude":103.38953},{"name":"Amphoe Kaeng Hang Maeo","countryCode":"TH","stateCode":"22","latitude":13.0969,"longitude":101.88543},{"name":"Amphoe Kaeng Khoi","countryCode":"TH","stateCode":"19","latitude":14.58166,"longitude":101.05297},{"name":"Amphoe Kaeng Krachan","countryCode":"TH","stateCode":"76","latitude":12.85919,"longitude":99.46339},{"name":"Amphoe Kaeng Sanam Nang","countryCode":"TH","stateCode":"30","latitude":15.69561,"longitude":102.25366},{"name":"Amphoe Kamalasai","countryCode":"TH","stateCode":"46","latitude":16.27999,"longitude":103.6001},{"name":"Amphoe Kanchanadit","countryCode":"TH","stateCode":"84","latitude":9.07256,"longitude":99.5439},{"name":"Amphoe Kantang","countryCode":"TH","stateCode":"92","latitude":7.38563,"longitude":99.47064},{"name":"Amphoe Kantharalak","countryCode":"TH","stateCode":"33","latitude":14.568,"longitude":104.6708},{"name":"Amphoe Kanthararom","countryCode":"TH","stateCode":"33","latitude":15.12447,"longitude":104.57318},{"name":"Amphoe Kantharawichai","countryCode":"TH","stateCode":"44","latitude":16.27992,"longitude":103.25892},{"name":"Amphoe Kao Liao","countryCode":"TH","stateCode":"60","latitude":15.88778,"longitude":100.09647},{"name":"Amphoe Kap Choeng","countryCode":"TH","stateCode":"32","latitude":14.46795,"longitude":103.58476},{"name":"Amphoe Kapho","countryCode":"TH","stateCode":"94","latitude":6.60264,"longitude":101.54327},{"name":"Amphoe Kapoe","countryCode":"TH","stateCode":"85","latitude":9.53028,"longitude":98.62369},{"name":"Amphoe Kapong","countryCode":"TH","stateCode":"82","latitude":8.74139,"longitude":98.47542},{"name":"Amphoe Kaset Wisai","countryCode":"TH","stateCode":"45","latitude":15.60285,"longitude":103.56652},{"name":"Amphoe Kathu","countryCode":"TH","stateCode":"83","latitude":7.91456,"longitude":98.3333},{"name":"Amphoe Khaen Dong","countryCode":"TH","stateCode":"31","latitude":15.3062,"longitude":103.13286},{"name":"Amphoe Khai Bang Rachan","countryCode":"TH","stateCode":"17","latitude":14.81438,"longitude":100.31389},{"name":"Amphoe Kham Khuan Kaeo","countryCode":"TH","stateCode":"35","latitude":15.67197,"longitude":104.33372},{"name":"Amphoe Kham Muang","countryCode":"TH","stateCode":"46","latitude":16.93884,"longitude":103.6398},{"name":"Amphoe Kham Sakae Saeng","countryCode":"TH","stateCode":"30","latitude":15.38042,"longitude":102.16636},{"name":"Amphoe Kham Ta Kla","countryCode":"TH","stateCode":"47","latitude":17.82547,"longitude":103.78598},{"name":"Amphoe Kham Thale So","countryCode":"TH","stateCode":"30","latitude":15.03639,"longitude":101.9317},{"name":"Amphoe Khamcha-i","countryCode":"TH","stateCode":"49","latitude":16.61452,"longitude":104.35929},{"name":"Amphoe Khanom","countryCode":"TH","stateCode":"80","latitude":9.18317,"longitude":99.80192},{"name":"Amphoe Khanu Woralaksaburi","countryCode":"TH","stateCode":"62","latitude":16.00233,"longitude":99.67618},{"name":"Amphoe Khao Chaison","countryCode":"TH","stateCode":"93","latitude":7.46305,"longitude":100.09055},{"name":"Amphoe Khao Chakan","countryCode":"TH","stateCode":"27","latitude":13.62293,"longitude":102.02665},{"name":"Amphoe Khao Chamao","countryCode":"TH","stateCode":"21","latitude":12.99042,"longitude":101.67847},{"name":"Amphoe Khao Khitchakut","countryCode":"TH","stateCode":"22","latitude":12.93726,"longitude":102.09762},{"name":"Amphoe Khao Kho","countryCode":"TH","stateCode":"67","latitude":16.66313,"longitude":100.9945},{"name":"Amphoe Khao Phanom","countryCode":"TH","stateCode":"81","latitude":8.26953,"longitude":99.11813},{"name":"Amphoe Khao Saming","countryCode":"TH","stateCode":"23","latitude":12.42885,"longitude":102.41784},{"name":"Amphoe Khao Suan Kwang","countryCode":"TH","stateCode":"40","latitude":16.91682,"longitude":102.78206},{"name":"Amphoe Khao Wong","countryCode":"TH","stateCode":"46","latitude":16.67959,"longitude":104.1003},{"name":"Amphoe Khao Yoi","countryCode":"TH","stateCode":"76","latitude":13.2424,"longitude":99.80753},{"name":"Amphoe Khemmarat","countryCode":"TH","stateCode":"34","latitude":15.97114,"longitude":105.15168},{"name":"Amphoe Khian Sa","countryCode":"TH","stateCode":"84","latitude":8.72766,"longitude":99.1324},{"name":"Amphoe Khiri Mat","countryCode":"TH","stateCode":"64","latitude":16.82923,"longitude":99.73976},{"name":"Amphoe Khiri Rat Nikhom","countryCode":"TH","stateCode":"84","latitude":9.0059,"longitude":98.94404},{"name":"Amphoe Khlong Hat","countryCode":"TH","stateCode":"27","latitude":13.47396,"longitude":102.27604},{"name":"Amphoe Khlong Hoi Khong","countryCode":"TH","stateCode":"90","latitude":6.86623,"longitude":100.35353},{"name":"Amphoe Khlong Khlung","countryCode":"TH","stateCode":"62","latitude":16.22191,"longitude":99.67654},{"name":"Amphoe Khlong Khuean","countryCode":"TH","stateCode":"24","latitude":13.77961,"longitude":101.15633},{"name":"Amphoe Khlong Lan","countryCode":"TH","stateCode":"62","latitude":16.25992,"longitude":99.21806},{"name":"Amphoe Khlong Luang","countryCode":"TH","stateCode":"13","latitude":14.09323,"longitude":100.68106},{"name":"Amphoe Khlong Thom","countryCode":"TH","stateCode":"81","latitude":7.9147,"longitude":99.19935},{"name":"Amphoe Khlong Yai","countryCode":"TH","stateCode":"23","latitude":11.8554,"longitude":102.82596},{"name":"Amphoe Khlung","countryCode":"TH","stateCode":"22","latitude":12.57246,"longitude":102.30783},{"name":"Amphoe Kho Wang","countryCode":"TH","stateCode":"35","latitude":15.38164,"longitude":104.34109},{"name":"Amphoe Khok Charoen","countryCode":"TH","stateCode":"16","latitude":15.40384,"longitude":100.84968},{"name":"Amphoe Khok Pho","countryCode":"TH","stateCode":"94","latitude":6.70858,"longitude":101.11693},{"name":"Amphoe Khok Pho Chai","countryCode":"TH","stateCode":"40","latitude":16.07194,"longitude":102.38428},{"name":"Amphoe Khok Samrong","countryCode":"TH","stateCode":"16","latitude":15.04303,"longitude":100.77151},{"name":"Amphoe Khok Si Suphan","countryCode":"TH","stateCode":"47","latitude":17.02297,"longitude":104.30346},{"name":"Amphoe Khok Sung","countryCode":"TH","stateCode":"27","latitude":13.87388,"longitude":102.66075},{"name":"Amphoe Khon Buri","countryCode":"TH","stateCode":"30","latitude":14.37634,"longitude":102.21746},{"name":"Amphoe Khong","countryCode":"TH","stateCode":"30","latitude":15.43311,"longitude":102.29617},{"name":"Amphoe Khong Chai","countryCode":"TH","stateCode":"46","latitude":16.25845,"longitude":103.48167},{"name":"Amphoe Khong Chiam","countryCode":"TH","stateCode":"34","latitude":15.45432,"longitude":105.50363},{"name":"Amphoe Khu Mueang","countryCode":"TH","stateCode":"31","latitude":15.26844,"longitude":103.02717},{"name":"Amphoe Khuan Don","countryCode":"TH","stateCode":"91","latitude":6.76978,"longitude":100.12216},{"name":"Amphoe Khuan Kalong","countryCode":"TH","stateCode":"91","latitude":6.90593,"longitude":100.04178},{"name":"Amphoe Khuan Khanun","countryCode":"TH","stateCode":"93","latitude":7.76438,"longitude":100.04349},{"name":"Amphoe Khuan Niang","countryCode":"TH","stateCode":"90","latitude":7.18231,"longitude":100.37403},{"name":"Amphoe Khueang Nai","countryCode":"TH","stateCode":"34","latitude":15.39097,"longitude":104.54363},{"name":"Amphoe Khukhan","countryCode":"TH","stateCode":"33","latitude":14.73783,"longitude":104.1859},{"name":"Amphoe Khun Han","countryCode":"TH","stateCode":"33","latitude":14.53455,"longitude":104.40739},{"name":"Amphoe Khun Tan","countryCode":"TH","stateCode":"57","latitude":19.86481,"longitude":100.28731},{"name":"Amphoe Khun Yuam","countryCode":"TH","stateCode":"58","latitude":18.82643,"longitude":97.93303},{"name":"Amphoe Khura Buri","countryCode":"TH","stateCode":"82","latitude":9.18972,"longitude":98.40806},{"name":"Amphoe Khwao Sinarin","countryCode":"TH","stateCode":"32","latitude":15.00733,"longitude":103.62064},{"name":"Amphoe Klaeng","countryCode":"TH","stateCode":"21","latitude":12.77179,"longitude":101.65666},{"name":"Amphoe Ko Chan","countryCode":"TH","stateCode":"20","latitude":13.40253,"longitude":101.388},{"name":"Amphoe Ko Chang","countryCode":"TH","stateCode":"23","latitude":12.05947,"longitude":102.32941},{"name":"Amphoe Ko Kha","countryCode":"TH","stateCode":"52","latitude":18.14408,"longitude":99.35229},{"name":"Amphoe Ko Kut","countryCode":"TH","stateCode":"23","latitude":11.65714,"longitude":102.56694},{"name":"Amphoe Ko Lanta","countryCode":"TH","stateCode":"81","latitude":7.71267,"longitude":99.07813},{"name":"Amphoe Ko Pha-ngan","countryCode":"TH","stateCode":"84","latitude":9.74939,"longitude":100.02649},{"name":"Amphoe Ko Samui","countryCode":"TH","stateCode":"84","latitude":9.50841,"longitude":99.99644},{"name":"Amphoe Ko Si Chang","countryCode":"TH","stateCode":"20","latitude":13.15286,"longitude":100.81156},{"name":"Amphoe Ko Yao","countryCode":"TH","stateCode":"82","latitude":8.06549,"longitude":98.57851},{"name":"Amphoe Kong Krailat","countryCode":"TH","stateCode":"64","latitude":16.93115,"longitude":99.97414},{"name":"Amphoe Kong Ra","countryCode":"TH","stateCode":"93","latitude":7.41674,"longitude":99.95719},{"name":"Amphoe Kosamphi Nakhon","countryCode":"TH","stateCode":"62","latitude":16.60702,"longitude":99.34795},{"name":"Amphoe Kosum Phisai","countryCode":"TH","stateCode":"44","latitude":16.23882,"longitude":102.99081},{"name":"Amphoe Kra Buri","countryCode":"TH","stateCode":"85","latitude":10.45895,"longitude":98.84373},{"name":"Amphoe Kranuan","countryCode":"TH","stateCode":"40","latitude":16.75261,"longitude":103.08044},{"name":"Amphoe Krasae Sin","countryCode":"TH","stateCode":"90","latitude":7.61254,"longitude":100.32827},{"name":"Amphoe Krasang","countryCode":"TH","stateCode":"31","latitude":14.94167,"longitude":103.31898},{"name":"Amphoe Krathum Baen","countryCode":"TH","stateCode":"74","latitude":13.6557,"longitude":100.27282},{"name":"Amphoe Krok Phra","countryCode":"TH","stateCode":"60","latitude":15.58638,"longitude":100.01815},{"name":"Amphoe Krong Pinang","countryCode":"TH","stateCode":"95","latitude":6.39932,"longitude":101.2571},{"name":"Amphoe Ku Kaeo","countryCode":"TH","stateCode":"41","latitude":17.16286,"longitude":103.16754},{"name":"Amphoe Kuchinarai","countryCode":"TH","stateCode":"46","latitude":16.51977,"longitude":104.05097},{"name":"Amphoe Kui Buri","countryCode":"TH","stateCode":"77","latitude":12.11311,"longitude":99.75462},{"name":"Amphoe Kumphawapi","countryCode":"TH","stateCode":"41","latitude":17.09209,"longitude":102.99395},{"name":"Amphoe Kusuman","countryCode":"TH","stateCode":"47","latitude":17.35402,"longitude":104.26677},{"name":"Amphoe Kut Bak","countryCode":"TH","stateCode":"47","latitude":17.08205,"longitude":103.81469},{"name":"Amphoe Kut Chap","countryCode":"TH","stateCode":"41","latitude":17.44009,"longitude":102.54083},{"name":"Amphoe Kut Chum","countryCode":"TH","stateCode":"35","latitude":16.0462,"longitude":104.30545},{"name":"Amphoe Kut Khaopun","countryCode":"TH","stateCode":"34","latitude":15.81907,"longitude":105.04066},{"name":"Amphoe Kut Rang","countryCode":"TH","stateCode":"44","latitude":16.0297,"longitude":102.95059},{"name":"Amphoe La-Ngu","countryCode":"TH","stateCode":"91","latitude":6.90392,"longitude":99.79836},{"name":"Amphoe La-un","countryCode":"TH","stateCode":"85","latitude":10.09691,"longitude":98.78498},{"name":"Amphoe Laem Ngop","countryCode":"TH","stateCode":"23","latitude":12.22028,"longitude":102.36558},{"name":"Amphoe Laem Sing","countryCode":"TH","stateCode":"22","latitude":12.45689,"longitude":102.14262},{"name":"Amphoe Lahan Sai","countryCode":"TH","stateCode":"31","latitude":14.32194,"longitude":102.87994},{"name":"Amphoe Lam Luk Ka","countryCode":"TH","stateCode":"13","latitude":13.97744,"longitude":100.79244},{"name":"Amphoe Lam Plai Mat","countryCode":"TH","stateCode":"31","latitude":15.01688,"longitude":102.87479},{"name":"Amphoe Lam Sonthi","countryCode":"TH","stateCode":"16","latitude":15.32833,"longitude":101.34783},{"name":"Amphoe Lam Thamen Chai","countryCode":"TH","stateCode":"30","latitude":15.28424,"longitude":102.90723},{"name":"Amphoe Lam Thap","countryCode":"TH","stateCode":"81","latitude":8.04799,"longitude":99.33543},{"name":"Amphoe Lamae","countryCode":"TH","stateCode":"86","latitude":9.75567,"longitude":99.04378},{"name":"Amphoe Lamduan","countryCode":"TH","stateCode":"32","latitude":14.71907,"longitude":103.69911},{"name":"Amphoe Lan Krabue","countryCode":"TH","stateCode":"62","latitude":16.60348,"longitude":99.86521},{"name":"Amphoe Lan Sak","countryCode":"TH","stateCode":"61","latitude":15.52289,"longitude":99.4611},{"name":"Amphoe Lan Saka","countryCode":"TH","stateCode":"80","latitude":8.37799,"longitude":99.78328},{"name":"Amphoe Lang Suan","countryCode":"TH","stateCode":"86","latitude":9.93386,"longitude":99.05292},{"name":"Amphoe Lao Khwan","countryCode":"TH","stateCode":"71","latitude":14.59488,"longitude":99.68338},{"name":"Amphoe Lao Suea Kok","countryCode":"TH","stateCode":"34","latitude":15.43952,"longitude":104.91662},{"name":"Amphoe Lap Lae","countryCode":"TH","stateCode":"53","latitude":17.65741,"longitude":100.01484},{"name":"Amphoe Lat Bua Luang","countryCode":"TH","stateCode":"14","latitude":14.1681,"longitude":100.34892},{"name":"Amphoe Lat Lum Kaeo","countryCode":"TH","stateCode":"13","latitude":14.04459,"longitude":100.40948},{"name":"Amphoe Lat Yao","countryCode":"TH","stateCode":"60","latitude":15.77526,"longitude":99.80046},{"name":"Amphoe Li","countryCode":"TH","stateCode":"51","latitude":17.78639,"longitude":98.88674},{"name":"Amphoe Loeng Nok Tha","countryCode":"TH","stateCode":"35","latitude":16.20433,"longitude":104.51442},{"name":"Amphoe Lom Kao","countryCode":"TH","stateCode":"67","latitude":16.97209,"longitude":101.26185},{"name":"Amphoe Lom Sak","countryCode":"TH","stateCode":"67","latitude":16.72837,"longitude":101.31139},{"name":"Amphoe Long","countryCode":"TH","stateCode":"54","latitude":18.14262,"longitude":99.90901},{"name":"Amphoe Lue Amnat","countryCode":"TH","stateCode":"37","latitude":15.70781,"longitude":104.71118},{"name":"Amphoe Mae Ai","countryCode":"TH","stateCode":"50","latitude":19.99136,"longitude":99.33976},{"name":"Amphoe Mae Chaem","countryCode":"TH","stateCode":"50","latitude":18.66694,"longitude":98.3245},{"name":"Amphoe Mae Chai","countryCode":"TH","stateCode":"56","latitude":19.37925,"longitude":99.80141},{"name":"Amphoe Mae Chan","countryCode":"TH","stateCode":"57","latitude":20.1991,"longitude":99.88468},{"name":"Amphoe Mae Charim","countryCode":"TH","stateCode":"55","latitude":18.71336,"longitude":101.11011},{"name":"Amphoe Mae Fa Luang","countryCode":"TH","stateCode":"57","latitude":20.22228,"longitude":99.64147},{"name":"Amphoe Mae La Noi","countryCode":"TH","stateCode":"58","latitude":18.47823,"longitude":97.98295},{"name":"Amphoe Mae Lan","countryCode":"TH","stateCode":"94","latitude":6.66833,"longitude":101.23149},{"name":"Amphoe Mae Lao","countryCode":"TH","stateCode":"57","latitude":19.77223,"longitude":99.71128},{"name":"Amphoe Mae Mo","countryCode":"TH","stateCode":"52","latitude":18.40244,"longitude":99.82135},{"name":"Amphoe Mae On","countryCode":"TH","stateCode":"50","latitude":18.73496,"longitude":99.30378},{"name":"Amphoe Mae Phrik","countryCode":"TH","stateCode":"52","latitude":17.5045,"longitude":99.05847},{"name":"Amphoe Mae Poen","countryCode":"TH","stateCode":"60","latitude":15.70656,"longitude":99.34827},{"name":"Amphoe Mae Ramat","countryCode":"TH","stateCode":"63","latitude":17.1118,"longitude":98.58635},{"name":"Amphoe Mae Rim","countryCode":"TH","stateCode":"50","latitude":18.94139,"longitude":98.88667},{"name":"Amphoe Mae Sai","countryCode":"TH","stateCode":"57","latitude":20.365,"longitude":99.92604},{"name":"Amphoe Mae Sariang","countryCode":"TH","stateCode":"58","latitude":18.26474,"longitude":97.77057},{"name":"Amphoe Mae Sot","countryCode":"TH","stateCode":"63","latitude":16.72154,"longitude":98.71074},{"name":"Amphoe Mae Suai","countryCode":"TH","stateCode":"57","latitude":19.69037,"longitude":99.48459},{"name":"Amphoe Mae Taeng","countryCode":"TH","stateCode":"50","latitude":19.16667,"longitude":98.83333},{"name":"Amphoe Mae Tha","countryCode":"TH","stateCode":"51","latitude":18.3954,"longitude":99.09233},{"name":"Amphoe Mae Tha","countryCode":"TH","stateCode":"52","latitude":18.11122,"longitude":99.57826},{"name":"Amphoe Mae Wang","countryCode":"TH","stateCode":"50","latitude":18.67457,"longitude":98.68714},{"name":"Amphoe Mae Wong","countryCode":"TH","stateCode":"60","latitude":15.83538,"longitude":99.40785},{"name":"Amphoe Maha Chana Chai","countryCode":"TH","stateCode":"35","latitude":15.51267,"longitude":104.26104},{"name":"Amphoe Maha Rat","countryCode":"TH","stateCode":"14","latitude":14.57064,"longitude":100.54089},{"name":"Amphoe Mai Kaen","countryCode":"TH","stateCode":"94","latitude":6.61603,"longitude":101.67864},{"name":"Amphoe Makham","countryCode":"TH","stateCode":"22","latitude":12.73333,"longitude":102.21667},{"name":"Amphoe Manang","countryCode":"TH","stateCode":"91","latitude":7.01822,"longitude":99.95399},{"name":"Amphoe Mancha Khiri","countryCode":"TH","stateCode":"40","latitude":16.21242,"longitude":102.51973},{"name":"Amphoe Manorom","countryCode":"TH","stateCode":"18","latitude":15.31894,"longitude":100.15677},{"name":"Amphoe Mayo","countryCode":"TH","stateCode":"94","latitude":6.70764,"longitude":101.40359},{"name":"Amphoe Moeiwadi","countryCode":"TH","stateCode":"45","latitude":16.37155,"longitude":104.11137},{"name":"Amphoe Muak Lek","countryCode":"TH","stateCode":"19","latitude":14.77706,"longitude":101.27151},{"name":"Amphoe Muang Sam Sip","countryCode":"TH","stateCode":"34","latitude":15.52637,"longitude":104.71661},{"name":"Amphoe Mueang Amnat Charoen","countryCode":"TH","stateCode":"37","latitude":15.87864,"longitude":104.64284},{"name":"Amphoe Mueang Ang Thong","countryCode":"TH","stateCode":"15","latitude":14.57815,"longitude":100.44393},{"name":"Amphoe Mueang Bueng Kan","countryCode":"TH","stateCode":"38","latitude":18.2995,"longitude":103.64016},{"name":"Amphoe Mueang Buriram","countryCode":"TH","stateCode":"31","latitude":14.94078,"longitude":103.06244},{"name":"Amphoe Mueang Chachoengsao","countryCode":"TH","stateCode":"24","latitude":13.71758,"longitude":101.02152},{"name":"Amphoe Mueang Chainat","countryCode":"TH","stateCode":"18","latitude":15.19104,"longitude":100.1354},{"name":"Amphoe Mueang Chan","countryCode":"TH","stateCode":"33","latitude":15.18249,"longitude":104.02471},{"name":"Amphoe Mueang Chanthaburi","countryCode":"TH","stateCode":"22","latitude":12.59542,"longitude":102.12263},{"name":"Amphoe Mueang Chiang Mai","countryCode":"TH","stateCode":"50","latitude":18.79008,"longitude":98.96869},{"name":"Amphoe Mueang Chiang Rai","countryCode":"TH","stateCode":"57","latitude":19.90824,"longitude":99.77299},{"name":"Amphoe Mueang Chumphon","countryCode":"TH","stateCode":"86","latitude":10.46077,"longitude":99.10608},{"name":"Amphoe Mueang Kalasin","countryCode":"TH","stateCode":"46","latitude":16.50918,"longitude":103.54984},{"name":"Amphoe Mueang Kamphaeng Phet","countryCode":"TH","stateCode":"62","latitude":16.43254,"longitude":99.48831},{"name":"Amphoe Mueang Kanchanaburi","countryCode":"TH","stateCode":"71","latitude":14.06987,"longitude":99.32769},{"name":"Amphoe Mueang Khon Kaen","countryCode":"TH","stateCode":"40","latitude":16.46048,"longitude":102.80873},{"name":"Amphoe Mueang Krabi","countryCode":"TH","stateCode":"81","latitude":8.15947,"longitude":98.86661},{"name":"Amphoe Mueang Lampang","countryCode":"TH","stateCode":"52","latitude":18.38901,"longitude":99.54388},{"name":"Amphoe Mueang Lamphun","countryCode":"TH","stateCode":"51","latitude":18.55217,"longitude":99.05905},{"name":"Amphoe Mueang Loei","countryCode":"TH","stateCode":"42","latitude":17.54211,"longitude":101.71932},{"name":"Amphoe Mueang Mae Hong Son","countryCode":"TH","stateCode":"58","latitude":19.28862,"longitude":98.00607},{"name":"Amphoe Mueang Maha Sarakham","countryCode":"TH","stateCode":"44","latitude":16.11882,"longitude":103.3116},{"name":"Amphoe Mueang Mukdahan","countryCode":"TH","stateCode":"49","latitude":16.5511,"longitude":104.64605},{"name":"Amphoe Mueang Nakhon Nayok","countryCode":"TH","stateCode":"26","latitude":14.2773,"longitude":101.23379},{"name":"Amphoe Mueang Nakhon Pathom","countryCode":"TH","stateCode":"73","latitude":13.81944,"longitude":100.02375},{"name":"Amphoe Mueang Nakhon Phanom","countryCode":"TH","stateCode":"48","latitude":17.31965,"longitude":104.68232},{"name":"Amphoe Mueang Nakhon Ratchasima","countryCode":"TH","stateCode":"30","latitude":14.95678,"longitude":102.08933},{"name":"Amphoe Mueang Nakhon Sawan","countryCode":"TH","stateCode":"60","latitude":15.71991,"longitude":100.10067},{"name":"Amphoe Mueang Nakhon Si Thammarat","countryCode":"TH","stateCode":"80","latitude":8.44013,"longitude":99.98537},{"name":"Amphoe Mueang Nan","countryCode":"TH","stateCode":"55","latitude":18.89008,"longitude":100.67472},{"name":"Amphoe Mueang Narathiwat","countryCode":"TH","stateCode":"96","latitude":6.39391,"longitude":101.81316},{"name":"Amphoe Mueang Nong Bua Lamphu","countryCode":"TH","stateCode":"39","latitude":17.15818,"longitude":102.3986},{"name":"Amphoe Mueang Nong Khai","countryCode":"TH","stateCode":"43","latitude":17.84661,"longitude":102.78911},{"name":"Amphoe Mueang Nonthaburi","countryCode":"TH","stateCode":"12","latitude":13.85581,"longitude":100.49264},{"name":"Amphoe Mueang Pan","countryCode":"TH","stateCode":"52","latitude":18.79093,"longitude":99.45408},{"name":"Amphoe Mueang Pathum Thani","countryCode":"TH","stateCode":"13","latitude":13.99105,"longitude":100.53554},{"name":"Amphoe Mueang Pattani","countryCode":"TH","stateCode":"94","latitude":6.85581,"longitude":101.26761},{"name":"Amphoe Mueang Phangnga","countryCode":"TH","stateCode":"82","latitude":8.4935,"longitude":98.50775},{"name":"Amphoe Mueang Phatthalung","countryCode":"TH","stateCode":"93","latitude":7.6025,"longitude":100.07425},{"name":"Amphoe Mueang Phayao","countryCode":"TH","stateCode":"56","latitude":19.14857,"longitude":99.87325},{"name":"Amphoe Mueang Phetchabun","countryCode":"TH","stateCode":"67","latitude":16.38215,"longitude":101.17652},{"name":"Amphoe Mueang Phetchaburi","countryCode":"TH","stateCode":"76","latitude":13.08173,"longitude":99.96721},{"name":"Amphoe Mueang Phichit","countryCode":"TH","stateCode":"66","latitude":16.40986,"longitude":100.34578},{"name":"Amphoe Mueang Phitsanulok","countryCode":"TH","stateCode":"65","latitude":16.8404,"longitude":100.27298},{"name":"Amphoe Mueang Phrae","countryCode":"TH","stateCode":"54","latitude":18.12258,"longitude":100.2562},{"name":"Amphoe Mueang Phuket","countryCode":"TH","stateCode":"83","latitude":7.85609,"longitude":98.37183},{"name":"Amphoe Mueang Prachin Buri","countryCode":"TH","stateCode":"25","latitude":14.09335,"longitude":101.39776},{"name":"Amphoe Mueang Prachuap Khiri Khan","countryCode":"TH","stateCode":"77","latitude":11.87144,"longitude":99.73563},{"name":"Amphoe Mueang Ranong","countryCode":"TH","stateCode":"85","latitude":9.86238,"longitude":98.62229},{"name":"Amphoe Mueang Ratchaburi","countryCode":"TH","stateCode":"70","latitude":13.54559,"longitude":99.77678},{"name":"Amphoe Mueang Rayong","countryCode":"TH","stateCode":"21","latitude":12.71864,"longitude":101.34491},{"name":"Amphoe Mueang Roi Et","countryCode":"TH","stateCode":"45","latitude":16.01497,"longitude":103.61584},{"name":"Amphoe Mueang Sa Kaeo","countryCode":"TH","stateCode":"27","latitude":13.92969,"longitude":102.10626},{"name":"Amphoe Mueang Sakon Nakhon","countryCode":"TH","stateCode":"47","latitude":17.16163,"longitude":104.10519},{"name":"Amphoe Mueang Samut Prakan","countryCode":"TH","stateCode":"11","latitude":13.56855,"longitude":100.65148},{"name":"Amphoe Mueang Samut Sakhon","countryCode":"TH","stateCode":"74","latitude":13.53163,"longitude":100.25326},{"name":"Amphoe Mueang Samut Songkhram","countryCode":"TH","stateCode":"75","latitude":13.39587,"longitude":99.99929},{"name":"Amphoe Mueang Sara Buri","countryCode":"TH","stateCode":"19","latitude":14.49721,"longitude":100.93829},{"name":"Amphoe Mueang Satun","countryCode":"TH","stateCode":"91","latitude":6.62314,"longitude":100.06681},{"name":"Amphoe Mueang Sing Buri","countryCode":"TH","stateCode":"17","latitude":14.90239,"longitude":100.39731},{"name":"Amphoe Mueang Sisaket","countryCode":"TH","stateCode":"33","latitude":15.08168,"longitude":104.35126},{"name":"Amphoe Mueang Songkhla","countryCode":"TH","stateCode":"90","latitude":7.11075,"longitude":100.60814},{"name":"Amphoe Mueang Suang","countryCode":"TH","stateCode":"45","latitude":15.78619,"longitude":103.75071},{"name":"Amphoe Mueang Sukhothai","countryCode":"TH","stateCode":"64","latitude":17.02318,"longitude":99.77864},{"name":"Amphoe Mueang Suphan Buri","countryCode":"TH","stateCode":"72","latitude":14.49189,"longitude":100.07458},{"name":"Amphoe Mueang Surat Thani","countryCode":"TH","stateCode":"84","latitude":9.10132,"longitude":99.32614},{"name":"Amphoe Mueang Surin","countryCode":"TH","stateCode":"32","latitude":14.88359,"longitude":103.51272},{"name":"Amphoe Mueang Tak","countryCode":"TH","stateCode":"63","latitude":16.8765,"longitude":99.16617},{"name":"Amphoe Mueang Trang","countryCode":"TH","stateCode":"92","latitude":7.60944,"longitude":99.61772},{"name":"Amphoe Mueang Trat","countryCode":"TH","stateCode":"23","latitude":12.26667,"longitude":102.60945},{"name":"Amphoe Mueang Ubon Ratchathani","countryCode":"TH","stateCode":"34","latitude":15.29662,"longitude":104.83052},{"name":"Amphoe Mueang Udon Thani","countryCode":"TH","stateCode":"41","latitude":17.39085,"longitude":102.78912},{"name":"Amphoe Mueang Uthai Thani","countryCode":"TH","stateCode":"61","latitude":15.40857,"longitude":100.02794},{"name":"Amphoe Mueang Uttaradit","countryCode":"TH","stateCode":"53","latitude":17.68138,"longitude":100.19963},{"name":"Amphoe Mueang Yala","countryCode":"TH","stateCode":"95","latitude":6.54378,"longitude":101.25105},{"name":"Amphoe Mueang Yang","countryCode":"TH","stateCode":"30","latitude":15.43842,"longitude":102.89331},{"name":"Amphoe Mueang Yasothon","countryCode":"TH","stateCode":"35","latitude":15.8555,"longitude":104.17804},{"name":"Amphoe Na Bon","countryCode":"TH","stateCode":"80","latitude":8.26976,"longitude":99.55694},{"name":"Amphoe Na Chaluai","countryCode":"TH","stateCode":"34","latitude":14.56695,"longitude":105.22367},{"name":"Amphoe Na Chueak","countryCode":"TH","stateCode":"44","latitude":15.8018,"longitude":103.05725},{"name":"Amphoe Na Di","countryCode":"TH","stateCode":"25","latitude":14.19253,"longitude":101.84557},{"name":"Amphoe Na Duang","countryCode":"TH","stateCode":"42","latitude":17.53833,"longitude":101.99639},{"name":"Amphoe Na Dun","countryCode":"TH","stateCode":"44","latitude":15.71952,"longitude":103.23004},{"name":"Amphoe Na Haeo","countryCode":"TH","stateCode":"42","latitude":17.43942,"longitude":100.99654},{"name":"Amphoe Na Kae","countryCode":"TH","stateCode":"48","latitude":16.95737,"longitude":104.49349},{"name":"Amphoe Na Khu","countryCode":"TH","stateCode":"46","latitude":16.75018,"longitude":104.00062},{"name":"Amphoe Na Klang","countryCode":"TH","stateCode":"39","latitude":17.32466,"longitude":102.21456},{"name":"Amphoe Na Mom","countryCode":"TH","stateCode":"90","latitude":6.9599,"longitude":100.57161},{"name":"Amphoe Na Mon","countryCode":"TH","stateCode":"46","latitude":16.56994,"longitude":103.78015},{"name":"Amphoe Na Muen","countryCode":"TH","stateCode":"55","latitude":18.12524,"longitude":100.6027},{"name":"Amphoe Na Noi","countryCode":"TH","stateCode":"55","latitude":18.30269,"longitude":100.72393},{"name":"Amphoe Na Pho","countryCode":"TH","stateCode":"31","latitude":15.69565,"longitude":102.93857},{"name":"Amphoe Na Tan","countryCode":"TH","stateCode":"34","latitude":15.93485,"longitude":105.28454},{"name":"Amphoe Na Thawi","countryCode":"TH","stateCode":"90","latitude":6.63849,"longitude":100.68173},{"name":"Amphoe Na Thom","countryCode":"TH","stateCode":"48","latitude":17.82134,"longitude":104.10871},{"name":"Amphoe Na Wa","countryCode":"TH","stateCode":"48","latitude":17.49922,"longitude":104.11833},{"name":"Amphoe Na Wang","countryCode":"TH","stateCode":"39","latitude":17.3429,"longitude":102.07157},{"name":"Amphoe Na Yai Am","countryCode":"TH","stateCode":"22","latitude":12.73833,"longitude":101.87502},{"name":"Amphoe Na Yia","countryCode":"TH","stateCode":"34","latitude":15.0414,"longitude":105.05729},{"name":"Amphoe Na Yong","countryCode":"TH","stateCode":"92","latitude":7.56257,"longitude":99.74791},{"name":"Amphoe Na Yung","countryCode":"TH","stateCode":"41","latitude":17.9347,"longitude":102.13417},{"name":"Amphoe Nakhon Chai Si","countryCode":"TH","stateCode":"73","latitude":13.81173,"longitude":100.18157},{"name":"Amphoe Nakhon Luang","countryCode":"TH","stateCode":"14","latitude":14.46703,"longitude":100.62572},{"name":"Amphoe Nakhon Thai","countryCode":"TH","stateCode":"65","latitude":17.09426,"longitude":100.86437},{"name":"Amphoe Nam Khun","countryCode":"TH","stateCode":"34","latitude":14.55508,"longitude":104.89872},{"name":"Amphoe Nam Kliang","countryCode":"TH","stateCode":"33","latitude":14.91022,"longitude":104.52545},{"name":"Amphoe Nam Nao","countryCode":"TH","stateCode":"67","latitude":16.84489,"longitude":101.6008},{"name":"Amphoe Nam Pat","countryCode":"TH","stateCode":"53","latitude":17.70025,"longitude":100.72738},{"name":"Amphoe Nam Phong","countryCode":"TH","stateCode":"40","latitude":16.69946,"longitude":102.88125},{"name":"Amphoe Nam Som","countryCode":"TH","stateCode":"41","latitude":17.74338,"longitude":102.17328},{"name":"Amphoe Nam Yuen","countryCode":"TH","stateCode":"34","latitude":14.48671,"longitude":105.00269},{"name":"Amphoe Nang Rong","countryCode":"TH","stateCode":"31","latitude":14.63333,"longitude":102.76667},{"name":"Amphoe Ngao","countryCode":"TH","stateCode":"52","latitude":18.75948,"longitude":99.95295},{"name":"Amphoe Nikhom Kham Soi","countryCode":"TH","stateCode":"49","latitude":16.35375,"longitude":104.55864},{"name":"Amphoe Nikhom Nam Un","countryCode":"TH","stateCode":"47","latitude":17.17349,"longitude":103.73511},{"name":"Amphoe Nikhom Phattana","countryCode":"TH","stateCode":"21","latitude":12.84489,"longitude":101.15341},{"name":"Amphoe Noen Kham","countryCode":"TH","stateCode":"18","latitude":14.98254,"longitude":99.8459},{"name":"Amphoe Noen Maprang","countryCode":"TH","stateCode":"65","latitude":16.564,"longitude":100.70995},{"name":"Amphoe Non Daeng","countryCode":"TH","stateCode":"30","latitude":15.44479,"longitude":102.54565},{"name":"Amphoe Non Din Daeng","countryCode":"TH","stateCode":"31","latitude":14.2201,"longitude":102.68233},{"name":"Amphoe Non Khun","countryCode":"TH","stateCode":"33","latitude":14.90188,"longitude":104.69564},{"name":"Amphoe Non Narai","countryCode":"TH","stateCode":"32","latitude":15.19111,"longitude":103.92242},{"name":"Amphoe Non Sa-at","countryCode":"TH","stateCode":"41","latitude":16.95002,"longitude":102.8999},{"name":"Amphoe Non Sang","countryCode":"TH","stateCode":"39","latitude":16.9022,"longitude":102.53084},{"name":"Amphoe Non Sila","countryCode":"TH","stateCode":"40","latitude":15.9642,"longitude":102.69074},{"name":"Amphoe Non Sung","countryCode":"TH","stateCode":"30","latitude":15.20892,"longitude":102.284},{"name":"Amphoe Non Suwan","countryCode":"TH","stateCode":"31","latitude":14.55511,"longitude":102.58339},{"name":"Amphoe Non Thai","countryCode":"TH","stateCode":"30","latitude":15.18106,"longitude":102.03001},{"name":"Amphoe Nong Bua","countryCode":"TH","stateCode":"60","latitude":15.86591,"longitude":100.6286},{"name":"Amphoe Nong Bun Mak","countryCode":"TH","stateCode":"30","latitude":14.71295,"longitude":102.37447},{"name":"Amphoe Nong Chang","countryCode":"TH","stateCode":"61","latitude":15.36755,"longitude":99.77273},{"name":"Amphoe Nong Chik","countryCode":"TH","stateCode":"94","latitude":6.80011,"longitude":101.17057},{"name":"Amphoe Nong Don","countryCode":"TH","stateCode":"19","latitude":14.6888,"longitude":100.68527},{"name":"Amphoe Nong Han","countryCode":"TH","stateCode":"41","latitude":17.36853,"longitude":103.1151},{"name":"Amphoe Nong Hi","countryCode":"TH","stateCode":"45","latitude":15.57983,"longitude":104.01134},{"name":"Amphoe Nong Hin","countryCode":"TH","stateCode":"42","latitude":17.08087,"longitude":101.82643},{"name":"Amphoe Nong Hong","countryCode":"TH","stateCode":"31","latitude":14.86149,"longitude":102.6708},{"name":"Amphoe Nong Khae","countryCode":"TH","stateCode":"19","latitude":14.38125,"longitude":100.86451},{"name":"Amphoe Nong Khayang","countryCode":"TH","stateCode":"61","latitude":15.34892,"longitude":99.94706},{"name":"Amphoe Nong Ki","countryCode":"TH","stateCode":"31","latitude":14.72696,"longitude":102.55798},{"name":"Amphoe Nong Kung Si","countryCode":"TH","stateCode":"46","latitude":16.71932,"longitude":103.31922},{"name":"Amphoe Nong Mamong","countryCode":"TH","stateCode":"18","latitude":15.23372,"longitude":99.81087},{"name":"Amphoe Nong Muang","countryCode":"TH","stateCode":"16","latitude":15.2774,"longitude":100.70413},{"name":"Amphoe Nong Muang Khai","countryCode":"TH","stateCode":"54","latitude":18.28845,"longitude":100.15231},{"name":"Amphoe Nong Na Kham","countryCode":"TH","stateCode":"40","latitude":16.8101,"longitude":102.328},{"name":"Amphoe Nong Phai","countryCode":"TH","stateCode":"67","latitude":16.01162,"longitude":101.15042},{"name":"Amphoe Nong Phok","countryCode":"TH","stateCode":"45","latitude":16.30357,"longitude":104.22144},{"name":"Amphoe Nong Prue","countryCode":"TH","stateCode":"71","latitude":14.67801,"longitude":99.41075},{"name":"Amphoe Nong Ruea","countryCode":"TH","stateCode":"40","latitude":16.49166,"longitude":102.44572},{"name":"Amphoe Nong Saeng","countryCode":"TH","stateCode":"19","latitude":14.48283,"longitude":100.80463},{"name":"Amphoe Nong Saeng","countryCode":"TH","stateCode":"41","latitude":17.14166,"longitude":102.78592},{"name":"Amphoe Nong Song Hong","countryCode":"TH","stateCode":"40","latitude":15.76419,"longitude":102.79174},{"name":"Amphoe Nong Suea","countryCode":"TH","stateCode":"13","latitude":14.1603,"longitude":100.83929},{"name":"Amphoe Nong Sung","countryCode":"TH","stateCode":"49","latitude":16.44759,"longitude":104.33649},{"name":"Amphoe Nong Wua So","countryCode":"TH","stateCode":"41","latitude":17.18691,"longitude":102.58986},{"name":"Amphoe Nong Ya Plong","countryCode":"TH","stateCode":"76","latitude":13.1259,"longitude":99.4688},{"name":"Amphoe Nong Yai","countryCode":"TH","stateCode":"20","latitude":13.11772,"longitude":101.37471},{"name":"Amphoe Nong Yasai","countryCode":"TH","stateCode":"72","latitude":14.77644,"longitude":99.85751},{"name":"Amphoe Nopphitam","countryCode":"TH","stateCode":"80","latitude":8.75166,"longitude":99.67087},{"name":"Amphoe Nuea Khlong","countryCode":"TH","stateCode":"81","latitude":8.06058,"longitude":99.04039},{"name":"Amphoe Om Koi","countryCode":"TH","stateCode":"50","latitude":17.69842,"longitude":98.35433},{"name":"Amphoe Ongkharak","countryCode":"TH","stateCode":"26","latitude":14.07554,"longitude":101.00891},{"name":"Amphoe Pa Bon","countryCode":"TH","stateCode":"93","latitude":7.21994,"longitude":100.13078},{"name":"Amphoe Pa Daet","countryCode":"TH","stateCode":"57","latitude":19.50643,"longitude":99.97615},{"name":"Amphoe Pa Kham","countryCode":"TH","stateCode":"31","latitude":14.4,"longitude":102.66667},{"name":"Amphoe Pa Mok","countryCode":"TH","stateCode":"15","latitude":14.4862,"longitude":100.4573},{"name":"Amphoe Pa Phayom","countryCode":"TH","stateCode":"93","latitude":7.83154,"longitude":99.87448},{"name":"Amphoe Pa Sang","countryCode":"TH","stateCode":"51","latitude":18.41397,"longitude":98.88281},{"name":"Amphoe Pa Tio","countryCode":"TH","stateCode":"35","latitude":15.84415,"longitude":104.39994},{"name":"Amphoe Pai","countryCode":"TH","stateCode":"58","latitude":19.36036,"longitude":98.40638},{"name":"Amphoe Pak Chom","countryCode":"TH","stateCode":"42","latitude":17.911,"longitude":101.95777},{"name":"Amphoe Pak Chong","countryCode":"TH","stateCode":"30","latitude":14.61923,"longitude":101.44814},{"name":"Amphoe Pak Khat","countryCode":"TH","stateCode":"38","latitude":18.27738,"longitude":103.3414},{"name":"Amphoe Pak Kret","countryCode":"TH","stateCode":"12","latitude":13.91626,"longitude":100.50397},{"name":"Amphoe Pak Phanang","countryCode":"TH","stateCode":"80","latitude":8.30711,"longitude":100.17361},{"name":"Amphoe Pak Phayun","countryCode":"TH","stateCode":"93","latitude":7.29622,"longitude":100.29542},{"name":"Amphoe Pak Phli","countryCode":"TH","stateCode":"26","latitude":14.22499,"longitude":101.34482},{"name":"Amphoe Pak Tho","countryCode":"TH","stateCode":"70","latitude":13.38761,"longitude":99.677},{"name":"Amphoe Pak Thong Chai","countryCode":"TH","stateCode":"30","latitude":14.66228,"longitude":101.94227},{"name":"Amphoe Palian","countryCode":"TH","stateCode":"92","latitude":7.2334,"longitude":99.79491},{"name":"Amphoe Panare","countryCode":"TH","stateCode":"94","latitude":6.81211,"longitude":101.51247},{"name":"Amphoe Pang Mapha","countryCode":"TH","stateCode":"58","latitude":19.60451,"longitude":98.2056},{"name":"Amphoe Pang Sila Thong","countryCode":"TH","stateCode":"62","latitude":16.02525,"longitude":99.35593},{"name":"Amphoe Pathio","countryCode":"TH","stateCode":"86","latitude":10.81008,"longitude":99.33938},{"name":"Amphoe Pathum Rat","countryCode":"TH","stateCode":"45","latitude":15.62371,"longitude":103.38733},{"name":"Amphoe Pathum Ratchawongsa","countryCode":"TH","stateCode":"37","latitude":15.89542,"longitude":104.89611},{"name":"Amphoe Pha Khao","countryCode":"TH","stateCode":"42","latitude":17.05638,"longitude":102.01575},{"name":"Amphoe Phachi","countryCode":"TH","stateCode":"14","latitude":14.43795,"longitude":100.7278},{"name":"Amphoe Phai Sali","countryCode":"TH","stateCode":"60","latitude":15.58723,"longitude":100.6853},{"name":"Amphoe Phak Hai","countryCode":"TH","stateCode":"14","latitude":14.45073,"longitude":100.33949},{"name":"Amphoe Phan","countryCode":"TH","stateCode":"57","latitude":19.5745,"longitude":99.77299},{"name":"Amphoe Phan Thong","countryCode":"TH","stateCode":"20","latitude":13.463,"longitude":101.09131},{"name":"Amphoe Phana","countryCode":"TH","stateCode":"37","latitude":15.66895,"longitude":104.85675},{"name":"Amphoe Phanat Nikhom","countryCode":"TH","stateCode":"20","latitude":13.46434,"longitude":101.21428},{"name":"Amphoe Phang Khon","countryCode":"TH","stateCode":"47","latitude":17.38267,"longitude":103.75146},{"name":"Amphoe Phanna Nikhom","countryCode":"TH","stateCode":"47","latitude":17.31369,"longitude":103.89791},{"name":"Amphoe Phanom","countryCode":"TH","stateCode":"84","latitude":8.82254,"longitude":98.71709},{"name":"Amphoe Phanom Dong Rak","countryCode":"TH","stateCode":"32","latitude":14.42745,"longitude":103.31007},{"name":"Amphoe Phanom Phrai","countryCode":"TH","stateCode":"45","latitude":15.693,"longitude":104.0755},{"name":"Amphoe Phanom Sarakham","countryCode":"TH","stateCode":"24","latitude":13.73806,"longitude":101.41202},{"name":"Amphoe Phanom Thuan","countryCode":"TH","stateCode":"71","latitude":14.15941,"longitude":99.66904},{"name":"Amphoe Phato","countryCode":"TH","stateCode":"86","latitude":9.81066,"longitude":98.80178},{"name":"Amphoe Phatthana Nikhom","countryCode":"TH","stateCode":"16","latitude":14.90917,"longitude":101.02673},{"name":"Amphoe Phaya Mengrai","countryCode":"TH","stateCode":"57","latitude":19.8732,"longitude":100.16257},{"name":"Amphoe Phayakkhaphum Phisai","countryCode":"TH","stateCode":"44","latitude":15.51963,"longitude":103.23268},{"name":"Amphoe Phayu","countryCode":"TH","stateCode":"33","latitude":14.90639,"longitude":104.38293},{"name":"Amphoe Phayuha Khiri","countryCode":"TH","stateCode":"60","latitude":15.50783,"longitude":100.21226},{"name":"Amphoe Phen","countryCode":"TH","stateCode":"41","latitude":17.66033,"longitude":102.93052},{"name":"Amphoe Phibun Mangsahan","countryCode":"TH","stateCode":"34","latitude":15.14589,"longitude":105.24094},{"name":"Amphoe Phibun Rak","countryCode":"TH","stateCode":"41","latitude":17.5263,"longitude":103.07497},{"name":"Amphoe Phichai","countryCode":"TH","stateCode":"53","latitude":17.30188,"longitude":100.11281},{"name":"Amphoe Phimai","countryCode":"TH","stateCode":"30","latitude":15.24622,"longitude":102.54217},{"name":"Amphoe Phipun","countryCode":"TH","stateCode":"80","latitude":8.60289,"longitude":99.59528},{"name":"Amphoe Phlapphla Chai","countryCode":"TH","stateCode":"31","latitude":14.73299,"longitude":103.17015},{"name":"Amphoe Pho Chai","countryCode":"TH","stateCode":"45","latitude":16.30969,"longitude":103.79004},{"name":"Amphoe Pho Prathap Chang","countryCode":"TH","stateCode":"66","latitude":16.31294,"longitude":100.19897},{"name":"Amphoe Pho Sai","countryCode":"TH","stateCode":"34","latitude":15.76739,"longitude":105.34339},{"name":"Amphoe Pho Si Suwan","countryCode":"TH","stateCode":"33","latitude":15.2337,"longitude":104.06739},{"name":"Amphoe Pho Tak","countryCode":"TH","stateCode":"43","latitude":17.88819,"longitude":102.43023},{"name":"Amphoe Pho Thale","countryCode":"TH","stateCode":"66","latitude":16.05885,"longitude":100.24579},{"name":"Amphoe Pho Thong","countryCode":"TH","stateCode":"15","latitude":14.67344,"longitude":100.34569},{"name":"Amphoe Phon","countryCode":"TH","stateCode":"40","latitude":15.80672,"longitude":102.59111},{"name":"Amphoe Phon Charoen","countryCode":"TH","stateCode":"38","latitude":18.07967,"longitude":103.65453},{"name":"Amphoe Phon Na Kaeo","countryCode":"TH","stateCode":"47","latitude":17.21248,"longitude":104.307},{"name":"Amphoe Phon Sai","countryCode":"TH","stateCode":"45","latitude":15.49244,"longitude":103.94139},{"name":"Amphoe Phon Sawan","countryCode":"TH","stateCode":"48","latitude":17.46868,"longitude":104.42234},{"name":"Amphoe Phon Thong","countryCode":"TH","stateCode":"45","latitude":16.29007,"longitude":103.96388},{"name":"Amphoe Phonphisai","countryCode":"TH","stateCode":"43","latitude":17.95443,"longitude":103.12279},{"name":"Amphoe Phop Phra","countryCode":"TH","stateCode":"63","latitude":16.47215,"longitude":98.83501},{"name":"Amphoe Photharam","countryCode":"TH","stateCode":"70","latitude":13.70707,"longitude":99.75622},{"name":"Amphoe Phra Nakhon Si Ayutthaya","countryCode":"TH","stateCode":"14","latitude":14.35172,"longitude":100.56719},{"name":"Amphoe Phra Phrom","countryCode":"TH","stateCode":"80","latitude":8.32652,"longitude":99.9324},{"name":"Amphoe Phra Phutthabat","countryCode":"TH","stateCode":"19","latitude":14.71912,"longitude":100.80622},{"name":"Amphoe Phra Pradaeng","countryCode":"TH","stateCode":"11","latitude":13.65246,"longitude":100.55271},{"name":"Amphoe Phra Samut Chedi","countryCode":"TH","stateCode":"11","latitude":13.55622,"longitude":100.51485},{"name":"Amphoe Phra Thong Kham","countryCode":"TH","stateCode":"30","latitude":15.35114,"longitude":101.99355},{"name":"Amphoe Phra Yuen","countryCode":"TH","stateCode":"40","latitude":16.30823,"longitude":102.67108},{"name":"Amphoe Phrai Bueng","countryCode":"TH","stateCode":"33","latitude":14.77989,"longitude":104.36599},{"name":"Amphoe Phran Kratai","countryCode":"TH","stateCode":"62","latitude":16.70541,"longitude":99.53704},{"name":"Amphoe Phrao","countryCode":"TH","stateCode":"50","latitude":19.2846,"longitude":99.22277},{"name":"Amphoe Phrasaeng","countryCode":"TH","stateCode":"84","latitude":8.55124,"longitude":99.1052},{"name":"Amphoe Phrom Buri","countryCode":"TH","stateCode":"17","latitude":14.78333,"longitude":100.45},{"name":"Amphoe Phrom Khiri","countryCode":"TH","stateCode":"80","latitude":8.54242,"longitude":99.79229},{"name":"Amphoe Phrom Phiram","countryCode":"TH","stateCode":"65","latitude":17.06894,"longitude":100.1535},{"name":"Amphoe Phu Kam Yao","countryCode":"TH","stateCode":"56","latitude":19.3117,"longitude":99.96614},{"name":"Amphoe Phu Kradueng","countryCode":"TH","stateCode":"42","latitude":16.9019,"longitude":101.84562},{"name":"Amphoe Phu Luang","countryCode":"TH","stateCode":"42","latitude":17.09782,"longitude":101.64413},{"name":"Amphoe Phu Pha Man","countryCode":"TH","stateCode":"40","latitude":16.71864,"longitude":101.87081},{"name":"Amphoe Phu Phan","countryCode":"TH","stateCode":"47","latitude":16.92862,"longitude":103.924},{"name":"Amphoe Phu Phiang","countryCode":"TH","stateCode":"55","latitude":18.7803,"longitude":100.87497},{"name":"Amphoe Phu Ruea","countryCode":"TH","stateCode":"42","latitude":17.35076,"longitude":101.41329},{"name":"Amphoe Phu Sang","countryCode":"TH","stateCode":"56","latitude":19.62372,"longitude":100.37246},{"name":"Amphoe Phu Sing","countryCode":"TH","stateCode":"33","latitude":14.48873,"longitude":104.15603},{"name":"Amphoe Phu Wiang","countryCode":"TH","stateCode":"40","latitude":16.6791,"longitude":102.39893},{"name":"Amphoe Phunphin","countryCode":"TH","stateCode":"84","latitude":9.02472,"longitude":99.14304},{"name":"Amphoe Phutthaisong","countryCode":"TH","stateCode":"31","latitude":15.53249,"longitude":102.98701},{"name":"Amphoe Phutthamonthon","countryCode":"TH","stateCode":"73","latitude":13.82559,"longitude":100.29239},{"name":"Amphoe Pla Pak","countryCode":"TH","stateCode":"48","latitude":17.20133,"longitude":104.54674},{"name":"Amphoe Plaeng Yao","countryCode":"TH","stateCode":"24","latitude":13.56381,"longitude":101.33972},{"name":"Amphoe Plai Phraya","countryCode":"TH","stateCode":"81","latitude":8.54087,"longitude":98.83671},{"name":"Amphoe Pluak Daeng","countryCode":"TH","stateCode":"21","latitude":12.98333,"longitude":101.25},{"name":"Amphoe Pong","countryCode":"TH","stateCode":"56","latitude":19.185,"longitude":100.3878},{"name":"Amphoe Pong Nam Ron","countryCode":"TH","stateCode":"22","latitude":12.93467,"longitude":102.37189},{"name":"Amphoe Prachak Sinlapakhom","countryCode":"TH","stateCode":"41","latitude":17.24648,"longitude":102.98713},{"name":"Amphoe Prachantakham","countryCode":"TH","stateCode":"25","latitude":14.22813,"longitude":101.5744},{"name":"Amphoe Prakhon Chai","countryCode":"TH","stateCode":"31","latitude":14.61041,"longitude":103.06054},{"name":"Amphoe Pran Buri","countryCode":"TH","stateCode":"77","latitude":12.3904,"longitude":99.6969},{"name":"Amphoe Prang Ku","countryCode":"TH","stateCode":"33","latitude":14.85443,"longitude":104.0374},{"name":"Amphoe Prasat","countryCode":"TH","stateCode":"32","latitude":14.62602,"longitude":103.41569},{"name":"Amphoe Prathai","countryCode":"TH","stateCode":"30","latitude":15.55911,"longitude":102.69786},{"name":"Amphoe Pua","countryCode":"TH","stateCode":"55","latitude":19.16306,"longitude":101.02796},{"name":"Amphoe Pueai Noi","countryCode":"TH","stateCode":"40","latitude":15.88867,"longitude":102.87618},{"name":"Amphoe Ra-ngae","countryCode":"TH","stateCode":"96","latitude":6.25504,"longitude":101.70496},{"name":"Amphoe Raman","countryCode":"TH","stateCode":"95","latitude":6.48985,"longitude":101.43442},{"name":"Amphoe Ranot","countryCode":"TH","stateCode":"90","latitude":7.8139,"longitude":100.28323},{"name":"Amphoe Rasi Salai","countryCode":"TH","stateCode":"33","latitude":15.34637,"longitude":104.18617},{"name":"Amphoe Ratchasan","countryCode":"TH","stateCode":"24","latitude":13.7866,"longitude":101.28136},{"name":"Amphoe Ratsada","countryCode":"TH","stateCode":"92","latitude":7.93779,"longitude":99.66771},{"name":"Amphoe Rattanaburi","countryCode":"TH","stateCode":"32","latitude":15.3378,"longitude":103.90541},{"name":"Amphoe Rattanawapi","countryCode":"TH","stateCode":"43","latitude":18.19255,"longitude":103.2376},{"name":"Amphoe Rattaphum","countryCode":"TH","stateCode":"90","latitude":7.07488,"longitude":100.19515},{"name":"Amphoe Renu Nakhon","countryCode":"TH","stateCode":"48","latitude":17.0508,"longitude":104.65664},{"name":"Amphoe Ron Phibun","countryCode":"TH","stateCode":"80","latitude":8.17997,"longitude":99.89248},{"name":"Amphoe Rong Kham","countryCode":"TH","stateCode":"46","latitude":16.27925,"longitude":103.71238},{"name":"Amphoe Rong Kwang","countryCode":"TH","stateCode":"54","latitude":18.32614,"longitude":100.39418},{"name":"Amphoe Rueso","countryCode":"TH","stateCode":"96","latitude":6.3745,"longitude":101.51491},{"name":"Amphoe Sa Bot","countryCode":"TH","stateCode":"16","latitude":15.23832,"longitude":100.88318},{"name":"Amphoe Sa Khrai","countryCode":"TH","stateCode":"43","latitude":17.65985,"longitude":102.70847},{"name":"Amphoe Saba Yoi","countryCode":"TH","stateCode":"90","latitude":6.52971,"longitude":100.91232},{"name":"Amphoe Sadao","countryCode":"TH","stateCode":"90","latitude":6.67135,"longitude":100.42409},{"name":"Amphoe Sahatsakhan","countryCode":"TH","stateCode":"46","latitude":16.70987,"longitude":103.57909},{"name":"Amphoe Sai Buri","countryCode":"TH","stateCode":"94","latitude":6.7,"longitude":101.58333},{"name":"Amphoe Sai Mun","countryCode":"TH","stateCode":"35","latitude":15.97917,"longitude":104.1907},{"name":"Amphoe Sai Ngam","countryCode":"TH","stateCode":"62","latitude":16.43956,"longitude":99.87457},{"name":"Amphoe Sai Noi","countryCode":"TH","stateCode":"12","latitude":14.00627,"longitude":100.31072},{"name":"Amphoe Sai Thong Watthana","countryCode":"TH","stateCode":"62","latitude":16.30859,"longitude":99.87854},{"name":"Amphoe Sai Yok","countryCode":"TH","stateCode":"71","latitude":14.25652,"longitude":98.93372},{"name":"Amphoe Sak Lek","countryCode":"TH","stateCode":"66","latitude":16.50717,"longitude":100.5235},{"name":"Amphoe Sam Chai","countryCode":"TH","stateCode":"46","latitude":16.86909,"longitude":103.52243},{"name":"Amphoe Sam Phran","countryCode":"TH","stateCode":"73","latitude":13.72035,"longitude":100.21071},{"name":"Amphoe Sam Roi Yot","countryCode":"TH","stateCode":"77","latitude":12.25586,"longitude":99.7401},{"name":"Amphoe Sam Sung","countryCode":"TH","stateCode":"40","latitude":16.56208,"longitude":103.05473},{"name":"Amphoe Samoeng","countryCode":"TH","stateCode":"50","latitude":18.90027,"longitude":98.6565},{"name":"Amphoe Samrong","countryCode":"TH","stateCode":"34","latitude":14.98532,"longitude":104.79139},{"name":"Amphoe Samrong Thap","countryCode":"TH","stateCode":"32","latitude":15.0398,"longitude":103.94089},{"name":"Amphoe San Kamphaeng","countryCode":"TH","stateCode":"50","latitude":18.73497,"longitude":99.18609},{"name":"Amphoe San Pa Tong","countryCode":"TH","stateCode":"50","latitude":18.60567,"longitude":98.88531},{"name":"Amphoe San Sai","countryCode":"TH","stateCode":"50","latitude":18.94101,"longitude":99.04048},{"name":"Amphoe Sanam Chai Khet","countryCode":"TH","stateCode":"24","latitude":13.62612,"longitude":101.65475},{"name":"Amphoe Sang Khom","countryCode":"TH","stateCode":"41","latitude":17.79433,"longitude":103.05114},{"name":"Amphoe Sangkha","countryCode":"TH","stateCode":"32","latitude":14.57051,"longitude":103.83911},{"name":"Amphoe Sangkhla Buri","countryCode":"TH","stateCode":"71","latitude":15.19337,"longitude":98.52791},{"name":"Amphoe Sangkhom","countryCode":"TH","stateCode":"43","latitude":18.05392,"longitude":102.22677},{"name":"Amphoe Sankhaburi","countryCode":"TH","stateCode":"18","latitude":15.02105,"longitude":100.17038},{"name":"Amphoe Sanom","countryCode":"TH","stateCode":"32","latitude":15.17099,"longitude":103.78475},{"name":"Amphoe Santi Suk","countryCode":"TH","stateCode":"55","latitude":18.9119,"longitude":101.00016},{"name":"Amphoe Sao Hai","countryCode":"TH","stateCode":"19","latitude":14.57549,"longitude":100.8439},{"name":"Amphoe Sapphaya","countryCode":"TH","stateCode":"18","latitude":15.14873,"longitude":100.25506},{"name":"Amphoe Saraphi","countryCode":"TH","stateCode":"50","latitude":18.70511,"longitude":99.02989},{"name":"Amphoe Sathing Phra","countryCode":"TH","stateCode":"90","latitude":7.47963,"longitude":100.42227},{"name":"Amphoe Sattahip","countryCode":"TH","stateCode":"20","latitude":12.71743,"longitude":100.92754},{"name":"Amphoe Satuek","countryCode":"TH","stateCode":"31","latitude":15.22699,"longitude":103.33006},{"name":"Amphoe Sawaeng Ha","countryCode":"TH","stateCode":"15","latitude":14.74635,"longitude":100.28963},{"name":"Amphoe Sawang Arom","countryCode":"TH","stateCode":"61","latitude":15.6025,"longitude":99.7849},{"name":"Amphoe Sawang Daen Din","countryCode":"TH","stateCode":"47","latitude":17.4559,"longitude":103.4495},{"name":"Amphoe Sawang Wirawong","countryCode":"TH","stateCode":"34","latitude":15.23439,"longitude":105.076},{"name":"Amphoe Sawankhalok","countryCode":"TH","stateCode":"64","latitude":17.29899,"longitude":99.85396},{"name":"Amphoe Sawi","countryCode":"TH","stateCode":"86","latitude":10.24008,"longitude":99.01865},{"name":"Amphoe Seka","countryCode":"TH","stateCode":"38","latitude":17.98734,"longitude":103.89616},{"name":"Amphoe Selaphum","countryCode":"TH","stateCode":"45","latitude":16.047,"longitude":104.00031},{"name":"Amphoe Sena","countryCode":"TH","stateCode":"14","latitude":14.29605,"longitude":100.37486},{"name":"Amphoe Senangkhanikhom","countryCode":"TH","stateCode":"37","latitude":16.0513,"longitude":104.68441},{"name":"Amphoe Si Banphot","countryCode":"TH","stateCode":"93","latitude":7.69259,"longitude":99.87322},{"name":"Amphoe Si Bun Rueang","countryCode":"TH","stateCode":"39","latitude":16.99775,"longitude":102.22528},{"name":"Amphoe Si Chiang Mai","countryCode":"TH","stateCode":"43","latitude":17.93574,"longitude":102.50306},{"name":"Amphoe Si Chom Phu","countryCode":"TH","stateCode":"40","latitude":16.76258,"longitude":102.13078},{"name":"Amphoe Si Khoraphum","countryCode":"TH","stateCode":"32","latitude":14.94753,"longitude":103.7831},{"name":"Amphoe Si Maha Phot","countryCode":"TH","stateCode":"25","latitude":13.89041,"longitude":101.54181},{"name":"Amphoe Si Mahosot","countryCode":"TH","stateCode":"25","latitude":13.87669,"longitude":101.42499},{"name":"Amphoe Si Mueang Mai","countryCode":"TH","stateCode":"34","latitude":15.56297,"longitude":105.3483},{"name":"Amphoe Si Nakhon","countryCode":"TH","stateCode":"64","latitude":17.39275,"longitude":99.97666},{"name":"Amphoe Si Narong","countryCode":"TH","stateCode":"32","latitude":14.78085,"longitude":103.88651},{"name":"Amphoe Si Prachan","countryCode":"TH","stateCode":"72","latitude":14.6381,"longitude":100.1505},{"name":"Amphoe Si Racha","countryCode":"TH","stateCode":"20","latitude":13.12976,"longitude":101.04008},{"name":"Amphoe Si Rattana","countryCode":"TH","stateCode":"33","latitude":14.81062,"longitude":104.47634},{"name":"Amphoe Si Sakhon","countryCode":"TH","stateCode":"96","latitude":6.1936,"longitude":101.51257},{"name":"Amphoe Si Samrong","countryCode":"TH","stateCode":"64","latitude":17.16397,"longitude":99.74672},{"name":"Amphoe Si Satchanalai","countryCode":"TH","stateCode":"64","latitude":17.59927,"longitude":99.70591},{"name":"Amphoe Si Sawat","countryCode":"TH","stateCode":"71","latitude":14.67254,"longitude":99.12992},{"name":"Amphoe Si Somdet","countryCode":"TH","stateCode":"45","latitude":16.01947,"longitude":103.51427},{"name":"Amphoe Si Songkhram","countryCode":"TH","stateCode":"48","latitude":17.62989,"longitude":104.24495},{"name":"Amphoe Si That","countryCode":"TH","stateCode":"41","latitude":17.03388,"longitude":103.23084},{"name":"Amphoe Si Thep","countryCode":"TH","stateCode":"67","latitude":15.44253,"longitude":101.14767},{"name":"Amphoe Si Wilai","countryCode":"TH","stateCode":"38","latitude":18.15528,"longitude":103.77975},{"name":"Amphoe Sichon","countryCode":"TH","stateCode":"80","latitude":8.94981,"longitude":99.81322},{"name":"Amphoe Sida","countryCode":"TH","stateCode":"30","latitude":15.56406,"longitude":102.55823},{"name":"Amphoe Sikao","countryCode":"TH","stateCode":"92","latitude":7.57122,"longitude":99.33915},{"name":"Amphoe Sikhio","countryCode":"TH","stateCode":"30","latitude":14.94275,"longitude":101.60672},{"name":"Amphoe Sikhiu","countryCode":"TH","stateCode":"30","latitude":14.89944,"longitude":101.70833},{"name":"Amphoe Sila Lat","countryCode":"TH","stateCode":"33","latitude":15.4807,"longitude":104.09478},{"name":"Amphoe Singhanakhon","countryCode":"TH","stateCode":"90","latitude":7.28453,"longitude":100.48809},{"name":"Amphoe Sirindhorn","countryCode":"TH","stateCode":"34","latitude":15.11249,"longitude":105.42837},{"name":"Amphoe So Phisai","countryCode":"TH","stateCode":"38","latitude":18.14176,"longitude":103.44923},{"name":"Amphoe Soem Ngam","countryCode":"TH","stateCode":"52","latitude":18.09406,"longitude":99.17297},{"name":"Amphoe Soeng Sang","countryCode":"TH","stateCode":"30","latitude":14.34456,"longitude":102.49297},{"name":"Amphoe Soi Dao","countryCode":"TH","stateCode":"22","latitude":13.17034,"longitude":102.22796},{"name":"Amphoe Somdet","countryCode":"TH","stateCode":"46","latitude":16.76973,"longitude":103.75012},{"name":"Amphoe Song","countryCode":"TH","stateCode":"54","latitude":18.57006,"longitude":100.22911},{"name":"Amphoe Song Dao","countryCode":"TH","stateCode":"47","latitude":17.30883,"longitude":103.44987},{"name":"Amphoe Song Khwae","countryCode":"TH","stateCode":"55","latitude":19.40911,"longitude":100.66174},{"name":"Amphoe Song Phi Nong","countryCode":"TH","stateCode":"72","latitude":14.18895,"longitude":99.9758},{"name":"Amphoe Sop Moei","countryCode":"TH","stateCode":"58","latitude":17.96333,"longitude":97.93149},{"name":"Amphoe Sop Prap","countryCode":"TH","stateCode":"52","latitude":17.89861,"longitude":99.34081},{"name":"Amphoe Srinagarindra","countryCode":"TH","stateCode":"93","latitude":7.57574,"longitude":99.91053},{"name":"Amphoe Su-ngai Kolok","countryCode":"TH","stateCode":"96","latitude":6.07674,"longitude":101.99818},{"name":"Amphoe Su-ngai Padi","countryCode":"TH","stateCode":"96","latitude":6.10425,"longitude":101.89333},{"name":"Amphoe Suan Phueng","countryCode":"TH","stateCode":"70","latitude":13.56361,"longitude":99.31133},{"name":"Amphoe Suk Samran","countryCode":"TH","stateCode":"85","latitude":9.4157,"longitude":98.49117},{"name":"Amphoe Sukhirin","countryCode":"TH","stateCode":"96","latitude":5.91513,"longitude":101.73811},{"name":"Amphoe Sung Men","countryCode":"TH","stateCode":"54","latitude":18.03542,"longitude":100.12538},{"name":"Amphoe Sung Noen","countryCode":"TH","stateCode":"30","latitude":14.85623,"longitude":101.83049},{"name":"Amphoe Suwannakhuha","countryCode":"TH","stateCode":"39","latitude":17.54605,"longitude":102.24852},{"name":"Amphoe Suwannaphum","countryCode":"TH","stateCode":"45","latitude":15.60529,"longitude":103.8063},{"name":"Amphoe Ta Phraya","countryCode":"TH","stateCode":"27","latitude":14.06272,"longitude":102.72601},{"name":"Amphoe Tak Bai","countryCode":"TH","stateCode":"96","latitude":6.23748,"longitude":102.00238},{"name":"Amphoe Tak Fa","countryCode":"TH","stateCode":"60","latitude":15.38249,"longitude":100.46693},{"name":"Amphoe Takhli","countryCode":"TH","stateCode":"60","latitude":15.25928,"longitude":100.38058},{"name":"Amphoe Takua Pa","countryCode":"TH","stateCode":"82","latitude":8.86883,"longitude":98.33892},{"name":"Amphoe Takua Thung","countryCode":"TH","stateCode":"82","latitude":8.28433,"longitude":98.3895},{"name":"Amphoe Tamot","countryCode":"TH","stateCode":"93","latitude":7.28783,"longitude":100.04358},{"name":"Amphoe Tan Sum","countryCode":"TH","stateCode":"34","latitude":15.39035,"longitude":105.16273},{"name":"Amphoe Tao Ngoi","countryCode":"TH","stateCode":"47","latitude":16.94022,"longitude":104.15863},{"name":"Amphoe Taphan Hin","countryCode":"TH","stateCode":"66","latitude":16.21103,"longitude":100.41739},{"name":"Amphoe Tha Bo","countryCode":"TH","stateCode":"43","latitude":17.79499,"longitude":102.56608},{"name":"Amphoe Tha Chana","countryCode":"TH","stateCode":"84","latitude":9.61142,"longitude":99.03611},{"name":"Amphoe Tha Chang","countryCode":"TH","stateCode":"17","latitude":14.77941,"longitude":100.39349},{"name":"Amphoe Tha Chang","countryCode":"TH","stateCode":"84","latitude":9.33475,"longitude":98.95619},{"name":"Amphoe Tha Khantho","countryCode":"TH","stateCode":"46","latitude":16.88333,"longitude":103.25},{"name":"Amphoe Tha Li","countryCode":"TH","stateCode":"42","latitude":17.61279,"longitude":101.44141},{"name":"Amphoe Tha Luang","countryCode":"TH","stateCode":"16","latitude":15.04786,"longitude":101.19986},{"name":"Amphoe Tha Mai","countryCode":"TH","stateCode":"22","latitude":12.73848,"longitude":101.97696},{"name":"Amphoe Tha Maka","countryCode":"TH","stateCode":"71","latitude":13.94665,"longitude":99.779},{"name":"Amphoe Tha Muang","countryCode":"TH","stateCode":"71","latitude":13.90947,"longitude":99.6154},{"name":"Amphoe Tha Phae","countryCode":"TH","stateCode":"91","latitude":6.79542,"longitude":99.91985},{"name":"Amphoe Tha Pla","countryCode":"TH","stateCode":"53","latitude":17.85868,"longitude":100.47061},{"name":"Amphoe Tha Ruea","countryCode":"TH","stateCode":"14","latitude":14.53587,"longitude":100.71268},{"name":"Amphoe Tha Sae","countryCode":"TH","stateCode":"86","latitude":10.76864,"longitude":99.09878},{"name":"Amphoe Tha Sala","countryCode":"TH","stateCode":"80","latitude":8.69367,"longitude":99.88539},{"name":"Amphoe Tha Song Yang","countryCode":"TH","stateCode":"63","latitude":17.47481,"longitude":98.12079},{"name":"Amphoe Tha Takiap","countryCode":"TH","stateCode":"24","latitude":13.3951,"longitude":101.73457},{"name":"Amphoe Tha Tako","countryCode":"TH","stateCode":"60","latitude":15.65434,"longitude":100.45939},{"name":"Amphoe Tha Tum","countryCode":"TH","stateCode":"32","latitude":15.3094,"longitude":103.65111},{"name":"Amphoe Tha Uthen","countryCode":"TH","stateCode":"48","latitude":17.59263,"longitude":104.49884},{"name":"Amphoe Tha Wang Pha","countryCode":"TH","stateCode":"55","latitude":19.13148,"longitude":100.76117},{"name":"Amphoe Tha Wung","countryCode":"TH","stateCode":"16","latitude":14.82506,"longitude":100.50921},{"name":"Amphoe Tha Yang","countryCode":"TH","stateCode":"76","latitude":12.81743,"longitude":99.78738},{"name":"Amphoe Thai Charoen","countryCode":"TH","stateCode":"35","latitude":16.07936,"longitude":104.42778},{"name":"Amphoe Thai Mueang","countryCode":"TH","stateCode":"82","latitude":8.48995,"longitude":98.31292},{"name":"Amphoe Thalang","countryCode":"TH","stateCode":"83","latitude":8.03407,"longitude":98.33399},{"name":"Amphoe Tham Phannara","countryCode":"TH","stateCode":"80","latitude":8.45822,"longitude":99.37718},{"name":"Amphoe Than To","countryCode":"TH","stateCode":"95","latitude":6.08042,"longitude":101.25941},{"name":"Amphoe Thanyaburi","countryCode":"TH","stateCode":"13","latitude":14.02852,"longitude":100.76291},{"name":"Amphoe Thap Khlo","countryCode":"TH","stateCode":"66","latitude":16.19167,"longitude":100.60082},{"name":"Amphoe Thap Put","countryCode":"TH","stateCode":"82","latitude":8.53768,"longitude":98.63208},{"name":"Amphoe Thap Sakae","countryCode":"TH","stateCode":"77","latitude":11.54787,"longitude":99.57159},{"name":"Amphoe Thap Than","countryCode":"TH","stateCode":"61","latitude":15.49057,"longitude":99.82224},{"name":"Amphoe That Phanom","countryCode":"TH","stateCode":"48","latitude":16.96457,"longitude":104.70277},{"name":"Amphoe Thawatchaburi","countryCode":"TH","stateCode":"45","latitude":16.02783,"longitude":103.77833},{"name":"Amphoe Thepha","countryCode":"TH","stateCode":"90","latitude":6.79726,"longitude":100.91025},{"name":"Amphoe Thepharak","countryCode":"TH","stateCode":"30","latitude":15.28639,"longitude":101.50373},{"name":"Amphoe Thoen","countryCode":"TH","stateCode":"52","latitude":17.58128,"longitude":99.28836},{"name":"Amphoe Thoeng","countryCode":"TH","stateCode":"57","latitude":19.6765,"longitude":100.20095},{"name":"Amphoe Thong Pha Phum","countryCode":"TH","stateCode":"71","latitude":14.83277,"longitude":98.69233},{"name":"Amphoe Thong Saen Khan","countryCode":"TH","stateCode":"53","latitude":17.4993,"longitude":100.39658},{"name":"Amphoe Thung Chang","countryCode":"TH","stateCode":"55","latitude":19.46342,"longitude":100.91937},{"name":"Amphoe Thung Fon","countryCode":"TH","stateCode":"41","latitude":17.49061,"longitude":103.22088},{"name":"Amphoe Thung Hua Chang","countryCode":"TH","stateCode":"51","latitude":17.98333,"longitude":99.05},{"name":"Amphoe Thung Khao Luang","countryCode":"TH","stateCode":"45","latitude":15.98966,"longitude":103.87086},{"name":"Amphoe Thung Saliam","countryCode":"TH","stateCode":"64","latitude":17.37082,"longitude":99.55265},{"name":"Amphoe Thung Si Udom","countryCode":"TH","stateCode":"34","latitude":14.73936,"longitude":104.91731},{"name":"Amphoe Thung Song","countryCode":"TH","stateCode":"80","latitude":8.11757,"longitude":99.66907},{"name":"Amphoe Thung Tako","countryCode":"TH","stateCode":"86","latitude":10.09223,"longitude":99.05337},{"name":"Amphoe Thung Wa","countryCode":"TH","stateCode":"91","latitude":7.04915,"longitude":99.76587},{"name":"Amphoe Thung Yai","countryCode":"TH","stateCode":"80","latitude":8.28708,"longitude":99.37196},{"name":"Amphoe Thung Yang Daeng","countryCode":"TH","stateCode":"94","latitude":6.6416,"longitude":101.44652},{"name":"Amphoe Trakan Phuet Phon","countryCode":"TH","stateCode":"34","latitude":15.6136,"longitude":105.06444},{"name":"Amphoe Tron","countryCode":"TH","stateCode":"53","latitude":17.47231,"longitude":100.13467},{"name":"Amphoe U Thong","countryCode":"TH","stateCode":"72","latitude":14.41093,"longitude":99.88949},{"name":"Amphoe Ubolratana","countryCode":"TH","stateCode":"40","latitude":16.77766,"longitude":102.67536},{"name":"Amphoe Umphang","countryCode":"TH","stateCode":"63","latitude":15.79496,"longitude":98.87787},{"name":"Amphoe Uthai","countryCode":"TH","stateCode":"14","latitude":14.35321,"longitude":100.69643},{"name":"Amphoe Uthumphon Phisai","countryCode":"TH","stateCode":"33","latitude":15.12305,"longitude":104.16002},{"name":"Amphoe Wachira Barami","countryCode":"TH","stateCode":"66","latitude":16.51667,"longitude":100.11667},{"name":"Amphoe Waeng","countryCode":"TH","stateCode":"96","latitude":5.90042,"longitude":101.86195},{"name":"Amphoe Waeng Noi","countryCode":"TH","stateCode":"40","latitude":15.80631,"longitude":102.42358},{"name":"Amphoe Waeng Yai","countryCode":"TH","stateCode":"40","latitude":15.92532,"longitude":102.46221},{"name":"Amphoe Wan Yai","countryCode":"TH","stateCode":"49","latitude":16.7203,"longitude":104.72865},{"name":"Amphoe Wang Chan","countryCode":"TH","stateCode":"21","latitude":12.96245,"longitude":101.51533},{"name":"Amphoe Wang Chao","countryCode":"TH","stateCode":"63","latitude":16.63311,"longitude":99.14826},{"name":"Amphoe Wang Chin","countryCode":"TH","stateCode":"54","latitude":17.86667,"longitude":99.6499},{"name":"Amphoe Wang Hin","countryCode":"TH","stateCode":"33","latitude":14.96133,"longitude":104.21928},{"name":"Amphoe Wang Muang","countryCode":"TH","stateCode":"19","latitude":14.82287,"longitude":101.13346},{"name":"Amphoe Wang Nam Khiao","countryCode":"TH","stateCode":"30","latitude":14.44786,"longitude":101.85533},{"name":"Amphoe Wang Nam Yen","countryCode":"TH","stateCode":"27","latitude":13.519,"longitude":102.08718},{"name":"Amphoe Wang Noi","countryCode":"TH","stateCode":"14","latitude":14.24348,"longitude":100.725},{"name":"Amphoe Wang Nuea","countryCode":"TH","stateCode":"52","latitude":19.16011,"longitude":99.64767},{"name":"Amphoe Wang Pong","countryCode":"TH","stateCode":"67","latitude":16.35049,"longitude":100.80772},{"name":"Amphoe Wang Sai Phun","countryCode":"TH","stateCode":"66","latitude":16.37922,"longitude":100.53668},{"name":"Amphoe Wang Sam Mo","countryCode":"TH","stateCode":"41","latitude":17.04595,"longitude":103.46262},{"name":"Amphoe Wang Saphung","countryCode":"TH","stateCode":"42","latitude":17.28028,"longitude":101.73342},{"name":"Amphoe Wang Sombun","countryCode":"TH","stateCode":"27","latitude":13.36112,"longitude":102.1249},{"name":"Amphoe Wang Thong","countryCode":"TH","stateCode":"65","latitude":16.85,"longitude":100.58333},{"name":"Amphoe Wang Wiset","countryCode":"TH","stateCode":"92","latitude":7.76061,"longitude":99.40861},{"name":"Amphoe Wangyang","countryCode":"TH","stateCode":"48","latitude":17.07189,"longitude":104.45373},{"name":"Amphoe Wanon Niwat","countryCode":"TH","stateCode":"47","latitude":17.61516,"longitude":103.76536},{"name":"Amphoe Wapi Pathum","countryCode":"TH","stateCode":"44","latitude":15.85953,"longitude":103.34091},{"name":"Amphoe Warin Chamrap","countryCode":"TH","stateCode":"34","latitude":15.12394,"longitude":104.87499},{"name":"Amphoe Waritchaphum","countryCode":"TH","stateCode":"47","latitude":17.25692,"longitude":103.62283},{"name":"Amphoe Wat Bot","countryCode":"TH","stateCode":"65","latitude":17.16384,"longitude":100.36298},{"name":"Amphoe Wat Phleng","countryCode":"TH","stateCode":"70","latitude":13.44705,"longitude":99.86959},{"name":"Amphoe Wat Sing","countryCode":"TH","stateCode":"18","latitude":15.21574,"longitude":99.9668},{"name":"Amphoe Watthana Nakhon","countryCode":"TH","stateCode":"27","latitude":13.88582,"longitude":102.35652},{"name":"Amphoe Wiang Chai","countryCode":"TH","stateCode":"57","latitude":19.8636,"longitude":100.00065},{"name":"Amphoe Wiang Chiang Rung","countryCode":"TH","stateCode":"57","latitude":20.02208,"longitude":100.07472},{"name":"Amphoe Wiang Haeng","countryCode":"TH","stateCode":"50","latitude":19.59188,"longitude":98.65845},{"name":"Amphoe Wiang Kaen","countryCode":"TH","stateCode":"57","latitude":20.00874,"longitude":100.48641},{"name":"Amphoe Wiang Kao","countryCode":"TH","stateCode":"40","latitude":16.70138,"longitude":102.29186},{"name":"Amphoe Wiang Nong Long","countryCode":"TH","stateCode":"51","latitude":18.41844,"longitude":98.75856},{"name":"Amphoe Wiang Pa Pao","countryCode":"TH","stateCode":"57","latitude":19.3046,"longitude":99.44925},{"name":"Amphoe Wiang Sa","countryCode":"TH","stateCode":"55","latitude":18.55088,"longitude":100.72754},{"name":"Amphoe Wiang Sa","countryCode":"TH","stateCode":"84","latitude":8.59813,"longitude":99.35277},{"name":"Amphoe Wichian Buri","countryCode":"TH","stateCode":"67","latitude":15.65,"longitude":101.1},{"name":"Amphoe Wihan Daeng","countryCode":"TH","stateCode":"19","latitude":14.33435,"longitude":100.96458},{"name":"Amphoe Wiphawadi","countryCode":"TH","stateCode":"84","latitude":9.21972,"longitude":98.87028},{"name":"Amphoe Wiset Chai Chan","countryCode":"TH","stateCode":"15","latitude":14.5499,"longitude":100.31743},{"name":"Amphoe Yaha","countryCode":"TH","stateCode":"95","latitude":6.40529,"longitude":101.12679},{"name":"Amphoe Yan Ta Khao","countryCode":"TH","stateCode":"92","latitude":7.4258,"longitude":99.73438},{"name":"Amphoe Yang Chum Noi","countryCode":"TH","stateCode":"33","latitude":15.23688,"longitude":104.39083},{"name":"Amphoe Yang Si Surat","countryCode":"TH","stateCode":"44","latitude":15.64953,"longitude":103.08916},{"name":"Amphoe Yang Talat","countryCode":"TH","stateCode":"46","latitude":16.43961,"longitude":103.34085},{"name":"Amphoe Yarang","countryCode":"TH","stateCode":"94","latitude":6.6924,"longitude":101.31408},{"name":"Amphoe Yaring","countryCode":"TH","stateCode":"94","latitude":6.83507,"longitude":101.39073},{"name":"Amphoe Yi-ngo","countryCode":"TH","stateCode":"96","latitude":6.41655,"longitude":101.70035},{"name":"Ang Thong","countryCode":"TH","stateCode":"15","latitude":14.58839,"longitude":100.45283},{"name":"Ao Luek","countryCode":"TH","stateCode":"81","latitude":8.37803,"longitude":98.72117},{"name":"Aranyaprathet","countryCode":"TH","stateCode":"27","latitude":13.69276,"longitude":102.50128},{"name":"Bamnet Narong","countryCode":"TH","stateCode":"36","latitude":15.50189,"longitude":101.68982},{"name":"Ban Ao Nang","countryCode":"TH","stateCode":"82","latitude":8.0458,"longitude":98.81035},{"name":"Ban Bang Kadi Pathum Thani","countryCode":"TH","stateCode":"14","latitude":13.99904,"longitude":100.54962},{"name":"Ban Bueng","countryCode":"TH","stateCode":"20","latitude":13.311,"longitude":101.11214},{"name":"Ban Chalong","countryCode":"TH","stateCode":"83","latitude":7.84468,"longitude":98.33897},{"name":"Ban Chang","countryCode":"TH","stateCode":"21","latitude":12.72543,"longitude":101.05531},{"name":"Ban Dan Lan Hoi","countryCode":"TH","stateCode":"64","latitude":17.00683,"longitude":99.57497},{"name":"Ban Dung","countryCode":"TH","stateCode":"41","latitude":17.699,"longitude":103.25957},{"name":"Ban Huai Thalaeng","countryCode":"TH","stateCode":"30","latitude":14.98333,"longitude":102.65},{"name":"Ban Karon","countryCode":"TH","stateCode":"83","latitude":7.84769,"longitude":98.2985},{"name":"Ban Kata","countryCode":"TH","stateCode":"83","latitude":7.82125,"longitude":98.30703},{"name":"Ban Khao Lak","countryCode":"TH","stateCode":"82","latitude":8.61501,"longitude":98.23994},{"name":"Ban Khlong Bang Sao Thong","countryCode":"TH","stateCode":"11","latitude":13.64172,"longitude":100.83272},{"name":"Ban Ko Kaeo","countryCode":"TH","stateCode":"83","latitude":7.93599,"longitude":98.39664},{"name":"Ban Ko Lan","countryCode":"TH","stateCode":"20","latitude":12.92419,"longitude":100.78794},{"name":"Ban Lam Luk Ka","countryCode":"TH","stateCode":"13","latitude":13.97738,"longitude":100.77776},{"name":"Ban Mai","countryCode":"TH","stateCode":"90","latitude":7.20411,"longitude":100.54508},{"name":"Ban Mai Khao","countryCode":"TH","stateCode":"83","latitude":8.12713,"longitude":98.30738},{"name":"Ban Mo","countryCode":"TH","stateCode":"19","latitude":14.61544,"longitude":100.72731},{"name":"Ban Na","countryCode":"TH","stateCode":"64","latitude":17.01717,"longitude":99.73283},{"name":"Ban Na San","countryCode":"TH","stateCode":"84","latitude":8.80036,"longitude":99.36372},{"name":"Ban Nam Yuen","countryCode":"TH","stateCode":"86","latitude":9.87686,"longitude":98.86592},{"name":"Ban Nong Wua So","countryCode":"TH","stateCode":"41","latitude":17.2675,"longitude":103.22472},{"name":"Ban Phaeo","countryCode":"TH","stateCode":"74","latitude":13.59072,"longitude":100.10748},{"name":"Ban Phai","countryCode":"TH","stateCode":"40","latitude":16.05997,"longitude":102.73097},{"name":"Ban Phan Don","countryCode":"TH","stateCode":"41","latitude":17.14272,"longitude":102.97261},{"name":"Ban Phe","countryCode":"TH","stateCode":"21","latitude":12.62824,"longitude":101.43757},{"name":"Ban Phru Nai","countryCode":"TH","stateCode":"82","latitude":7.95458,"longitude":98.58989},{"name":"Ban Pong","countryCode":"TH","stateCode":"70","latitude":13.81629,"longitude":99.87739},{"name":"Ban Ratsada","countryCode":"TH","stateCode":"83","latitude":7.90963,"longitude":98.40248},{"name":"Ban Sam Chuk","countryCode":"TH","stateCode":"72","latitude":14.74219,"longitude":100.09531},{"name":"Ban Selaphum","countryCode":"TH","stateCode":"45","latitude":16.01667,"longitude":103.95},{"name":"Ban Su-ngai Pa Di","countryCode":"TH","stateCode":"96","latitude":6.07239,"longitude":101.87172},{"name":"Ban Tak","countryCode":"TH","stateCode":"63","latitude":17.04325,"longitude":99.08128},{"name":"Ban Talat Bueng","countryCode":"TH","stateCode":"20","latitude":13.07147,"longitude":101.00314},{"name":"Ban Talat Nua","countryCode":"TH","stateCode":"83","latitude":7.88489,"longitude":98.38557},{"name":"Ban Talat Yai","countryCode":"TH","stateCode":"83","latitude":7.88481,"longitude":98.40008},{"name":"Ban Thai Tan","countryCode":"TH","stateCode":"15","latitude":14.62161,"longitude":100.48739},{"name":"Bang Ban","countryCode":"TH","stateCode":"14","latitude":14.37395,"longitude":100.48528},{"name":"Bang Bo District","countryCode":"TH","stateCode":"11","latitude":13.58333,"longitude":100.81667},{"name":"Bang Bon","countryCode":"TH","stateCode":"10","latitude":13.6592,"longitude":100.38801},{"name":"Bang Bua Thong","countryCode":"TH","stateCode":"12","latitude":13.91783,"longitude":100.42403},{"name":"Bang Kapi","countryCode":"TH","stateCode":"10","latitude":13.77258,"longitude":100.63847},{"name":"Bang Khae","countryCode":"TH","stateCode":"10","latitude":13.71927,"longitude":100.39278},{"name":"Bang Khen","countryCode":"TH","stateCode":"10","latitude":13.86901,"longitude":100.62769},{"name":"Bang Khla","countryCode":"TH","stateCode":"24","latitude":13.72144,"longitude":101.20814},{"name":"Bang Kho laen","countryCode":"TH","stateCode":"10","latitude":13.70025,"longitude":100.50971},{"name":"Bang Khun thain","countryCode":"TH","stateCode":"10","latitude":13.59482,"longitude":100.42694},{"name":"Bang Krathum","countryCode":"TH","stateCode":"65","latitude":16.57831,"longitude":100.30034},{"name":"Bang Kruai","countryCode":"TH","stateCode":"12","latitude":13.805,"longitude":100.47283},{"name":"Bang Lamung","countryCode":"TH","stateCode":"20","latitude":13.04704,"longitude":100.92891},{"name":"Bang Lamung District","countryCode":"TH","stateCode":"20","latitude":12.92579,"longitude":100.89243},{"name":"Bang Len","countryCode":"TH","stateCode":"73","latitude":14.02188,"longitude":100.17183},{"name":"Bang Mun Nak","countryCode":"TH","stateCode":"66","latitude":16.02781,"longitude":100.37917},{"name":"Bang Na","countryCode":"TH","stateCode":"10","latitude":13.67252,"longitude":100.62089},{"name":"Bang Nam Priao","countryCode":"TH","stateCode":"24","latitude":13.84739,"longitude":101.05306},{"name":"Bang Pa-in","countryCode":"TH","stateCode":"14","latitude":14.22783,"longitude":100.57589},{"name":"Bang Pakong","countryCode":"TH","stateCode":"24","latitude":13.54297,"longitude":100.99333},{"name":"Bang Phae","countryCode":"TH","stateCode":"70","latitude":13.69157,"longitude":99.92982},{"name":"Bang Phlat","countryCode":"TH","stateCode":"10","latitude":13.78668,"longitude":100.49152},{"name":"Bang Racham","countryCode":"TH","stateCode":"17","latitude":14.892,"longitude":100.31728},{"name":"Bang Rak","countryCode":"TH","stateCode":"10","latitude":13.73058,"longitude":100.52388},{"name":"Bang Rakam","countryCode":"TH","stateCode":"65","latitude":16.75847,"longitude":100.11742},{"name":"Bang Saphan","countryCode":"TH","stateCode":"77","latitude":11.21259,"longitude":99.51167},{"name":"Bang Sue","countryCode":"TH","stateCode":"10","latitude":13.81921,"longitude":100.5279},{"name":"Bang Yai","countryCode":"TH","stateCode":"12","latitude":13.84341,"longitude":100.36251},{"name":"Bangkok","countryCode":"TH","stateCode":"10","latitude":13.75398,"longitude":100.50144},{"name":"Bangkok Noi","countryCode":"TH","stateCode":"10","latitude":13.76551,"longitude":100.46988},{"name":"Bangkok Yai","countryCode":"TH","stateCode":"10","latitude":13.73748,"longitude":100.47428},{"name":"Betong","countryCode":"TH","stateCode":"95","latitude":5.77434,"longitude":101.07231},{"name":"Bo Phloi","countryCode":"TH","stateCode":"71","latitude":14.32517,"longitude":99.51467},{"name":"Bo Rai","countryCode":"TH","stateCode":"23","latitude":12.57283,"longitude":102.53714},{"name":"Bua Yai","countryCode":"TH","stateCode":"30","latitude":15.58552,"longitude":102.42587},{"name":"Bueng Kan","countryCode":"TH","stateCode":"38","latitude":18.36303,"longitude":103.65194},{"name":"Bueng Kum","countryCode":"TH","stateCode":"10","latitude":13.81023,"longitude":100.6514},{"name":"Bueng Na Rang","countryCode":"TH","stateCode":"66","latitude":16.1712,"longitude":100.12531},{"name":"Buri Ram","countryCode":"TH","stateCode":"31","latitude":14.99433,"longitude":103.10392},{"name":"Cha-am","countryCode":"TH","stateCode":"76","latitude":12.8,"longitude":99.96667},{"name":"Chachoengsao","countryCode":"TH","stateCode":"24","latitude":13.6882,"longitude":101.07156},{"name":"Chai Badan","countryCode":"TH","stateCode":"16","latitude":15.2,"longitude":101.13333},{"name":"Chai Buri","countryCode":"TH","stateCode":"84","latitude":8.46222,"longitude":99.07631},{"name":"Chai Nat","countryCode":"TH","stateCode":"18","latitude":15.18636,"longitude":100.12353},{"name":"Chai Prakan","countryCode":"TH","stateCode":"50","latitude":19.73136,"longitude":99.13997},{"name":"Chaiya","countryCode":"TH","stateCode":"84","latitude":9.38625,"longitude":99.19861},{"name":"Chaiyaphum","countryCode":"TH","stateCode":"36","latitude":15.81047,"longitude":102.02881},{"name":"Chaiyo","countryCode":"TH","stateCode":"15","latitude":14.67639,"longitude":100.46861},{"name":"Chanthaburi","countryCode":"TH","stateCode":"22","latitude":12.60961,"longitude":102.10447},{"name":"Chat Trakan","countryCode":"TH","stateCode":"65","latitude":17.27606,"longitude":100.60022},{"name":"Chatu Chak","countryCode":"TH","stateCode":"10","latitude":13.82888,"longitude":100.56374},