[{"name":"‘Āhuimanu","countryCode":"US","stateCode":"HI","latitude":21.44472,"longitude":-157.83778},{"name":"‘Aiea","countryCode":"US","stateCode":"HI","latitude":21.38222,"longitude":-157.93361},{"name":"‘Ele‘ele","countryCode":"US","stateCode":"HI","latitude":21.90738,"longitude":-159.58322},{"name":"‘Ewa Beach","countryCode":"US","stateCode":"HI","latitude":21.31556,"longitude":-158.00722},{"name":"‘Ewa Gentry","countryCode":"US","stateCode":"HI","latitude":21.33999,"longitude":-158.03039},{"name":"‘Ewa Villages","countryCode":"US","stateCode":"HI","latitude":21.34127,"longitude":-158.0397},{"name":"‘Ōma‘o","countryCode":"US","stateCode":"HI","latitude":21.92581,"longitude":-159.48818},{"name":"Abbeville","countryCode":"US","stateCode":"AL","latitude":31.57184,"longitude":-85.25049},{"name":"Abbeville","countryCode":"US","stateCode":"GA","latitude":31.99212,"longitude":-83.30682},{"name":"Abbeville","countryCode":"US","stateCode":"LA","latitude":29.97465,"longitude":-92.13429},{"name":"Abbeville","countryCode":"US","stateCode":"SC","latitude":34.17817,"longitude":-82.37901},{"name":"Abbeville County","countryCode":"US","stateCode":"SC","latitude":34.22257,"longitude":-82.45871},{"name":"Abbotsford","countryCode":"US","stateCode":"WI","latitude":44.94636,"longitude":-90.31597},{"name":"Abbottstown","countryCode":"US","stateCode":"PA","latitude":39.88649,"longitude":-76.9847},{"name":"Aberdeen","countryCode":"US","stateCode":"FL","latitude":26.55063,"longitude":-80.14866},{"name":"Aberdeen","countryCode":"US","stateCode":"ID","latitude":42.94408,"longitude":-112.83833},{"name":"Aberdeen","countryCode":"US","stateCode":"IN","latitude":41.43893,"longitude":-87.11142},{"name":"Aberdeen","countryCode":"US","stateCode":"MD","latitude":39.50956,"longitude":-76.16412},{"name":"Aberdeen","countryCode":"US","stateCode":"MS","latitude":33.82511,"longitude":-88.54366},{"name":"Aberdeen","countryCode":"US","stateCode":"NC","latitude":35.13155,"longitude":-79.42948},{"name":"Aberdeen","countryCode":"US","stateCode":"SD","latitude":45.4647,"longitude":-98.48648},{"name":"Aberdeen","countryCode":"US","stateCode":"WA","latitude":46.97537,"longitude":-123.81572},{"name":"Aberdeen Proving Ground","countryCode":"US","stateCode":"MD","latitude":39.46686,"longitude":-76.13066},{"name":"Abernathy","countryCode":"US","stateCode":"TX","latitude":33.8323,"longitude":-101.84295},{"name":"Abilene","countryCode":"US","stateCode":"KS","latitude":38.91722,"longitude":-97.21391},{"name":"Abilene","countryCode":"US","stateCode":"TX","latitude":32.44874,"longitude":-99.73314},{"name":"Abingdon","countryCode":"US","stateCode":"IL","latitude":40.80448,"longitude":-90.4018},{"name":"Abingdon","countryCode":"US","stateCode":"VA","latitude":36.70983,"longitude":-81.97735},{"name":"Abington","countryCode":"US","stateCode":"MA","latitude":42.10482,"longitude":-70.94532},{"name":"Abita Springs","countryCode":"US","stateCode":"LA","latitude":30.47864,"longitude":-90.04008},{"name":"Abram","countryCode":"US","stateCode":"TX","latitude":26.1998,"longitude":-98.41113},{"name":"Absarokee","countryCode":"US","stateCode":"MT","latitude":45.5205,"longitude":-109.44294},{"name":"Absecon","countryCode":"US","stateCode":"NJ","latitude":39.42845,"longitude":-74.49571},{"name":"Acadia Parish","countryCode":"US","stateCode":"LA","latitude":30.29053,"longitude":-92.41198},{"name":"Acalanes Ridge","countryCode":"US","stateCode":"CA","latitude":37.90472,"longitude":-122.07857},{"name":"Accokeek","countryCode":"US","stateCode":"MD","latitude":38.66762,"longitude":-77.02831},{"name":"Accomac","countryCode":"US","stateCode":"VA","latitude":37.71957,"longitude":-75.66548},{"name":"Accomack County","countryCode":"US","stateCode":"VA","latitude":37.76494,"longitude":-75.75656},{"name":"Ackerman","countryCode":"US","stateCode":"MS","latitude":33.31012,"longitude":-89.17284},{"name":"Ackley","countryCode":"US","stateCode":"IA","latitude":42.55415,"longitude":-93.05326},{"name":"Acres Green","countryCode":"US","stateCode":"CO","latitude":39.55666,"longitude":-104.89609},{"name":"Acton","countryCode":"US","stateCode":"CA","latitude":34.46999,"longitude":-118.19674},{"name":"Acton","countryCode":"US","stateCode":"MA","latitude":42.48509,"longitude":-71.43284},{"name":"Acton","countryCode":"US","stateCode":"ME","latitude":43.53425,"longitude":-70.90978},{"name":"Acushnet","countryCode":"US","stateCode":"MA","latitude":41.68066,"longitude":-70.90782},{"name":"Acushnet Center","countryCode":"US","stateCode":"MA","latitude":41.68508,"longitude":-70.90642},{"name":"Acworth","countryCode":"US","stateCode":"GA","latitude":34.06635,"longitude":-84.67837},{"name":"Ada","countryCode":"US","stateCode":"MN","latitude":47.29969,"longitude":-96.51535},{"name":"Ada","countryCode":"US","stateCode":"OH","latitude":40.7695,"longitude":-83.82271},{"name":"Ada","countryCode":"US","stateCode":"OK","latitude":34.77453,"longitude":-96.67834},{"name":"Ada County","countryCode":"US","stateCode":"ID","latitude":43.45112,"longitude":-116.24109},{"name":"Adair County","countryCode":"US","stateCode":"IA","latitude":41.33075,"longitude":-94.47094},{"name":"Adair County","countryCode":"US","stateCode":"KY","latitude":37.10416,"longitude":-85.28065},{"name":"Adair County","countryCode":"US","stateCode":"MO","latitude":40.19056,"longitude":-92.60072},{"name":"Adair County","countryCode":"US","stateCode":"OK","latitude":35.88393,"longitude":-94.65868},{"name":"Adairsville","countryCode":"US","stateCode":"GA","latitude":34.3687,"longitude":-84.93411},{"name":"Adams","countryCode":"US","stateCode":"MA","latitude":42.62425,"longitude":-73.1176},{"name":"Adams","countryCode":"US","stateCode":"NY","latitude":43.80923,"longitude":-76.02409},{"name":"Adams","countryCode":"US","stateCode":"WI","latitude":43.95608,"longitude":-89.81818},{"name":"Adams Center","countryCode":"US","stateCode":"NY","latitude":43.86006,"longitude":-76.00548},{"name":"Adams County","countryCode":"US","stateCode":"CO","latitude":39.87363,"longitude":-104.33791},{"name":"Adams County","countryCode":"US","stateCode":"IA","latitude":41.02898,"longitude":-94.69918},{"name":"Adams County","countryCode":"US","stateCode":"ID","latitude":44.88965,"longitude":-116.45387},{"name":"Adams County","countryCode":"US","stateCode":"IL","latitude":39.98789,"longitude":-91.18849},{"name":"Adams County","countryCode":"US","stateCode":"IN","latitude":40.74566,"longitude":-84.93665},{"name":"Adams County","countryCode":"US","stateCode":"MS","latitude":31.48294,"longitude":-91.3535},{"name":"Adams County","countryCode":"US","stateCode":"ND","latitude":46.09684,"longitude":-102.52853},{"name":"Adams County","countryCode":"US","stateCode":"NE","latitude":40.52447,"longitude":-98.50121},{"name":"Adams County","countryCode":"US","stateCode":"OH","latitude":38.84551,"longitude":-83.47215},{"name":"Adams County","countryCode":"US","stateCode":"PA","latitude":39.87145,"longitude":-77.21789},{"name":"Adams County","countryCode":"US","stateCode":"WA","latitude":46.98338,"longitude":-118.5605},{"name":"Adams County","countryCode":"US","stateCode":"WI","latitude":43.96963,"longitude":-89.77064},{"name":"Adams Morgan","countryCode":"US","stateCode":"DC","latitude":38.9215,"longitude":-77.0422},{"name":"Adamstown","countryCode":"US","stateCode":"MD","latitude":39.31094,"longitude":-77.47471},{"name":"Adamstown","countryCode":"US","stateCode":"PA","latitude":40.2412,"longitude":-76.05633},{"name":"Adamsville","countryCode":"US","stateCode":"AL","latitude":33.60094,"longitude":-86.95611},{"name":"Adamsville","countryCode":"US","stateCode":"TN","latitude":35.23591,"longitude":-88.3906},{"name":"Addis","countryCode":"US","stateCode":"LA","latitude":30.3538,"longitude":-91.26539},{"name":"Addison","countryCode":"US","stateCode":"IL","latitude":41.9317,"longitude":-87.98896},{"name":"Addison","countryCode":"US","stateCode":"ME","latitude":44.61841,"longitude":-67.74416},{"name":"Addison","countryCode":"US","stateCode":"NY","latitude":42.10285,"longitude":-77.23359},{"name":"Addison","countryCode":"US","stateCode":"TX","latitude":32.96179,"longitude":-96.82917},{"name":"Addison","countryCode":"US","stateCode":"VT","latitude":44.08867,"longitude":-73.30262},{"name":"Addison","countryCode":"US","stateCode":"WI","latitude":43.42278,"longitude":-88.37454},{"name":"Addison County","countryCode":"US","stateCode":"VT","latitude":44.03091,"longitude":-73.14094},{"name":"Adel","countryCode":"US","stateCode":"GA","latitude":31.13727,"longitude":-83.42408},{"name":"Adel","countryCode":"US","stateCode":"IA","latitude":41.61443,"longitude":-94.01745},{"name":"Adelanto","countryCode":"US","stateCode":"CA","latitude":34.58277,"longitude":-117.40922},{"name":"Adelphi","countryCode":"US","stateCode":"MD","latitude":39.00317,"longitude":-76.97192},{"name":"Adjuntas","countryCode":"US","stateCode":"PR","latitude":18.16277778,"longitude":-66.72222222},{"name":"Adrian","countryCode":"US","stateCode":"MI","latitude":41.89755,"longitude":-84.03717},{"name":"Adrian","countryCode":"US","stateCode":"MN","latitude":43.63497,"longitude":-95.9328},{"name":"Adrian","countryCode":"US","stateCode":"MO","latitude":38.39752,"longitude":-94.35162},{"name":"Advance","countryCode":"US","stateCode":"MO","latitude":37.10455,"longitude":-89.90953},{"name":"Advance","countryCode":"US","stateCode":"NC","latitude":35.94125,"longitude":-80.40922},{"name":"Adwolf","countryCode":"US","stateCode":"VA","latitude":36.78928,"longitude":-81.58206},{"name":"Affton","countryCode":"US","stateCode":"MO","latitude":38.55061,"longitude":-90.33317},{"name":"Afton","countryCode":"US","stateCode":"MN","latitude":44.90275,"longitude":-92.78354},{"name":"Afton","countryCode":"US","stateCode":"OK","latitude":36.69369,"longitude":-94.96302},{"name":"Afton","countryCode":"US","stateCode":"WY","latitude":42.72493,"longitude":-110.93187},{"name":"Agawam","countryCode":"US","stateCode":"MA","latitude":42.06954,"longitude":-72.61481},{"name":"Agoura","countryCode":"US","stateCode":"CA","latitude":34.14306,"longitude":-118.73787},{"name":"Agoura Hills","countryCode":"US","stateCode":"CA","latitude":34.13639,"longitude":-118.77453},{"name":"Agua Dulce","countryCode":"US","stateCode":"CA","latitude":34.49638,"longitude":-118.32563},{"name":"Agua Dulce","countryCode":"US","stateCode":"TX","latitude":31.65511,"longitude":-106.13887},{"name":"Agua Fria","countryCode":"US","stateCode":"NM","latitude":35.65448,"longitude":-106.02224},{"name":"Aguada","countryCode":"US","stateCode":"PR","latitude":18.37944444,"longitude":-67.18833333},{"name":"Aguadilla","countryCode":"US","stateCode":"PR","latitude":18.42745,"longitude":-67.15407},{"name":"Aguanga","countryCode":"US","stateCode":"CA","latitude":33.44281,"longitude":-116.86502},{"name":"Aguas Buenas","countryCode":"US","stateCode":"PR","latitude":18.256944,"longitude":-66.103056},{"name":"Aguas Claras","countryCode":"US","stateCode":"PR","latitude":18.24417,"longitude":-65.66278},{"name":"Aguilita","countryCode":"US","stateCode":"PR","latitude":18.02333333,"longitude":-66.53472222},{"name":"Ahoskie","countryCode":"US","stateCode":"NC","latitude":36.28682,"longitude":-76.98468},{"name":"Ahtanum","countryCode":"US","stateCode":"WA","latitude":46.55957,"longitude":-120.62201},{"name":"Ahwahnee","countryCode":"US","stateCode":"CA","latitude":37.3655,"longitude":-119.72627},{"name":"Ahwatukee Foothills","countryCode":"US","stateCode":"AZ","latitude":33.34171,"longitude":-111.98403},{"name":"Aibonito","countryCode":"US","stateCode":"PR","latitude":18.14,"longitude":-66.266111},{"name":"Aiken","countryCode":"US","stateCode":"SC","latitude":33.56042,"longitude":-81.71955},{"name":"Aiken County","countryCode":"US","stateCode":"SC","latitude":33.54437,"longitude":-81.63474},{"name":"Ainaloa","countryCode":"US","stateCode":"HI","latitude":19.52694,"longitude":-154.99306},{"name":"Ainsworth","countryCode":"US","stateCode":"NE","latitude":42.55,"longitude":-99.86262},{"name":"Air Force Academy","countryCode":"US","stateCode":"CO","latitude":38.99425,"longitude":-104.86375},{"name":"Airmont","countryCode":"US","stateCode":"NY","latitude":41.10093,"longitude":-74.11625},{"name":"Airway Heights","countryCode":"US","stateCode":"WA","latitude":47.64461,"longitude":-117.59327},{"name":"Aitkin","countryCode":"US","stateCode":"MN","latitude":46.53301,"longitude":-93.71025},{"name":"Aitkin County","countryCode":"US","stateCode":"MN","latitude":46.60826,"longitude":-93.41543},{"name":"Ajo","countryCode":"US","stateCode":"AZ","latitude":32.37172,"longitude":-112.86071},{"name":"Akron","countryCode":"US","stateCode":"CO","latitude":40.16054,"longitude":-103.21438},{"name":"Akron","countryCode":"US","stateCode":"IA","latitude":42.82888,"longitude":-96.55948},{"name":"Akron","countryCode":"US","stateCode":"IN","latitude":41.03838,"longitude":-86.02805},{"name":"Akron","countryCode":"US","stateCode":"NY","latitude":43.02089,"longitude":-78.4953},{"name":"Akron","countryCode":"US","stateCode":"OH","latitude":41.08144,"longitude":-81.51901},{"name":"Akron","countryCode":"US","stateCode":"PA","latitude":40.15676,"longitude":-76.20217},{"name":"Akutan","countryCode":"US","stateCode":"AK","latitude":54.1335,"longitude":-165.77686},{"name":"Alabama","countryCode":"US","stateCode":"NY","latitude":43.09645,"longitude":-78.39086},{"name":"Alabaster","countryCode":"US","stateCode":"AL","latitude":33.24428,"longitude":-86.81638},{"name":"Alachua","countryCode":"US","stateCode":"FL","latitude":29.75163,"longitude":-82.42483},{"name":"Alachua County","countryCode":"US","stateCode":"FL","latitude":29.67476,"longitude":-82.3577},{"name":"Alafaya","countryCode":"US","stateCode":"FL","latitude":28.5641,"longitude":-81.2114},{"name":"Alamance County","countryCode":"US","stateCode":"NC","latitude":36.04407,"longitude":-79.39951},{"name":"Alameda","countryCode":"US","stateCode":"CA","latitude":37.76521,"longitude":-122.24164},{"name":"Alameda County","countryCode":"US","stateCode":"CA","latitude":37.65055,"longitude":-121.91789},{"name":"Alamo","countryCode":"US","stateCode":"CA","latitude":37.8502,"longitude":-122.03218},{"name":"Alamo","countryCode":"US","stateCode":"GA","latitude":32.14712,"longitude":-82.77792},{"name":"Alamo","countryCode":"US","stateCode":"NM","latitude":34.42089,"longitude":-107.51088},{"name":"Alamo","countryCode":"US","stateCode":"NV","latitude":37.36496,"longitude":-115.16446},{"name":"Alamo","countryCode":"US","stateCode":"TN","latitude":35.78479,"longitude":-89.11729},{"name":"Alamo","countryCode":"US","stateCode":"TX","latitude":26.18369,"longitude":-98.12306},{"name":"Alamo Heights","countryCode":"US","stateCode":"TX","latitude":29.48495,"longitude":-98.46585},{"name":"Alamogordo","countryCode":"US","stateCode":"NM","latitude":32.89953,"longitude":-105.96027},{"name":"Alamosa","countryCode":"US","stateCode":"CO","latitude":37.46945,"longitude":-105.87002},{"name":"Alamosa County","countryCode":"US","stateCode":"CO","latitude":37.57289,"longitude":-105.78829},{"name":"Alamosa East","countryCode":"US","stateCode":"CO","latitude":37.47735,"longitude":-105.84217},{"name":"Albany","countryCode":"US","stateCode":"CA","latitude":37.88687,"longitude":-122.29775},{"name":"Albany","countryCode":"US","stateCode":"GA","latitude":31.57851,"longitude":-84.15574},{"name":"Albany","countryCode":"US","stateCode":"IN","latitude":40.30088,"longitude":-85.24191},{"name":"Albany","countryCode":"US","stateCode":"KY","latitude":36.6909,"longitude":-85.13468},{"name":"Albany","countryCode":"US","stateCode":"LA","latitude":30.50436,"longitude":-90.58231},{"name":"Albany","countryCode":"US","stateCode":"MN","latitude":45.62996,"longitude":-94.57},{"name":"Albany","countryCode":"US","stateCode":"MO","latitude":40.24861,"longitude":-94.33107},{"name":"Albany","countryCode":"US","stateCode":"NY","latitude":42.65258,"longitude":-73.75623},{"name":"Albany","countryCode":"US","stateCode":"OR","latitude":44.63651,"longitude":-123.10593},{"name":"Albany","countryCode":"US","stateCode":"TX","latitude":32.72345,"longitude":-99.2973},{"name":"Albany","countryCode":"US","stateCode":"WI","latitude":42.70778,"longitude":-89.43706},{"name":"Albany County","countryCode":"US","stateCode":"NY","latitude":42.60018,"longitude":-73.97356},{"name":"Albany County","countryCode":"US","stateCode":"WY","latitude":41.65447,"longitude":-105.72391},{"name":"Albany Park","countryCode":"US","stateCode":"IL","latitude":41.96836,"longitude":-87.72339},{"name":"Albemarle","countryCode":"US","stateCode":"NC","latitude":35.35014,"longitude":-80.20006},{"name":"Albemarle County","countryCode":"US","stateCode":"VA","latitude":38.02289,"longitude":-78.55654},{"name":"Albers","countryCode":"US","stateCode":"IL","latitude":38.54338,"longitude":-89.61231},{"name":"Albert Lea","countryCode":"US","stateCode":"MN","latitude":43.64801,"longitude":-93.36827},{"name":"Albertson","countryCode":"US","stateCode":"NY","latitude":40.77343,"longitude":-73.64318},{"name":"Albertville","countryCode":"US","stateCode":"AL","latitude":34.26783,"longitude":-86.20878},{"name":"Albertville","countryCode":"US","stateCode":"MN","latitude":45.23774,"longitude":-93.65441},{"name":"Albia","countryCode":"US","stateCode":"IA","latitude":41.02667,"longitude":-92.80575},{"name":"Albion","countryCode":"US","stateCode":"IL","latitude":38.37755,"longitude":-88.05615},{"name":"Albion","countryCode":"US","stateCode":"IN","latitude":41.3956,"longitude":-85.42442},{"name":"Albion","countryCode":"US","stateCode":"ME","latitude":44.53229,"longitude":-69.44254},{"name":"Albion","countryCode":"US","stateCode":"MI","latitude":42.2431,"longitude":-84.75303},{"name":"Albion","countryCode":"US","stateCode":"NE","latitude":41.69084,"longitude":-98.00367},{"name":"Albion","countryCode":"US","stateCode":"NY","latitude":43.24645,"longitude":-78.19363},{"name":"Albion","countryCode":"US","stateCode":"PA","latitude":41.89061,"longitude":-80.36645},{"name":"Albuquerque","countryCode":"US","stateCode":"NM","latitude":35.08449,"longitude":-106.65114},{"name":"Alburtis","countryCode":"US","stateCode":"PA","latitude":40.51093,"longitude":-75.60297},{"name":"Alcoa","countryCode":"US","stateCode":"TN","latitude":35.78953,"longitude":-83.97379},{"name":"Alcona County","countryCode":"US","stateCode":"MI","latitude":44.71161,"longitude":-83.34366},{"name":"Alcorn County","countryCode":"US","stateCode":"MS","latitude":34.88077,"longitude":-88.58026},{"name":"Aldan","countryCode":"US","stateCode":"PA","latitude":39.9215,"longitude":-75.28796},{"name":"Alden","countryCode":"US","stateCode":"NY","latitude":42.90006,"longitude":-78.49197},{"name":"Alderson","countryCode":"US","stateCode":"WV","latitude":37.72595,"longitude":-80.64202},{"name":"Alderton","countryCode":"US","stateCode":"WA","latitude":47.16955,"longitude":-122.22928},{"name":"Alderwood Manor","countryCode":"US","stateCode":"WA","latitude":47.82204,"longitude":-122.28207},{"name":"Aldine","countryCode":"US","stateCode":"TX","latitude":29.93245,"longitude":-95.38021},{"name":"Aledo","countryCode":"US","stateCode":"IL","latitude":41.19976,"longitude":-90.74931},{"name":"Aledo","countryCode":"US","stateCode":"TX","latitude":32.69596,"longitude":-97.60225},{"name":"Aleutians East Borough","countryCode":"US","stateCode":"AK","latitude":54.85,"longitude":-163.41667},{"name":"Aleutians West Census Area","countryCode":"US","stateCode":"AK","latitude":52.16298,"longitude":-174.28505},{"name":"Alexander","countryCode":"US","stateCode":"AR","latitude":34.62954,"longitude":-92.44127},{"name":"Alexander City","countryCode":"US","stateCode":"AL","latitude":32.94401,"longitude":-85.95385},{"name":"Alexander County","countryCode":"US","stateCode":"IL","latitude":37.1916,"longitude":-89.33764},{"name":"Alexander County","countryCode":"US","stateCode":"NC","latitude":35.92102,"longitude":-81.17702},{"name":"Alexandria","countryCode":"US","stateCode":"AL","latitude":33.77399,"longitude":-85.88552},{"name":"Alexandria","countryCode":"US","stateCode":"IN","latitude":40.26282,"longitude":-85.67581},{"name":"Alexandria","countryCode":"US","stateCode":"KY","latitude":38.95951,"longitude":-84.38799},{"name":"Alexandria","countryCode":"US","stateCode":"LA","latitude":31.31129,"longitude":-92.44514},{"name":"Alexandria","countryCode":"US","stateCode":"MN","latitude":45.88524,"longitude":-95.37754},{"name":"Alexandria","countryCode":"US","stateCode":"NH","latitude":43.61146,"longitude":-71.79286},{"name":"Alexandria","countryCode":"US","stateCode":"SD","latitude":43.65359,"longitude":-97.78285},{"name":"Alexandria","countryCode":"US","stateCode":"VA","latitude":38.80484,"longitude":-77.04692},{"name":"Alexandria Bay","countryCode":"US","stateCode":"NY","latitude":44.33588,"longitude":-75.91773},{"name":"Alfalfa County","countryCode":"US","stateCode":"OK","latitude":36.73098,"longitude":-98.324},{"name":"Alfred","countryCode":"US","stateCode":"ME","latitude":43.47647,"longitude":-70.71839},{"name":"Alfred","countryCode":"US","stateCode":"NY","latitude":42.25424,"longitude":-77.79055},{"name":"Alger County","countryCode":"US","stateCode":"MI","latitude":46.4511,"longitude":-86.54755},{"name":"Algoma","countryCode":"US","stateCode":"WI","latitude":44.60889,"longitude":-87.43259},{"name":"Algona","countryCode":"US","stateCode":"IA","latitude":43.06997,"longitude":-94.23302},{"name":"Algona","countryCode":"US","stateCode":"WA","latitude":47.27899,"longitude":-122.25206},{"name":"Algonac","countryCode":"US","stateCode":"MI","latitude":42.61858,"longitude":-82.5323},{"name":"Algonquin","countryCode":"US","stateCode":"IL","latitude":42.16558,"longitude":-88.29425},{"name":"Algonquin","countryCode":"US","stateCode":"MD","latitude":38.5829,"longitude":-76.10577},{"name":"Algood","countryCode":"US","stateCode":"TN","latitude":36.19589,"longitude":-85.44858},{"name":"Alhambra","countryCode":"US","stateCode":"AZ","latitude":33.49838,"longitude":-112.13432},{"name":"Alhambra","countryCode":"US","stateCode":"CA","latitude":34.09529,"longitude":-118.12701},{"name":"Alice","countryCode":"US","stateCode":"TX","latitude":27.75225,"longitude":-98.06972},{"name":"Aliceville","countryCode":"US","stateCode":"AL","latitude":33.12957,"longitude":-88.15142},{"name":"Alief","countryCode":"US","stateCode":"TX","latitude":29.71106,"longitude":-95.59633},{"name":"Aliquippa","countryCode":"US","stateCode":"PA","latitude":40.63673,"longitude":-80.24006},{"name":"Aliso Viejo","countryCode":"US","stateCode":"CA","latitude":33.56504,"longitude":-117.72712},{"name":"Allamakee County","countryCode":"US","stateCode":"IA","latitude":43.28428,"longitude":-91.37809},{"name":"Allapattah","countryCode":"US","stateCode":"FL","latitude":25.81454,"longitude":-80.22394},{"name":"Allegan","countryCode":"US","stateCode":"MI","latitude":42.5292,"longitude":-85.8553},{"name":"Allegan County","countryCode":"US","stateCode":"MI","latitude":42.51766,"longitude":-85.91034},{"name":"Allegany","countryCode":"US","stateCode":"NY","latitude":42.09006,"longitude":-78.49419},{"name":"Allegany County","countryCode":"US","stateCode":"MD","latitude":39.62148,"longitude":-78.6989},{"name":"Allegany County","countryCode":"US","stateCode":"NY","latitude":42.25739,"longitude":-78.02756},{"name":"Alleghany County","countryCode":"US","stateCode":"NC","latitude":36.49134,"longitude":-81.12719},{"name":"Alleghany County","countryCode":"US","stateCode":"VA","latitude":37.7876,"longitude":-80.00699},{"name":"Allegheny County","countryCode":"US","stateCode":"PA","latitude":40.46883,"longitude":-79.98119},{"name":"Alleghenyville","countryCode":"US","stateCode":"PA","latitude":40.23426,"longitude":-75.98855},{"name":"Allen","countryCode":"US","stateCode":"TX","latitude":33.10317,"longitude":-96.67055},{"name":"Allen County","countryCode":"US","stateCode":"IN","latitude":41.09087,"longitude":-85.06656},{"name":"Allen County","countryCode":"US","stateCode":"KS","latitude":37.88573,"longitude":-95.30139},{"name":"Allen County","countryCode":"US","stateCode":"KY","latitude":36.75132,"longitude":-86.19042},{"name":"Allen County","countryCode":"US","stateCode":"OH","latitude":40.77152,"longitude":-84.10578},{"name":"Allen Parish","countryCode":"US","stateCode":"LA","latitude":30.65287,"longitude":-92.82788},{"name":"Allen Park","countryCode":"US","stateCode":"MI","latitude":42.25754,"longitude":-83.21104},{"name":"Allendale","countryCode":"US","stateCode":"CA","latitude":38.44463,"longitude":-121.94302},{"name":"Allendale","countryCode":"US","stateCode":"MI","latitude":42.97225,"longitude":-85.95365},{"name":"Allendale","countryCode":"US","stateCode":"NJ","latitude":41.04149,"longitude":-74.12903},{"name":"Allendale","countryCode":"US","stateCode":"SC","latitude":33.00793,"longitude":-81.30844},{"name":"Allendale County","countryCode":"US","stateCode":"SC","latitude":32.98811,"longitude":-81.3582},{"name":"Allentown","countryCode":"US","stateCode":"NJ","latitude":40.17789,"longitude":-74.58349},{"name":"Allentown","countryCode":"US","stateCode":"PA","latitude":40.60843,"longitude":-75.49018},{"name":"Alliance","countryCode":"US","stateCode":"NE","latitude":42.10163,"longitude":-102.87215},{"name":"Alliance","countryCode":"US","stateCode":"OH","latitude":40.91534,"longitude":-81.10593},{"name":"Allison","countryCode":"US","stateCode":"IA","latitude":42.75275,"longitude":-92.79519},{"name":"Allison Park","countryCode":"US","stateCode":"PA","latitude":40.55951,"longitude":-79.95867},{"name":"Allouez","countryCode":"US","stateCode":"WI","latitude":44.47749,"longitude":-88.01621},{"name":"Alloway","countryCode":"US","stateCode":"NJ","latitude":39.56095,"longitude":-75.36242},{"name":"Allyn","countryCode":"US","stateCode":"WA","latitude":47.38565,"longitude":-122.82764},{"name":"Alma","countryCode":"US","stateCode":"AR","latitude":35.47787,"longitude":-94.22188},{"name":"Alma","countryCode":"US","stateCode":"GA","latitude":31.53937,"longitude":-82.46236},{"name":"Alma","countryCode":"US","stateCode":"KS","latitude":39.01667,"longitude":-96.28916},{"name":"Alma","countryCode":"US","stateCode":"MI","latitude":43.37892,"longitude":-84.65973},{"name":"Alma","countryCode":"US","stateCode":"NE","latitude":40.09751,"longitude":-99.36204},{"name":"Alma","countryCode":"US","stateCode":"WI","latitude":44.31997,"longitude":-91.91488},{"name":"Almedia","countryCode":"US","stateCode":"PA","latitude":41.01453,"longitude":-76.38105},{"name":"Almont","countryCode":"US","stateCode":"MI","latitude":42.92058,"longitude":-83.04493},{"name":"Aloha","countryCode":"US","stateCode":"OR","latitude":45.49428,"longitude":-122.86705},{"name":"Alondra Park","countryCode":"US","stateCode":"CA","latitude":33.88946,"longitude":-118.33091},{"name":"Alorton","countryCode":"US","stateCode":"IL","latitude":38.58977,"longitude":-90.12011},{"name":"Alpaugh","countryCode":"US","stateCode":"CA","latitude":35.88773,"longitude":-119.48734},{"name":"Alpena","countryCode":"US","stateCode":"MI","latitude":45.06168,"longitude":-83.43275},{"name":"Alpena County","countryCode":"US","stateCode":"MI","latitude":45.0635,"longitude":-83.46039},{"name":"Alpha","countryCode":"US","stateCode":"NJ","latitude":40.66704,"longitude":-75.1574},{"name":"Alpharetta","countryCode":"US","stateCode":"GA","latitude":34.07538,"longitude":-84.29409},{"name":"Alpine","countryCode":"US","stateCode":"CA","latitude":32.83505,"longitude":-116.76641},{"name":"Alpine","countryCode":"US","stateCode":"NJ","latitude":40.95593,"longitude":-73.93125},{"name":"Alpine","countryCode":"US","stateCode":"TX","latitude":30.35862,"longitude":-103.66206},{"name":"Alpine","countryCode":"US","stateCode":"UT","latitude":40.45328,"longitude":-111.77799},{"name":"Alpine County","countryCode":"US","stateCode":"CA","latitude":38.59725,"longitude":-119.82065},{"name":"Alsip","countryCode":"US","stateCode":"IL","latitude":41.66892,"longitude":-87.73866},{"name":"Alstead","countryCode":"US","stateCode":"NH","latitude":43.14897,"longitude":-72.36064},{"name":"Alta","countryCode":"US","stateCode":"IA","latitude":42.67359,"longitude":-95.29055},{"name":"Alta Sierra","countryCode":"US","stateCode":"CA","latitude":35.73126,"longitude":-118.5539},{"name":"Altadena","countryCode":"US","stateCode":"CA","latitude":34.18973,"longitude":-118.13118},{"name":"Altamont","countryCode":"US","stateCode":"IL","latitude":39.06199,"longitude":-88.74811},{"name":"Altamont","countryCode":"US","stateCode":"KS","latitude":37.19034,"longitude":-95.29719},{"name":"Altamont","countryCode":"US","stateCode":"NY","latitude":42.70063,"longitude":-74.03374},{"name":"Altamont","countryCode":"US","stateCode":"OR","latitude":42.20681,"longitude":-121.73722},{"name":"Altamont","countryCode":"US","stateCode":"TN","latitude":35.42952,"longitude":-85.72303},{"name":"Altamonte Springs","countryCode":"US","stateCode":"FL","latitude":28.66111,"longitude":-81.36562},{"name":"Altavista","countryCode":"US","stateCode":"VA","latitude":37.11181,"longitude":-79.28558},{"name":"Alto","countryCode":"US","stateCode":"GA","latitude":34.46732,"longitude":-83.57378},{"name":"Alto","countryCode":"US","stateCode":"TX","latitude":31.65045,"longitude":-95.07272},{"name":"Alto","countryCode":"US","stateCode":"WI","latitude":43.67665,"longitude":-88.79511},{"name":"Alton","countryCode":"US","stateCode":"IA","latitude":42.98749,"longitude":-96.01057},{"name":"Alton","countryCode":"US","stateCode":"IL","latitude":38.8906,"longitude":-90.18428},{"name":"Alton","countryCode":"US","stateCode":"MO","latitude":36.69423,"longitude":-91.3993},{"name":"Alton","countryCode":"US","stateCode":"TX","latitude":26.28729,"longitude":-98.31335},{"name":"Alton North (historical)","countryCode":"US","stateCode":"TX","latitude":26.29535,"longitude":-98.30446},{"name":"Altoona","countryCode":"US","stateCode":"IA","latitude":41.64416,"longitude":-93.46466},{"name":"Altoona","countryCode":"US","stateCode":"PA","latitude":40.51868,"longitude":-78.39474},{"name":"Altoona","countryCode":"US","stateCode":"WI","latitude":44.80468,"longitude":-91.44321},{"name":"Alturas","countryCode":"US","stateCode":"CA","latitude":41.48714,"longitude":-120.54349},{"name":"Alturas","countryCode":"US","stateCode":"FL","latitude":27.87169,"longitude":-81.71508},{"name":"Altus","countryCode":"US","stateCode":"OK","latitude":34.63813,"longitude":-99.33398},{"name":"Alum Creek","countryCode":"US","stateCode":"WV","latitude":38.28676,"longitude":-81.80513},{"name":"Alum Rock","countryCode":"US","stateCode":"CA","latitude":37.36605,"longitude":-121.82718},{"name":"Alva","countryCode":"US","stateCode":"FL","latitude":26.71562,"longitude":-81.61008},{"name":"Alva","countryCode":"US","stateCode":"OK","latitude":36.80499,"longitude":-98.66718},{"name":"Alvarado","countryCode":"US","stateCode":"TX","latitude":32.40653,"longitude":-97.21168},{"name":"Alvin","countryCode":"US","stateCode":"TX","latitude":29.42385,"longitude":-95.2441},{"name":"Alvord","countryCode":"US","stateCode":"TX","latitude":33.35845,"longitude":-97.69475},{"name":"Ama","countryCode":"US","stateCode":"LA","latitude":29.95215,"longitude":-90.29647},{"name":"Amador County","countryCode":"US","stateCode":"CA","latitude":38.44639,"longitude":-120.65112},{"name":"Amagansett","countryCode":"US","stateCode":"NY","latitude":40.97371,"longitude":-72.14369},{"name":"Amarillo","countryCode":"US","stateCode":"TX","latitude":35.222,"longitude":-101.8313},{"name":"Amberley","countryCode":"US","stateCode":"OH","latitude":39.20478,"longitude":-84.428},{"name":"Ambler","countryCode":"US","stateCode":"PA","latitude":40.15455,"longitude":-75.22157},{"name":"Amboy","countryCode":"US","stateCode":"IL","latitude":41.7142,"longitude":-89.32871},{"name":"Amboy","countryCode":"US","stateCode":"WA","latitude":45.91011,"longitude":-122.44649},{"name":"Ambridge","countryCode":"US","stateCode":"PA","latitude":40.58923,"longitude":-80.22506},{"name":"Amelia","countryCode":"US","stateCode":"LA","latitude":29.66632,"longitude":-91.10204},{"name":"Amelia","countryCode":"US","stateCode":"OH","latitude":39.0284,"longitude":-84.21771},{"name":"Amelia County","countryCode":"US","stateCode":"VA","latitude":37.33603,"longitude":-77.97614},{"name":"Amelia Court House","countryCode":"US","stateCode":"VA","latitude":37.34293,"longitude":-77.98056},{"name":"American Canyon","countryCode":"US","stateCode":"CA","latitude":38.17492,"longitude":-122.2608},{"name":"American Falls","countryCode":"US","stateCode":"ID","latitude":42.78602,"longitude":-112.85444},{"name":"American Fork","countryCode":"US","stateCode":"UT","latitude":40.3769,"longitude":-111.79576},{"name":"Americus","countryCode":"US","stateCode":"GA","latitude":32.07239,"longitude":-84.23269},{"name":"Amery","countryCode":"US","stateCode":"WI","latitude":45.30691,"longitude":-92.36214},{"name":"Ames","countryCode":"US","stateCode":"IA","latitude":42.03471,"longitude":-93.61994},{"name":"Ames","countryCode":"US","stateCode":"TX","latitude":30.05383,"longitude":-94.74353},{"name":"Ames Lake","countryCode":"US","stateCode":"WA","latitude":47.63288,"longitude":-121.96623},{"name":"Amesbury","countryCode":"US","stateCode":"MA","latitude":42.85842,"longitude":-70.93005},{"name":"Amesti","countryCode":"US","stateCode":"CA","latitude":36.96356,"longitude":-121.77912},{"name":"Amherst","countryCode":"US","stateCode":"MA","latitude":42.36723,"longitude":-72.51852},{"name":"Amherst","countryCode":"US","stateCode":"NY","latitude":42.97839,"longitude":-78.79976},{"name":"Amherst","countryCode":"US","stateCode":"OH","latitude":41.39782,"longitude":-82.22238},{"name":"Amherst","countryCode":"US","stateCode":"VA","latitude":37.58514,"longitude":-79.05141},{"name":"Amherst","countryCode":"US","stateCode":"WI","latitude":44.45081,"longitude":-89.28484},{"name":"Amherst Center","countryCode":"US","stateCode":"MA","latitude":42.37537,"longitude":-72.51925},{"name":"Amherst County","countryCode":"US","stateCode":"VA","latitude":37.60477,"longitude":-79.14511},{"name":"Amidon","countryCode":"US","stateCode":"ND","latitude":46.48223,"longitude":-103.32185},{"name":"Amite","countryCode":"US","stateCode":"LA","latitude":30.72657,"longitude":-90.50898},{"name":"Amite County","countryCode":"US","stateCode":"MS","latitude":31.1744,"longitude":-90.80443},{"name":"Amity","countryCode":"US","stateCode":"OR","latitude":45.11567,"longitude":-123.20733},{"name":"Amity Gardens","countryCode":"US","stateCode":"PA","latitude":40.27426,"longitude":-75.73519},{"name":"Amityville","countryCode":"US","stateCode":"NY","latitude":40.67899,"longitude":-73.41707},{"name":"Ammon","countryCode":"US","stateCode":"ID","latitude":43.46964,"longitude":-111.96664},{"name":"Amory","countryCode":"US","stateCode":"MS","latitude":33.98428,"longitude":-88.4881},{"name":"Amsterdam","countryCode":"US","stateCode":"NY","latitude":42.93869,"longitude":-74.18819},{"name":"Anaconda","countryCode":"US","stateCode":"MT","latitude":46.12854,"longitude":-112.94226},{"name":"Anacortes","countryCode":"US","stateCode":"WA","latitude":48.5126,"longitude":-122.61267},{"name":"Anadarko","countryCode":"US","stateCode":"OK","latitude":35.07256,"longitude":-98.24366},{"name":"Anaheim","countryCode":"US","stateCode":"CA","latitude":33.83529,"longitude":-117.9145},{"name":"Anahola","countryCode":"US","stateCode":"HI","latitude":22.14226,"longitude":-159.31388},{"name":"Anahuac","countryCode":"US","stateCode":"TX","latitude":29.773,"longitude":-94.6827},{"name":"Anamosa","countryCode":"US","stateCode":"IA","latitude":42.10834,"longitude":-91.28516},{"name":"Añasco","countryCode":"US","stateCode":"PR","latitude":18.31611111,"longitude":-67.13972222},{"name":"Anchor Point","countryCode":"US","stateCode":"AK","latitude":59.77667,"longitude":-151.83139},{"name":"Anchorage","countryCode":"US","stateCode":"AK","latitude":61.21806,"longitude":-149.90028},{"name":"Anchorage","countryCode":"US","stateCode":"KY","latitude":38.26674,"longitude":-85.53302},{"name":"Anchorage Municipality","countryCode":"US","stateCode":"AK","latitude":61.16667,"longitude":-149.25056},{"name":"Ancient Oaks","countryCode":"US","stateCode":"PA","latitude":40.54732,"longitude":-75.58935},{"name":"Andalusia","countryCode":"US","stateCode":"AL","latitude":31.30808,"longitude":-86.48243},{"name":"Andalusia","countryCode":"US","stateCode":"IL","latitude":41.4392,"longitude":-90.71764},{"name":"Anderson","countryCode":"US","stateCode":"CA","latitude":40.44821,"longitude":-122.29778},{"name":"Anderson","countryCode":"US","stateCode":"IN","latitude":40.10532,"longitude":-85.68025},{"name":"Anderson","countryCode":"US","stateCode":"MO","latitude":36.65063,"longitude":-94.44355},{"name":"Anderson","countryCode":"US","stateCode":"SC","latitude":34.50344,"longitude":-82.65013},{"name":"Anderson","countryCode":"US","stateCode":"TX","latitude":30.48715,"longitude":-95.9869},{"name":"Anderson County","countryCode":"US","stateCode":"KS","latitude":38.2142,"longitude":-95.29333},{"name":"Anderson County","countryCode":"US","stateCode":"KY","latitude":38.00391,"longitude":-84.99101},{"name":"Anderson County","countryCode":"US","stateCode":"SC","latitude":34.51909,"longitude":-82.63788},{"name":"Anderson County","countryCode":"US","stateCode":"TN","latitude":36.11844,"longitude":-84.19846},{"name":"Anderson County","countryCode":"US","stateCode":"TX","latitude":31.81333,"longitude":-95.65255},{"name":"Anderson Mill","countryCode":"US","stateCode":"TX","latitude":30.45492,"longitude":-97.80584},{"name":"Andover","countryCode":"US","stateCode":"FL","latitude":25.96843,"longitude":-80.21283},{"name":"Andover","countryCode":"US","stateCode":"KS","latitude":37.7139,"longitude":-97.13643},{"name":"Andover","countryCode":"US","stateCode":"MA","latitude":42.65843,"longitude":-71.137},{"name":"Andover","countryCode":"US","stateCode":"MN","latitude":45.2333,"longitude":-93.29134},{"name":"Andover","countryCode":"US","stateCode":"NH","latitude":43.43702,"longitude":-71.82341},{"name":"Andover","countryCode":"US","stateCode":"NY","latitude":42.15646,"longitude":-77.79555},{"name":"Andover","countryCode":"US","stateCode":"OH","latitude":41.60672,"longitude":-80.5723},{"name":"Andrew County","countryCode":"US","stateCode":"MO","latitude":39.98349,"longitude":-94.80205},{"name":"Andrews","countryCode":"US","stateCode":"IN","latitude":40.86254,"longitude":-85.60165},{"name":"Andrews","countryCode":"US","stateCode":"NC","latitude":35.20175,"longitude":-83.82407},{"name":"Andrews","countryCode":"US","stateCode":"SC","latitude":33.45128,"longitude":-79.5609},{"name":"Andrews","countryCode":"US","stateCode":"TX","latitude":32.31872,"longitude":-102.54572},{"name":"Andrews AFB","countryCode":"US","stateCode":"MD","latitude":38.80531,"longitude":-76.8746},{"name":"Andrews County","countryCode":"US","stateCode":"TX","latitude":32.30503,"longitude":-102.63781},{"name":"Androscoggin County","countryCode":"US","stateCode":"ME","latitude":44.16585,"longitude":-70.20645},{"name":"Angel Fire","countryCode":"US","stateCode":"NM","latitude":36.39309,"longitude":-105.28501},{"name":"Angelina County","countryCode":"US","stateCode":"TX","latitude":31.25476,"longitude":-94.61185},{"name":"Angels Camp","countryCode":"US","stateCode":"CA","latitude":38.06826,"longitude":-120.53965},{"name":"Angier","countryCode":"US","stateCode":"NC","latitude":35.5071,"longitude":-78.73918},{"name":"Angleton","countryCode":"US","stateCode":"TX","latitude":29.16941,"longitude":-95.43188},{"name":"Angola","countryCode":"US","stateCode":"IN","latitude":41.63477,"longitude":-84.99941},{"name":"Angola","countryCode":"US","stateCode":"NY","latitude":42.63839,"longitude":-79.02782},{"name":"Angola on the Lake","countryCode":"US","stateCode":"NY","latitude":42.65478,"longitude":-79.04893},{"name":"Angwin","countryCode":"US","stateCode":"CA","latitude":38.57574,"longitude":-122.44998},{"name":"Animas","countryCode":"US","stateCode":"PR","latitude":18.44555556,"longitude":-66.635},{"name":"Ankeny","countryCode":"US","stateCode":"IA","latitude":41.72971,"longitude":-93.60577},{"name":"Ann Arbor","countryCode":"US","stateCode":"MI","latitude":42.27756,"longitude":-83.74088},{"name":"Anna","countryCode":"US","stateCode":"IL","latitude":37.46033,"longitude":-89.24703},{"name":"Anna","countryCode":"US","stateCode":"OH","latitude":40.39449,"longitude":-84.17272},{"name":"Anna","countryCode":"US","stateCode":"TX","latitude":33.349,"longitude":-96.5486},{"name":"Anna Maria","countryCode":"US","stateCode":"FL","latitude":27.53115,"longitude":-82.73343},{"name":"Annandale","countryCode":"US","stateCode":"MN","latitude":45.26274,"longitude":-94.12443},{"name":"Annandale","countryCode":"US","stateCode":"NJ","latitude":40.64093,"longitude":-74.88128},{"name":"Annandale","countryCode":"US","stateCode":"VA","latitude":38.83039,"longitude":-77.19637},{"name":"Annapolis","countryCode":"US","stateCode":"MD","latitude":38.97845,"longitude":-76.49218},{"name":"Anne Arundel County","countryCode":"US","stateCode":"MD","latitude":38.99416,"longitude":-76.5676},{"name":"Annetta","countryCode":"US","stateCode":"TX","latitude":32.7093,"longitude":-97.67614},{"name":"Anniston","countryCode":"US","stateCode":"AL","latitude":33.65983,"longitude":-85.83163},{"name":"Annville","countryCode":"US","stateCode":"KY","latitude":37.31925,"longitude":-83.97048},{"name":"Annville","countryCode":"US","stateCode":"PA","latitude":40.32954,"longitude":-76.51524},{"name":"Anoka","countryCode":"US","stateCode":"MN","latitude":45.19774,"longitude":-93.38718},{"name":"Anoka County","countryCode":"US","stateCode":"MN","latitude":45.27324,"longitude":-93.24645},{"name":"Anson","countryCode":"US","stateCode":"TX","latitude":32.7565,"longitude":-99.89621},{"name":"Anson County","countryCode":"US","stateCode":"NC","latitude":34.97383,"longitude":-80.10273},{"name":"Ansonia","countryCode":"US","stateCode":"CT","latitude":41.34621,"longitude":-73.079},{"name":"Ansonia","countryCode":"US","stateCode":"OH","latitude":40.21449,"longitude":-84.6369},{"name":"Ansted","countryCode":"US","stateCode":"WV","latitude":38.13622,"longitude":-81.09955},{"name":"Antelope","countryCode":"US","stateCode":"CA","latitude":38.70824,"longitude":-121.32995},{"name":"Antelope County","countryCode":"US","stateCode":"NE","latitude":42.1769,"longitude":-98.06669},{"name":"Antelope Valley-Crestview","countryCode":"US","stateCode":"WY","latitude":44.22488,"longitude":-105.47409},{"name":"Anthem","countryCode":"US","stateCode":"AZ","latitude":33.86726,"longitude":-112.14682},{"name":"Anthony","countryCode":"US","stateCode":"KS","latitude":37.15336,"longitude":-98.03117},{"name":"Anthony","countryCode":"US","stateCode":"NM","latitude":32.00399,"longitude":-106.60583},{"name":"Anthony","countryCode":"US","stateCode":"TX","latitude":31.99927,"longitude":-106.60555},{"name":"Antigo","countryCode":"US","stateCode":"WI","latitude":45.14025,"longitude":-89.15234},{"name":"Antioch","countryCode":"US","stateCode":"CA","latitude":38.00492,"longitude":-121.80579},{"name":"Antioch","countryCode":"US","stateCode":"IL","latitude":42.47724,"longitude":-88.09564},{"name":"Antlers","countryCode":"US","stateCode":"OK","latitude":34.23121,"longitude":-95.62025},{"name":"Anton","countryCode":"US","stateCode":"TX","latitude":33.8112,"longitude":-102.16379},{"name":"Antón Ruiz","countryCode":"US","stateCode":"PR","latitude":18.18527778,"longitude":-65.80861111},{"name":"Antrim","countryCode":"US","stateCode":"NH","latitude":43.03091,"longitude":-71.93897},{"name":"Antrim County","countryCode":"US","stateCode":"MI","latitude":45.00737,"longitude":-85.17579},{"name":"Antwerp","countryCode":"US","stateCode":"OH","latitude":41.18144,"longitude":-84.74051},{"name":"Anza","countryCode":"US","stateCode":"CA","latitude":33.55503,"longitude":-116.67363},{"name":"Apache","countryCode":"US","stateCode":"OK","latitude":34.89368,"longitude":-98.36589},{"name":"Apache County","countryCode":"US","stateCode":"AZ","latitude":35.3956,"longitude":-109.48884},{"name":"Apache Junction","countryCode":"US","stateCode":"AZ","latitude":33.41505,"longitude":-111.54958},{"name":"Apalachicola","countryCode":"US","stateCode":"FL","latitude":29.726,"longitude":-84.9856},{"name":"Apalachin","countryCode":"US","stateCode":"NY","latitude":42.06952,"longitude":-76.15465},{"name":"Apex","countryCode":"US","stateCode":"NC","latitude":35.73265,"longitude":-78.85029},{"name":"Apison","countryCode":"US","stateCode":"TN","latitude":35.02396,"longitude":-85.02384},{"name":"Aplington","countryCode":"US","stateCode":"IA","latitude":42.58415,"longitude":-92.88436},{"name":"Apollo","countryCode":"US","stateCode":"PA","latitude":40.58145,"longitude":-79.56643},{"name":"Apollo Beach","countryCode":"US","stateCode":"FL","latitude":27.77308,"longitude":-82.40759},{"name":"Apopka","countryCode":"US","stateCode":"FL","latitude":28.67617,"longitude":-81.51186},{"name":"Appalachia","countryCode":"US","stateCode":"VA","latitude":36.90676,"longitude":-82.78183},{"name":"Appanoose County","countryCode":"US","stateCode":"IA","latitude":40.74316,"longitude":-92.86861},{"name":"Apple Creek","countryCode":"US","stateCode":"OH","latitude":40.75172,"longitude":-81.8393},{"name":"Apple Mountain Lake","countryCode":"US","stateCode":"VA","latitude":38.92428,"longitude":-78.10139},{"name":"Apple Valley","countryCode":"US","stateCode":"CA","latitude":34.50083,"longitude":-117.18588},{"name":"Apple Valley","countryCode":"US","stateCode":"MN","latitude":44.73191,"longitude":-93.21772},{"name":"Apple Valley","countryCode":"US","stateCode":"OH","latitude":40.4389,"longitude":-82.35391},{"name":"Appleton","countryCode":"US","stateCode":"ME","latitude":44.28924,"longitude":-69.25088},{"name":"Appleton","countryCode":"US","stateCode":"MN","latitude":45.19691,"longitude":-96.01977},{"name":"Appleton","countryCode":"US","stateCode":"WI","latitude":44.26193,"longitude":-88.41538},{"name":"Appleton City","countryCode":"US","stateCode":"MO","latitude":38.19058,"longitude":-94.02939},{"name":"Applewood","countryCode":"US","stateCode":"CO","latitude":39.75778,"longitude":-105.1625},{"name":"Appling County","countryCode":"US","stateCode":"GA","latitude":31.74928,"longitude":-82.28898},{"name":"Appomattox","countryCode":"US","stateCode":"VA","latitude":37.35709,"longitude":-78.82529},{"name":"Appomattox County","countryCode":"US","stateCode":"VA","latitude":37.37229,"longitude":-78.81212},{"name":"Aptos","countryCode":"US","stateCode":"CA","latitude":36.97717,"longitude":-121.8994},{"name":"Aptos Hills-Larkin Valley","countryCode":"US","stateCode":"CA","latitude":36.96064,"longitude":-121.83404},{"name":"Aquebogue","countryCode":"US","stateCode":"NY","latitude":40.94454,"longitude":-72.62704},{"name":"Aquia Harbour","countryCode":"US","stateCode":"VA","latitude":38.46262,"longitude":-77.38887},{"name":"Arab","countryCode":"US","stateCode":"AL","latitude":34.31815,"longitude":-86.49582},{"name":"Arabi","countryCode":"US","stateCode":"LA","latitude":29.95437,"longitude":-90.00535},{"name":"Aragon","countryCode":"US","stateCode":"GA","latitude":34.04565,"longitude":-85.05606},{"name":"Aransas County","countryCode":"US","stateCode":"TX","latitude":28.01501,"longitude":-97.07382},{"name":"Aransas Pass","countryCode":"US","stateCode":"TX","latitude":27.90947,"longitude":-97.14999},{"name":"Arapaho","countryCode":"US","stateCode":"OK","latitude":35.57783,"longitude":-98.96453},{"name":"Arapahoe","countryCode":"US","stateCode":"NE","latitude":40.30417,"longitude":-99.9004},{"name":"Arapahoe","countryCode":"US","stateCode":"WY","latitude":42.96218,"longitude":-108.48983},{"name":"Arapahoe County","countryCode":"US","stateCode":"CO","latitude":39.64977,"longitude":-104.33924},{"name":"Arbuckle","countryCode":"US","stateCode":"CA","latitude":39.0174,"longitude":-122.05775},{"name":"Arbutus","countryCode":"US","stateCode":"MD","latitude":39.25455,"longitude":-76.69997},{"name":"Arcade","countryCode":"US","stateCode":"GA","latitude":34.07789,"longitude":-83.56155},{"name":"Arcade","countryCode":"US","stateCode":"NY","latitude":42.53395,"longitude":-78.42307},{"name":"Arcadia","countryCode":"US","stateCode":"CA","latitude":34.13973,"longitude":-118.03534},{"name":"Arcadia","countryCode":"US","stateCode":"FL","latitude":27.21588,"longitude":-81.85842},{"name":"Arcadia","countryCode":"US","stateCode":"IN","latitude":40.17587,"longitude":-86.02165},{"name":"Arcadia","countryCode":"US","stateCode":"LA","latitude":32.54904,"longitude":-92.92016},{"name":"Arcadia","countryCode":"US","stateCode":"SC","latitude":34.95818,"longitude":-81.99066},{"name":"Arcadia","countryCode":"US","stateCode":"WI","latitude":44.25274,"longitude":-91.50154},{"name":"Arcanum","countryCode":"US","stateCode":"OH","latitude":39.99005,"longitude":-84.55329},{"name":"Arcata","countryCode":"US","stateCode":"CA","latitude":40.86652,"longitude":-124.08284},{"name":"Archbald","countryCode":"US","stateCode":"PA","latitude":41.4948,"longitude":-75.53685},{"name":"Archbold","countryCode":"US","stateCode":"OH","latitude":41.52144,"longitude":-84.30717},{"name":"Archdale","countryCode":"US","stateCode":"NC","latitude":35.91458,"longitude":-79.97198},{"name":"Archer","countryCode":"US","stateCode":"FL","latitude":29.52997,"longitude":-82.519},{"name":"Archer City","countryCode":"US","stateCode":"TX","latitude":33.59566,"longitude":-98.62561},{"name":"Archer County","countryCode":"US","stateCode":"TX","latitude":33.61525,"longitude":-98.68765},{"name":"Archer Lodge","countryCode":"US","stateCode":"NC","latitude":35.69404,"longitude":-78.37556},{"name":"Archie","countryCode":"US","stateCode":"MO","latitude":38.48168,"longitude":-94.35439},{"name":"Archuleta County","countryCode":"US","stateCode":"CO","latitude":37.1936,"longitude":-107.04833},{"name":"Arco","countryCode":"US","stateCode":"ID","latitude":43.63657,"longitude":-113.30028},{"name":"Arcola","countryCode":"US","stateCode":"IL","latitude":39.68476,"longitude":-88.30644},{"name":"Arcola","countryCode":"US","stateCode":"TX","latitude":29.49607,"longitude":-95.46578},{"name":"Arden Hills","countryCode":"US","stateCode":"MN","latitude":45.05024,"longitude":-93.15661},{"name":"Arden on the Severn","countryCode":"US","stateCode":"MD","latitude":39.06594,"longitude":-76.57885},{"name":"Arden-Arcade","countryCode":"US","stateCode":"CA","latitude":38.6025,"longitude":-121.37854},{"name":"Ardmore","countryCode":"US","stateCode":"OK","latitude":34.17426,"longitude":-97.14363},{"name":"Ardmore","countryCode":"US","stateCode":"PA","latitude":40.00678,"longitude":-75.28546},{"name":"Ardmore","countryCode":"US","stateCode":"TN","latitude":34.99203,"longitude":-86.84667},{"name":"Ardsley","countryCode":"US","stateCode":"NY","latitude":41.01065,"longitude":-73.84375},{"name":"Arecibo","countryCode":"US","stateCode":"PR","latitude":18.47055556,"longitude":-66.72083333},{"name":"Arenac County","countryCode":"US","stateCode":"MI","latitude":44.04289,"longitude":-83.74725},{"name":"Arenas Valley","countryCode":"US","stateCode":"NM","latitude":32.79396,"longitude":-108.18421},{"name":"Argentine","countryCode":"US","stateCode":"MI","latitude":42.79142,"longitude":-83.84634},{"name":"Argo","countryCode":"US","stateCode":"AL","latitude":33.68778,"longitude":-86.50051},{"name":"Argos","countryCode":"US","stateCode":"IN","latitude":41.2378,"longitude":-86.21465},{"name":"Argyle","countryCode":"US","stateCode":"TX","latitude":33.12123,"longitude":-97.18335},{"name":"Arial","countryCode":"US","stateCode":"SC","latitude":34.84595,"longitude":-82.64152},{"name":"Aristocrat Ranchettes","countryCode":"US","stateCode":"CO","latitude":40.10915,"longitude":-104.76247},{"name":"Arivaca Junction","countryCode":"US","stateCode":"AZ","latitude":31.72731,"longitude":-111.0612},{"name":"Arizona City","countryCode":"US","stateCode":"AZ","latitude":32.75589,"longitude":-111.67096},{"name":"Arkadelphia","countryCode":"US","stateCode":"AR","latitude":34.12093,"longitude":-93.05378},{"name":"Arkansas City","countryCode":"US","stateCode":"AR","latitude":33.60872,"longitude":-91.20678},{"name":"Arkansas City","countryCode":"US","stateCode":"KS","latitude":37.06197,"longitude":-97.03837},{"name":"Arkansas County","countryCode":"US","stateCode":"AR","latitude":34.29081,"longitude":-91.37491},{"name":"Arkoma","countryCode":"US","stateCode":"OK","latitude":35.35454,"longitude":-94.4341},{"name":"Arlington","countryCode":"US","stateCode":"GA","latitude":31.4399,"longitude":-84.72492},{"name":"Arlington","countryCode":"US","stateCode":"MA","latitude":42.41537,"longitude":-71.15644},{"name":"Arlington","countryCode":"US","stateCode":"MD","latitude":39.34857,"longitude":-76.68324},{"name":"Arlington","countryCode":"US","stateCode":"MN","latitude":44.6083,"longitude":-94.08053},{"name":"Arlington","countryCode":"US","stateCode":"NE","latitude":41.4525,"longitude":-96.35113},{"name":"Arlington","countryCode":"US","stateCode":"NY","latitude":41.69593,"longitude":-73.8968},{"name":"Arlington","countryCode":"US","stateCode":"OH","latitude":40.89366,"longitude":-83.65021},{"name":"Arlington","countryCode":"US","stateCode":"TN","latitude":35.2962,"longitude":-89.66147},{"name":"Arlington","countryCode":"US","stateCode":"TX","latitude":32.73569,"longitude":-97.10807},{"name":"Arlington","countryCode":"US","stateCode":"VA","latitude":38.88101,"longitude":-77.10428},{"name":"Arlington","countryCode":"US","stateCode":"VT","latitude":43.0748,"longitude":-73.154},{"name":"Arlington","countryCode":"US","stateCode":"WA","latitude":48.19871,"longitude":-122.12514},{"name":"Arlington County","countryCode":"US","stateCode":"VA","latitude":38.87862,"longitude":-77.10096},{"name":"Arlington Heights","countryCode":"US","stateCode":"IL","latitude":42.08836,"longitude":-87.98063},{"name":"Arlington Heights","countryCode":"US","stateCode":"PA","latitude":40.99009,"longitude":-75.21629},{"name":"Arlington Heights","countryCode":"US","stateCode":"WA","latitude":48.20205,"longitude":-122.06208},{"name":"Arma","countryCode":"US","stateCode":"KS","latitude":37.54394,"longitude":-94.70024},{"name":"Armada","countryCode":"US","stateCode":"MI","latitude":42.8442,"longitude":-82.88437},{"name":"Armona","countryCode":"US","stateCode":"CA","latitude":36.31578,"longitude":-119.70846},{"name":"Armonk","countryCode":"US","stateCode":"NY","latitude":41.12648,"longitude":-73.71402},{"name":"Armour","countryCode":"US","stateCode":"SD","latitude":43.3186,"longitude":-98.34675},{"name":"Armstrong County","countryCode":"US","stateCode":"PA","latitude":40.81229,"longitude":-79.46454},{"name":"Armstrong County","countryCode":"US","stateCode":"TX","latitude":34.96493,"longitude":-101.3574},{"name":"Arnaudville","countryCode":"US","stateCode":"LA","latitude":30.3977,"longitude":-91.93151},{"name":"Arnett","countryCode":"US","stateCode":"OK","latitude":36.13504,"longitude":-99.77484},{"name":"Arnold","countryCode":"US","stateCode":"CA","latitude":38.25547,"longitude":-120.35103},{"name":"Arnold","countryCode":"US","stateCode":"MD","latitude":39.03206,"longitude":-76.50274},{"name":"Arnold","countryCode":"US","stateCode":"MN","latitude":46.88022,"longitude":-92.09047},{"name":"Arnold","countryCode":"US","stateCode":"MO","latitude":38.43283,"longitude":-90.37762},{"name":"Arnold","countryCode":"US","stateCode":"PA","latitude":40.58007,"longitude":-79.76672},{"name":"Arnold Line","countryCode":"US","stateCode":"MS","latitude":31.33517,"longitude":-89.3734},{"name":"Arnolds Park","countryCode":"US","stateCode":"IA","latitude":43.37274,"longitude":-95.12388},{"name":"Aromas","countryCode":"US","stateCode":"CA","latitude":36.88856,"longitude":-121.643},{"name":"Aroostook County","countryCode":"US","stateCode":"ME","latitude":46.65881,"longitude":-68.59889},{"name":"Arrochar","countryCode":"US","stateCode":"NY","latitude":40.59844,"longitude":-74.07264},{"name":"Arroyo","countryCode":"US","stateCode":"PR","latitude":17.965833,"longitude":-66.061389},{"name":"Arroyo Grande","countryCode":"US","stateCode":"CA","latitude":35.11859,"longitude":-120.59073},{"name":"Arroyo Seco","countryCode":"US","stateCode":"NM","latitude":36.51669,"longitude":-105.56918},{"name":"Artesia","countryCode":"US","stateCode":"CA","latitude":33.86585,"longitude":-118.08312},{"name":"Artesia","countryCode":"US","stateCode":"NM","latitude":32.84233,"longitude":-104.4033},{"name":"Arthur","countryCode":"US","stateCode":"IL","latitude":39.71476,"longitude":-88.47228},{"name":"Arthur","countryCode":"US","stateCode":"NE","latitude":41.57165,"longitude":-101.69156},{"name":"Arthur County","countryCode":"US","stateCode":"NE","latitude":41.5689,"longitude":-101.69591},{"name":"Artondale","countryCode":"US","stateCode":"WA","latitude":47.29954,"longitude":-122.62069},{"name":"Arundel","countryCode":"US","stateCode":"ME","latitude":43.38259,"longitude":-70.47783},{"name":"Arvada","countryCode":"US","stateCode":"CO","latitude":39.80276,"longitude":-105.08748},{"name":"Arverne","countryCode":"US","stateCode":"NY","latitude":40.59122,"longitude":-73.79597},{"name":"Arvin","countryCode":"US","stateCode":"CA","latitude":35.20913,"longitude":-118.82843},{"name":"Asbury","countryCode":"US","stateCode":"IA","latitude":42.51445,"longitude":-90.75152},{"name":"Asbury Lake","countryCode":"US","stateCode":"FL","latitude":30.04913,"longitude":-81.82149},{"name":"Asbury Park","countryCode":"US","stateCode":"NJ","latitude":40.22039,"longitude":-74.01208},{"name":"Ascension Parish","countryCode":"US","stateCode":"LA","latitude":30.20354,"longitude":-90.91129},{"name":"Ash Flat","countryCode":"US","stateCode":"AR","latitude":36.22396,"longitude":-91.60848},{"name":"Ash Grove","countryCode":"US","stateCode":"MO","latitude":37.31533,"longitude":-93.5852},{"name":"Ashaway","countryCode":"US","stateCode":"RI","latitude":41.42343,"longitude":-71.78562},{"name":"Ashburn","countryCode":"US","stateCode":"GA","latitude":31.70601,"longitude":-83.65322},{"name":"Ashburn","countryCode":"US","stateCode":"IL","latitude":41.74753,"longitude":-87.71116},{"name":"Ashburn","countryCode":"US","stateCode":"VA","latitude":39.04372,"longitude":-77.48749},{"name":"Ashburnham","countryCode":"US","stateCode":"MA","latitude":42.6362,"longitude":-71.90785},{"name":"Ashby","countryCode":"US","stateCode":"MA","latitude":42.67787,"longitude":-71.82035},{"name":"Ashdown","countryCode":"US","stateCode":"AR","latitude":33.67429,"longitude":-94.13131},{"name":"Ashe County","countryCode":"US","stateCode":"NC","latitude":36.43416,"longitude":-81.50034},{"name":"Asheboro","countryCode":"US","stateCode":"NC","latitude":35.70791,"longitude":-79.81364},{"name":"Asherton","countryCode":"US","stateCode":"TX","latitude":28.44193,"longitude":-99.76033},{"name":"Asheville","countryCode":"US","stateCode":"NC","latitude":35.60095,"longitude":-82.55402},{"name":"Ashfield","countryCode":"US","stateCode":"MA","latitude":42.52647,"longitude":-72.78843},{"name":"Ashford","countryCode":"US","stateCode":"AL","latitude":31.18296,"longitude":-85.23632},{"name":"Ashford","countryCode":"US","stateCode":"WI","latitude":43.58694,"longitude":-88.37066},{"name":"Ashland","countryCode":"US","stateCode":"AL","latitude":33.27373,"longitude":-85.83607},{"name":"Ashland","countryCode":"US","stateCode":"CA","latitude":37.69465,"longitude":-122.11385},{"name":"Ashland","countryCode":"US","stateCode":"IL","latitude":39.88783,"longitude":-90.00789},{"name":"Ashland","countryCode":"US","stateCode":"KS","latitude":37.18864,"longitude":-99.76568},{"name":"Ashland","countryCode":"US","stateCode":"KY","latitude":38.47841,"longitude":-82.63794},{"name":"Ashland","countryCode":"US","stateCode":"MA","latitude":42.26121,"longitude":-71.4634},{"name":"Ashland","countryCode":"US","stateCode":"MO","latitude":38.77448,"longitude":-92.25713},{"name":"Ashland","countryCode":"US","stateCode":"MS","latitude":34.83287,"longitude":-89.1759},{"name":"Ashland","countryCode":"US","stateCode":"NE","latitude":41.03916,"longitude":-96.36835},{"name":"Ashland","countryCode":"US","stateCode":"NH","latitude":43.69535,"longitude":-71.63063},{"name":"Ashland","countryCode":"US","stateCode":"NJ","latitude":39.86317,"longitude":-75.006},{"name":"Ashland","countryCode":"US","stateCode":"OH","latitude":40.86867,"longitude":-82.31822},{"name":"Ashland","countryCode":"US","stateCode":"OR","latitude":42.19458,"longitude":-122.70948},{"name":"Ashland","countryCode":"US","stateCode":"PA","latitude":40.78175,"longitude":-76.34578},{"name":"Ashland","countryCode":"US","stateCode":"VA","latitude":37.75903,"longitude":-77.47998},{"name":"Ashland","countryCode":"US","stateCode":"WI","latitude":46.59244,"longitude":-90.8838},{"name":"Ashland City","countryCode":"US","stateCode":"TN","latitude":36.27422,"longitude":-87.06417},{"name":"Ashland County","countryCode":"US","stateCode":"OH","latitude":40.84602,"longitude":-82.27069},{"name":"Ashland County","countryCode":"US","stateCode":"WI","latitude":46.50974,"longitude":-90.7196},{"name":"Ashley","countryCode":"US","stateCode":"ND","latitude":46.03414,"longitude":-99.3715},{"name":"Ashley","countryCode":"US","stateCode":"OH","latitude":40.40895,"longitude":-82.95546},{"name":"Ashley","countryCode":"US","stateCode":"PA","latitude":41.21036,"longitude":-75.89659},{"name":"Ashley County","countryCode":"US","stateCode":"AR","latitude":33.19122,"longitude":-91.76845},{"name":"Ashtabula","countryCode":"US","stateCode":"OH","latitude":41.86505,"longitude":-80.78981},{"name":"Ashtabula County","countryCode":"US","stateCode":"OH","latitude":41.89638,"longitude":-80.75901},{"name":"Ashton","countryCode":"US","stateCode":"ID","latitude":44.07158,"longitude":-111.44829},{"name":"Ashton-Sandy Spring","countryCode":"US","stateCode":"MD","latitude":39.14976,"longitude":-77.00504},{"name":"Ashville","countryCode":"US","stateCode":"AL","latitude":33.83704,"longitude":-86.25442},{"name":"Ashville","countryCode":"US","stateCode":"OH","latitude":39.71562,"longitude":-82.95296},{"name":"Ashwaubenon","countryCode":"US","stateCode":"WI","latitude":44.48221,"longitude":-88.0701},{"name":"Asotin","countryCode":"US","stateCode":"WA","latitude":46.33933,"longitude":-117.04821},{"name":"Asotin County","countryCode":"US","stateCode":"WA","latitude":46.19186,"longitude":-117.20307},{"name":"Aspen","countryCode":"US","stateCode":"CO","latitude":39.1911,"longitude":-106.81754},{"name":"Aspen Hill","countryCode":"US","stateCode":"MD","latitude":39.07955,"longitude":-77.07303},{"name":"Aspermont","countryCode":"US","stateCode":"TX","latitude":33.13343,"longitude":-100.22733},{"name":"Aspinwall","countryCode":"US","stateCode":"PA","latitude":40.49146,"longitude":-79.90477},{"name":"Assonet","countryCode":"US","stateCode":"MA","latitude":41.79594,"longitude":-71.06782},{"name":"Assumption","countryCode":"US","stateCode":"IL","latitude":39.52032,"longitude":-89.04897},{"name":"Assumption Parish","countryCode":"US","stateCode":"LA","latitude":29.90077,"longitude":-91.06259},{"name":"Astatula","countryCode":"US","stateCode":"FL","latitude":28.70972,"longitude":-81.73285},{"name":"Astor","countryCode":"US","stateCode":"FL","latitude":29.16248,"longitude":-81.52535},{"name":"Astoria","countryCode":"US","stateCode":"IL","latitude":40.22754,"longitude":-90.35957},{"name":"Astoria","countryCode":"US","stateCode":"NY","latitude":40.77205,"longitude":-73.93014},{"name":"Astoria","countryCode":"US","stateCode":"OR","latitude":46.18788,"longitude":-123.83125},{"name":"Atascadero","countryCode":"US","stateCode":"CA","latitude":35.48942,"longitude":-120.67073},{"name":"Atascocita","countryCode":"US","stateCode":"TX","latitude":29.99883,"longitude":-95.1766},{"name":"Atascosa County","countryCode":"US","stateCode":"TX","latitude":28.89352,"longitude":-98.52713},{"name":"Atchison","countryCode":"US","stateCode":"KS","latitude":39.56305,"longitude":-95.12164},{"name":"Atchison County","countryCode":"US","stateCode":"KS","latitude":39.53174,"longitude":-95.31344},{"name":"Atchison County","countryCode":"US","stateCode":"MO","latitude":40.43085,"longitude":-95.42809},{"name":"Atco","countryCode":"US","stateCode":"NJ","latitude":39.76984,"longitude":-74.88739},{"name":"Atglen","countryCode":"US","stateCode":"PA","latitude":39.94927,"longitude":-75.97356},{"name":"Athena","countryCode":"US","stateCode":"OR","latitude":45.8118,"longitude":-118.49053},{"name":"Athens","countryCode":"US","stateCode":"AL","latitude":34.80243,"longitude":-86.97219},{"name":"Athens","countryCode":"US","stateCode":"GA","latitude":33.96095,"longitude":-83.37794},{"name":"Athens","countryCode":"US","stateCode":"IL","latitude":39.96088,"longitude":-89.72399},{"name":"Athens","countryCode":"US","stateCode":"MI","latitude":42.08866,"longitude":-85.23471},{"name":"Athens","countryCode":"US","stateCode":"NY","latitude":42.26036,"longitude":-73.80957},{"name":"Athens","countryCode":"US","stateCode":"OH","latitude":39.32924,"longitude":-82.10126},{"name":"Athens","countryCode":"US","stateCode":"PA","latitude":41.9573,"longitude":-76.518},{"name":"Athens","countryCode":"US","stateCode":"TN","latitude":35.44285,"longitude":-84.59299},{"name":"Athens","countryCode":"US","stateCode":"TX","latitude":32.20487,"longitude":-95.85552},{"name":"Athens","countryCode":"US","stateCode":"WI","latitude":45.03302,"longitude":-90.07402},{"name":"Athens County","countryCode":"US","stateCode":"OH","latitude":39.33386,"longitude":-82.04513},{"name":"Atherton","countryCode":"US","stateCode":"CA","latitude":37.46133,"longitude":-122.19774},{"name":"Athol","countryCode":"US","stateCode":"MA","latitude":42.59592,"longitude":-72.22675},{"name":"Atkins","countryCode":"US","stateCode":"AR","latitude":35.24647,"longitude":-92.93656},{"name":"Atkins","countryCode":"US","stateCode":"IA","latitude":41.99694,"longitude":-91.86213},{"name":"Atkins","countryCode":"US","stateCode":"VA","latitude":36.86734,"longitude":-81.42344},{"name":"Atkinson","countryCode":"US","stateCode":"NE","latitude":42.53139,"longitude":-98.97815},{"name":"Atkinson","countryCode":"US","stateCode":"NH","latitude":42.83842,"longitude":-71.147},{"name":"Atkinson County","countryCode":"US","stateCode":"GA","latitude":31.29711,"longitude":-82.87999},{"name":"Atlanta","countryCode":"US","stateCode":"GA","latitude":33.749,"longitude":-84.38798},{"name":"Atlanta","countryCode":"US","stateCode":"IL","latitude":40.25948,"longitude":-89.23342},{"name":"Atlanta","countryCode":"US","stateCode":"MI","latitude":45.00473,"longitude":-84.14389},{"name":"Atlanta","countryCode":"US","stateCode":"TX","latitude":33.11374,"longitude":-94.16435},{"name":"Atlantic","countryCode":"US","stateCode":"IA","latitude":41.4036,"longitude":-95.01388},{"name":"Atlantic Beach","countryCode":"US","stateCode":"FL","latitude":30.33441,"longitude":-81.3987},{"name":"Atlantic Beach","countryCode":"US","stateCode":"NC","latitude":34.69905,"longitude":-76.74021},{"name":"Atlantic Beach","countryCode":"US","stateCode":"NY","latitude":40.58899,"longitude":-73.72902},{"name":"Atlantic City","countryCode":"US","stateCode":"NJ","latitude":39.36415,"longitude":-74.42306},{"name":"Atlantic County","countryCode":"US","stateCode":"NJ","latitude":39.46883,"longitude":-74.63373},{"name":"Atlantic Highlands","countryCode":"US","stateCode":"NJ","latitude":40.40789,"longitude":-74.03431},{"name":"Atlantis","countryCode":"US","stateCode":"FL","latitude":26.5909,"longitude":-80.10088},{"name":"Atmore","countryCode":"US","stateCode":"AL","latitude":31.02379,"longitude":-87.49387},{"name":"Atoka","countryCode":"US","stateCode":"NM","latitude":32.76956,"longitude":-104.38885},{"name":"Atoka","countryCode":"US","stateCode":"OK","latitude":34.38593,"longitude":-96.12833},{"name":"Atoka","countryCode":"US","stateCode":"TN","latitude":35.44119,"longitude":-89.77814},{"name":"Atoka County","countryCode":"US","stateCode":"OK","latitude":34.37372,"longitude":-96.03783},{"name":"Attala County","countryCode":"US","stateCode":"MS","latitude":33.08629,"longitude":-89.58155},{"name":"Attalla","countryCode":"US","stateCode":"AL","latitude":34.02176,"longitude":-86.08859},{"name":"Attica","countryCode":"US","stateCode":"IN","latitude":40.2942,"longitude":-87.2489},{"name":"Attica","countryCode":"US","stateCode":"NY","latitude":42.86423,"longitude":-78.28029},{"name":"Attleboro","countryCode":"US","stateCode":"MA","latitude":41.94454,"longitude":-71.28561},{"name":"Atwater","countryCode":"US","stateCode":"CA","latitude":37.34772,"longitude":-120.60908},{"name":"Atwater","countryCode":"US","stateCode":"MN","latitude":45.13885,"longitude":-94.77806},{"name":"Atwood","countryCode":"US","stateCode":"IL","latitude":39.79948,"longitude":-88.46228},{"name":"Atwood","countryCode":"US","stateCode":"KS","latitude":39.80667,"longitude":-101.0421},{"name":"Au Sable","countryCode":"US","stateCode":"MI","latitude":44.41085,"longitude":-83.33219},{"name":"Auberry","countryCode":"US","stateCode":"CA","latitude":37.08078,"longitude":-119.48541},{"name":"Aubrey","countryCode":"US","stateCode":"TX","latitude":33.30428,"longitude":-96.98612},{"name":"Auburn","countryCode":"US","stateCode":"AL","latitude":32.60986,"longitude":-85.48078},{"name":"Auburn","countryCode":"US","stateCode":"CA","latitude":38.89657,"longitude":-121.07689},{"name":"Auburn","countryCode":"US","stateCode":"GA","latitude":34.01372,"longitude":-83.82768},{"name":"Auburn","countryCode":"US","stateCode":"IL","latitude":39.59172,"longitude":-89.74649},{"name":"Auburn","countryCode":"US","stateCode":"IN","latitude":41.36699,"longitude":-85.05886},{"name":"Auburn","countryCode":"US","stateCode":"KS","latitude":38.90611,"longitude":-95.8161},{"name":"Auburn","countryCode":"US","stateCode":"KY","latitude":36.86421,"longitude":-86.71027},{"name":"Auburn","countryCode":"US","stateCode":"MA","latitude":42.19454,"longitude":-71.83563},{"name":"Auburn","countryCode":"US","stateCode":"ME","latitude":44.09785,"longitude":-70.23117},{"name":"Auburn","countryCode":"US","stateCode":"MI","latitude":43.60336,"longitude":-84.0697},{"name":"Auburn","countryCode":"US","stateCode":"NE","latitude":40.39278,"longitude":-95.83889},{"name":"Auburn","countryCode":"US","stateCode":"NH","latitude":43.00453,"longitude":-71.3484},{"name":"Auburn","countryCode":"US","stateCode":"NY","latitude":42.93173,"longitude":-76.56605},{"name":"Auburn","countryCode":"US","stateCode":"WA","latitude":47.30732,"longitude":-122.22845},{"name":"Auburn Gresham","countryCode":"US","stateCode":"IL","latitude":41.74179,"longitude":-87.65322},{"name":"Auburn Hills","countryCode":"US","stateCode":"MI","latitude":42.68753,"longitude":-83.2341},{"name":"Auburn Lake Trails","countryCode":"US","stateCode":"CA","latitude":38.91434,"longitude":-120.95244},{"name":"Auburndale","countryCode":"US","stateCode":"FL","latitude":28.0653,"longitude":-81.78869},{"name":"Audrain County","countryCode":"US","stateCode":"MO","latitude":39.21576,"longitude":-91.84159},{"name":"Audubon","countryCode":"US","stateCode":"IA","latitude":41.71804,"longitude":-94.93249},{"name":"Audubon","countryCode":"US","stateCode":"NJ","latitude":39.89095,"longitude":-75.07295},{"name":"Audubon","countryCode":"US","stateCode":"PA","latitude":40.12788,"longitude":-75.43185},{"name":"Audubon County","countryCode":"US","stateCode":"IA","latitude":41.68459,"longitude":-94.90582},{"name":"Audubon Park","countryCode":"US","stateCode":"KY","latitude":38.20396,"longitude":-85.72524},{"name":"Audubon Park","countryCode":"US","stateCode":"NJ","latitude":39.8965,"longitude":-75.08767},{"name":"Auglaize County","countryCode":"US","stateCode":"OH","latitude":40.56091,"longitude":-84.22174},{"name":"August","countryCode":"US","stateCode":"CA","latitude":37.97881,"longitude":-121.26217},{"name":"Augusta","countryCode":"US","stateCode":"AR","latitude":35.28231,"longitude":-91.36541},{"name":"Augusta","countryCode":"US","stateCode":"GA","latitude":33.47097,"longitude":-81.97484},{"name":"Augusta","countryCode":"US","stateCode":"KS","latitude":37.68668,"longitude":-96.9767},{"name":"Augusta","countryCode":"US","stateCode":"KY","latitude":38.77174,"longitude":-84.00576},{"name":"Augusta","countryCode":"US","stateCode":"ME","latitude":44.31062,"longitude":-69.77949},{"name":"Augusta","countryCode":"US","stateCode":"NY","latitude":42.97479,"longitude":-75.50129},{"name":"Augusta","countryCode":"US","stateCode":"WI","latitude":44.68024,"longitude":-91.11988},{"name":"Augusta County","countryCode":"US","stateCode":"VA","latitude":38.16452,"longitude":-79.13383},{"name":"Ault","countryCode":"US","stateCode":"CO","latitude":40.58248,"longitude":-104.73191},{"name":"Ault Field","countryCode":"US","stateCode":"WA","latitude":48.33812,"longitude":-122.67441},{"name":"Aumsville","countryCode":"US","stateCode":"OR","latitude":44.84095,"longitude":-122.87092},{"name":"Aurora","countryCode":"US","stateCode":"CO","latitude":39.72943,"longitude":-104.83192},{"name":"Aurora","countryCode":"US","stateCode":"IL","latitude":41.76058,"longitude":-88.32007},{"name":"Aurora","countryCode":"US","stateCode":"IN","latitude":39.057,"longitude":-84.90134},{"name":"Aurora","countryCode":"US","stateCode":"MN","latitude":47.52993,"longitude":-92.23712},{"name":"Aurora","countryCode":"US","stateCode":"MO","latitude":36.97089,"longitude":-93.71798},{"name":"Aurora","countryCode":"US","stateCode":"NE","latitude":40.86723,"longitude":-98.00422},{"name":"Aurora","countryCode":"US","stateCode":"OH","latitude":41.31755,"longitude":-81.34539},{"name":"Aurora","countryCode":"US","stateCode":"TX","latitude":33.06068,"longitude":-97.50336},{"name":"Aurora","countryCode":"US","stateCode":"UT","latitude":38.92219,"longitude":-111.93409},{"name":"Aurora County","countryCode":"US","stateCode":"SD","latitude":43.71801,"longitude":-98.56155},{"name":"Austell","countryCode":"US","stateCode":"GA","latitude":33.81261,"longitude":-84.63438},{"name":"Austin","countryCode":"US","stateCode":"AR","latitude":34.99842,"longitude":-91.98376},{"name":"Austin","countryCode":"US","stateCode":"IN","latitude":38.75839,"longitude":-85.80803},{"name":"Austin","countryCode":"US","stateCode":"MN","latitude":43.66663,"longitude":-92.97464},{"name":"Austin","countryCode":"US","stateCode":"TX","latitude":30.26715,"longitude":-97.74306},{"name":"Austin County","countryCode":"US","stateCode":"TX","latitude":29.88702,"longitude":-96.27791},{"name":"Austintown","countryCode":"US","stateCode":"OH","latitude":41.10172,"longitude":-80.76452},{"name":"Autauga County","countryCode":"US","stateCode":"AL","latitude":32.53492,"longitude":-86.64276},{"name":"Ava","countryCode":"US","stateCode":"MO","latitude":36.952,"longitude":-92.66045},{"name":"Avalon","countryCode":"US","stateCode":"CA","latitude":33.34281,"longitude":-118.32785},{"name":"Avalon","countryCode":"US","stateCode":"NJ","latitude":39.10122,"longitude":-74.71766},{"name":"Avalon","countryCode":"US","stateCode":"PA","latitude":40.5009,"longitude":-80.06756},{"name":"Avenal","countryCode":"US","stateCode":"CA","latitude":36.00412,"longitude":-120.12903},{"name":"Avenel","countryCode":"US","stateCode":"NJ","latitude":40.58038,"longitude":-74.28515},{"name":"Aventura","countryCode":"US","stateCode":"FL","latitude":25.95648,"longitude":-80.13921},{"name":"Avenue B and C","countryCode":"US","stateCode":"AZ","latitude":32.71904,"longitude":-114.66005},{"name":"Averill Park","countryCode":"US","stateCode":"NY","latitude":42.63397,"longitude":-73.55373},{"name":"Avery County","countryCode":"US","stateCode":"NC","latitude":36.07661,"longitude":-81.92247},{"name":"Avery Creek","countryCode":"US","stateCode":"NC","latitude":35.46345,"longitude":-82.58262},{"name":"Avila Beach","countryCode":"US","stateCode":"CA","latitude":35.17998,"longitude":-120.73184},{"name":"Avilla","countryCode":"US","stateCode":"IN","latitude":41.36588,"longitude":-85.23886},{"name":"Avis","countryCode":"US","stateCode":"PA","latitude":41.18479,"longitude":-77.31386},{"name":"Aviston","countryCode":"US","stateCode":"IL","latitude":38.60672,"longitude":-89.60759},{"name":"Avoca","countryCode":"US","stateCode":"IA","latitude":41.47666,"longitude":-95.33805},{"name":"Avoca","countryCode":"US","stateCode":"PA","latitude":41.3398,"longitude":-75.7363},{"name":"Avocado Heights","countryCode":"US","stateCode":"CA","latitude":34.03612,"longitude":-117.99118},{"name":"Avon","countryCode":"US","stateCode":"CO","latitude":39.63137,"longitude":-106.52225},{"name":"Avon","countryCode":"US","stateCode":"IN","latitude":39.76282,"longitude":-86.39972},{"name":"Avon","countryCode":"US","stateCode":"MA","latitude":42.13066,"longitude":-71.04116},{"name":"Avon","countryCode":"US","stateCode":"MN","latitude":45.60913,"longitude":-94.45167},{"name":"Avon","countryCode":"US","stateCode":"NY","latitude":42.91201,"longitude":-77.74556},{"name":"Avon","countryCode":"US","stateCode":"OH","latitude":41.45171,"longitude":-82.03542},{"name":"Avon","countryCode":"US","stateCode":"PA","latitude":40.34565,"longitude":-76.38996},{"name":"Avon Center","countryCode":"US","stateCode":"OH","latitude":41.45976,"longitude":-82.01959},{"name":"Avon Lake","countryCode":"US","stateCode":"OH","latitude":41.50532,"longitude":-82.0282},{"name":"Avon Park","countryCode":"US","stateCode":"FL","latitude":27.59587,"longitude":-81.50619},{"name":"Avon-by-the-Sea","countryCode":"US","stateCode":"NJ","latitude":40.19234,"longitude":-74.01597},{"name":"Avondale","countryCode":"US","stateCode":"AZ","latitude":33.4356,"longitude":-112.3496},{"name":"Avondale","countryCode":"US","stateCode":"IL","latitude":41.93892,"longitude":-87.71117},{"name":"Avondale","countryCode":"US","stateCode":"LA","latitude":29.91298,"longitude":-90.20369},{"name":"Avondale","countryCode":"US","stateCode":"PA","latitude":39.82344,"longitude":-75.78327},{"name":"Avondale Estates","countryCode":"US","stateCode":"GA","latitude":33.77149,"longitude":-84.26714},{"name":"Avonia","countryCode":"US","stateCode":"PA","latitude":42.04561,"longitude":-80.26979},{"name":"Avoyelles Parish","countryCode":"US","stateCode":"LA","latitude":31.07624,"longitude":-92.00138},{"name":"Avra Valley","countryCode":"US","stateCode":"AZ","latitude":32.43785,"longitude":-111.31539},{"name":"Awendaw","countryCode":"US","stateCode":"SC","latitude":33.03767,"longitude":-79.61313},{"name":"Ayden","countryCode":"US","stateCode":"NC","latitude":35.47266,"longitude":-77.41552},{"name":"Ayer","countryCode":"US","stateCode":"MA","latitude":42.5612,"longitude":-71.58979},{"name":"Azalea Park","countryCode":"US","stateCode":"FL","latitude":28.54111,"longitude":-81.30062},{"name":"Azle","countryCode":"US","stateCode":"TX","latitude":32.89513,"longitude":-97.54586},{"name":"Aztalan","countryCode":"US","stateCode":"WI","latitude":43.07278,"longitude":-88.86233},{"name":"Aztec","countryCode":"US","stateCode":"NM","latitude":36.82223,"longitude":-107.99285},{"name":"Azusa","countryCode":"US","stateCode":"CA","latitude":34.13362,"longitude":-117.90756},{"name":"Babbitt","countryCode":"US","stateCode":"MN","latitude":47.70853,"longitude":-91.9446},{"name":"Babson Park","countryCode":"US","stateCode":"FL","latitude":27.83197,"longitude":-81.5223},{"name":"Babylon","countryCode":"US","stateCode":"NY","latitude":40.69566,"longitude":-73.32568},{"name":"Baca County","countryCode":"US","stateCode":"CO","latitude":37.31918,"longitude":-102.56047},{"name":"Back Mountain","countryCode":"US","stateCode":"PA","latitude":41.33591,"longitude":-75.99631},{"name":"Bacliff","countryCode":"US","stateCode":"TX","latitude":29.5069,"longitude":-94.99243},{"name":"Bacon County","countryCode":"US","stateCode":"GA","latitude":31.55367,"longitude":-82.45269},{"name":"Bad Axe","countryCode":"US","stateCode":"MI","latitude":43.80196,"longitude":-83.00078},{"name":"Baden","countryCode":"US","stateCode":"MD","latitude":38.65928,"longitude":-76.77775},{"name":"Baden","countryCode":"US","stateCode":"PA","latitude":40.63507,"longitude":-80.22812},{"name":"Badger","countryCode":"US","stateCode":"AK","latitude":64.8,"longitude":-147.53333},{"name":"Badin","countryCode":"US","stateCode":"NC","latitude":35.40597,"longitude":-80.11672},{"name":"Bagdad","countryCode":"US","stateCode":"AZ","latitude":34.58113,"longitude":-113.20464},{"name":"Bagdad","countryCode":"US","stateCode":"FL","latitude":30.5988,"longitude":-87.03223},{"name":"Bagley","countryCode":"US","stateCode":"MN","latitude":47.52162,"longitude":-95.39835},{"name":"Baidland","countryCode":"US","stateCode":"PA","latitude":40.19479,"longitude":-79.97088},{"name":"Bailey County","countryCode":"US","stateCode":"TX","latitude":34.06852,"longitude":-102.82987},{"name":"Baileys Crossroads","countryCode":"US","stateCode":"VA","latitude":38.85039,"longitude":-77.1297},{"name":"Bainbridge","countryCode":"US","stateCode":"GA","latitude":30.9038,"longitude":-84.57547},{"name":"Bainbridge","countryCode":"US","stateCode":"NY","latitude":42.29341,"longitude":-75.47935},{"name":"Bainbridge","countryCode":"US","stateCode":"OH","latitude":41.38644,"longitude":-81.33955},{"name":"Bainbridge","countryCode":"US","stateCode":"PA","latitude":40.09093,"longitude":-76.66747},{"name":"Bainbridge Island","countryCode":"US","stateCode":"WA","latitude":47.62621,"longitude":-122.52124},{"name":"Baird","countryCode":"US","stateCode":"TX","latitude":32.39402,"longitude":-99.39424},{"name":"Bairoa","countryCode":"US","stateCode":"PR","latitude":18.25916667,"longitude":-66.04055556},{"name":"Baiting Hollow","countryCode":"US","stateCode":"NY","latitude":40.95621,"longitude":-72.74427},{"name":"Bajadero","countryCode":"US","stateCode":"PR","latitude":18.42666667,"longitude":-66.68333333},{"name":"Bajandas","countryCode":"US","stateCode":"PR","latitude":18.16278,"longitude":-65.78167},{"name":"Baker","countryCode":"US","stateCode":"LA","latitude":30.58824,"longitude":-91.16816},{"name":"Baker","countryCode":"US","stateCode":"MT","latitude":46.36695,"longitude":-104.28466},{"name":"Baker City","countryCode":"US","stateCode":"OR","latitude":44.77487,"longitude":-117.83438},{"name":"Baker County","countryCode":"US","stateCode":"FL","latitude":30.33107,"longitude":-82.28459},{"name":"Baker County","countryCode":"US","stateCode":"GA","latitude":31.32618,"longitude":-84.44467},{"name":"Baker County","countryCode":"US","stateCode":"OR","latitude":44.70923,"longitude":-117.67534},{"name":"Bakersfield","countryCode":"US","stateCode":"CA","latitude":35.37329,"longitude":-119.01871},{"name":"Bakerstown","countryCode":"US","stateCode":"PA","latitude":40.6509,"longitude":-79.93644},{"name":"Bakersville","countryCode":"US","stateCode":"NC","latitude":36.01567,"longitude":-82.15874},{"name":"Bal Harbour","countryCode":"US","stateCode":"FL","latitude":25.89176,"longitude":-80.12699},{"name":"Bala-Cynwyd","countryCode":"US","stateCode":"PA","latitude":40.00761,"longitude":-75.23407},{"name":"Balch Springs","countryCode":"US","stateCode":"TX","latitude":32.72874,"longitude":-96.62277},{"name":"Balcones Heights","countryCode":"US","stateCode":"TX","latitude":29.48801,"longitude":-98.55169},{"name":"Bald Knob","countryCode":"US","stateCode":"AR","latitude":35.30981,"longitude":-91.56791},{"name":"Baldwin","countryCode":"US","stateCode":"FL","latitude":30.30274,"longitude":-81.97539},{"name":"Baldwin","countryCode":"US","stateCode":"GA","latitude":34.49177,"longitude":-83.53739},{"name":"Baldwin","countryCode":"US","stateCode":"LA","latitude":29.83798,"longitude":-91.54428},{"name":"Baldwin","countryCode":"US","stateCode":"MI","latitude":43.90112,"longitude":-85.85173},{"name":"Baldwin","countryCode":"US","stateCode":"NY","latitude":40.65649,"longitude":-73.6093},{"name":"Baldwin","countryCode":"US","stateCode":"PA","latitude":40.33813,"longitude":-79.97894},{"name":"Baldwin","countryCode":"US","stateCode":"WI","latitude":44.96663,"longitude":-92.37436},{"name":"Baldwin City","countryCode":"US","stateCode":"KS","latitude":38.77501,"longitude":-95.18636},{"name":"Baldwin County","countryCode":"US","stateCode":"AL","latitude":30.66097,"longitude":-87.74984},{"name":"Baldwin County","countryCode":"US","stateCode":"GA","latitude":33.06928,"longitude":-83.24959},{"name":"Baldwin Harbor","countryCode":"US","stateCode":"NY","latitude":40.63955,"longitude":-73.60846},{"name":"Baldwin Park","countryCode":"US","stateCode":"CA","latitude":34.08529,"longitude":-117.9609},{"name":"Baldwinsville","countryCode":"US","stateCode":"NY","latitude":43.15868,"longitude":-76.33271},{"name":"Baldwinville","countryCode":"US","stateCode":"MA","latitude":42.60842,"longitude":-72.07591},{"name":"Baldwyn","countryCode":"US","stateCode":"MS","latitude":34.50954,"longitude":-88.63533},{"name":"Balfour","countryCode":"US","stateCode":"NC","latitude":35.34651,"longitude":-82.47206},{"name":"Ball","countryCode":"US","stateCode":"LA","latitude":31.41546,"longitude":-92.4118},{"name":"Ball Ground","countryCode":"US","stateCode":"GA","latitude":34.33815,"longitude":-84.37659},{"name":"Ballard","countryCode":"US","stateCode":"UT","latitude":40.2894,"longitude":-109.9432},{"name":"Ballard County","countryCode":"US","stateCode":"KY","latitude":37.05843,"longitude":-88.99934},{"name":"Ballenger Creek","countryCode":"US","stateCode":"MD","latitude":39.3726,"longitude":-77.43526},{"name":"Ballinger","countryCode":"US","stateCode":"TX","latitude":31.73821,"longitude":-99.94731},{"name":"Ballplay","countryCode":"US","stateCode":"AL","latitude":34.05871,"longitude":-85.80802},{"name":"Ballston Spa","countryCode":"US","stateCode":"NY","latitude":43.00091,"longitude":-73.84901},{"name":"Ballville","countryCode":"US","stateCode":"OH","latitude":41.32783,"longitude":-83.13214},{"name":"Ballwin","countryCode":"US","stateCode":"MO","latitude":38.59505,"longitude":-90.54623},{"name":"Bally","countryCode":"US","stateCode":"PA","latitude":40.40232,"longitude":-75.58713},{"name":"Balm","countryCode":"US","stateCode":"FL","latitude":27.75947,"longitude":-82.2612},{"name":"Balmville","countryCode":"US","stateCode":"NY","latitude":41.53482,"longitude":-74.01486},{"name":"Balsam Lake","countryCode":"US","stateCode":"WI","latitude":45.45218,"longitude":-92.45464},{"name":"Baltic","countryCode":"US","stateCode":"CT","latitude":41.61704,"longitude":-72.08452},{"name":"Baltic","countryCode":"US","stateCode":"SD","latitude":43.76136,"longitude":-96.74033},{"name":"Baltimore","countryCode":"US","stateCode":"MD","latitude":39.29038,"longitude":-76.61219},{"name":"Baltimore","countryCode":"US","stateCode":"OH","latitude":39.84534,"longitude":-82.60072},{"name":"Baltimore County","countryCode":"US","stateCode":"MD","latitude":39.44307,"longitude":-76.61632},{"name":"Baltimore Highlands","countryCode":"US","stateCode":"MD","latitude":39.23316,"longitude":-76.63663},{"name":"Bamberg","countryCode":"US","stateCode":"SC","latitude":33.2971,"longitude":-81.03482},{"name":"Bamberg County","countryCode":"US","stateCode":"SC","latitude":33.21477,"longitude":-81.05423},{"name":"Bandera","countryCode":"US","stateCode":"TX","latitude":29.72661,"longitude":-99.07365},{"name":"Bandera County","countryCode":"US","stateCode":"TX","latitude":29.74721,"longitude":-99.24624},{"name":"Bandon","countryCode":"US","stateCode":"OR","latitude":43.119,"longitude":-124.40845},{"name":"Bangor","countryCode":"US","stateCode":"ME","latitude":44.80118,"longitude":-68.77781},{"name":"Bangor","countryCode":"US","stateCode":"MI","latitude":42.31254,"longitude":-86.11308},{"name":"Bangor","countryCode":"US","stateCode":"PA","latitude":40.86565,"longitude":-75.20657},{"name":"Bangor","countryCode":"US","stateCode":"WI","latitude":43.89302,"longitude":-90.99041},{"name":"Bangor Trident Base","countryCode":"US","stateCode":"WA","latitude":47.72274,"longitude":-122.71446},{"name":"Bangs","countryCode":"US","stateCode":"TX","latitude":31.7171,"longitude":-99.13255},{"name":"Banks","countryCode":"US","stateCode":"OR","latitude":45.61872,"longitude":-123.11428},{"name":"Banks County","countryCode":"US","stateCode":"GA","latitude":34.35413,"longitude":-83.49737},{"name":"Banks Springs","countryCode":"US","stateCode":"LA","latitude":32.0821,"longitude":-92.09291},{"name":"Banner County","countryCode":"US","stateCode":"NE","latitude":41.54597,"longitude":-103.71048},{"name":"Banner Elk","countryCode":"US","stateCode":"NC","latitude":36.16318,"longitude":-81.8715},{"name":"Banner Hill","countryCode":"US","stateCode":"TN","latitude":36.13066,"longitude":-82.42458},{"name":"Banning","countryCode":"US","stateCode":"CA","latitude":33.92557,"longitude":-116.87641},{"name":"Bannock County","countryCode":"US","stateCode":"ID","latitude":42.66851,"longitude":-112.22463},{"name":"Bannockburn","countryCode":"US","stateCode":"IL","latitude":42.19336,"longitude":-87.86646},{"name":"Bar Harbor","countryCode":"US","stateCode":"ME","latitude":44.38758,"longitude":-68.2039},{"name":"Bar Nunn","countryCode":"US","stateCode":"WY","latitude":42.91358,"longitude":-106.34336},{"name":"Baraboo","countryCode":"US","stateCode":"WI","latitude":43.47109,"longitude":-89.74429},{"name":"Baraga","countryCode":"US","stateCode":"MI","latitude":46.77854,"longitude":-88.48902},{"name":"Baraga County","countryCode":"US","stateCode":"MI","latitude":46.69976,"longitude":-88.35215},{"name":"Barahona","countryCode":"US","stateCode":"PR","latitude":18.35138889,"longitude":-66.44555556},{"name":"Barataria","countryCode":"US","stateCode":"LA","latitude":29.72327,"longitude":-90.12369},{"name":"Barber County","countryCode":"US","stateCode":"KS","latitude":37.22884,"longitude":-98.68479},{"name":"Barberton","countryCode":"US","stateCode":"OH","latitude":41.01283,"longitude":-81.60512},{"name":"Barberton","countryCode":"US","stateCode":"WA","latitude":45.69317,"longitude":-122.59899},{"name":"Barbour County","countryCode":"US","stateCode":"AL","latitude":31.8696,"longitude":-85.3932},{"name":"Barbour County","countryCode":"US","stateCode":"WV","latitude":39.13293,"longitude":-80.00303},{"name":"Barbourmeade","countryCode":"US","stateCode":"KY","latitude":38.29729,"longitude":-85.60329},{"name":"Barboursville","countryCode":"US","stateCode":"WV","latitude":38.40953,"longitude":-82.29459},{"name":"Barbourville","countryCode":"US","stateCode":"KY","latitude":36.86648,"longitude":-83.88881},{"name":"Barceloneta","countryCode":"US","stateCode":"PR","latitude":18.45633,"longitude":-66.54128},{"name":"Bardonia","countryCode":"US","stateCode":"NY","latitude":41.10954,"longitude":-73.99625},{"name":"Bardstown","countryCode":"US","stateCode":"KY","latitude":37.80923,"longitude":-85.4669},{"name":"Bardwell","countryCode":"US","stateCode":"KY","latitude":36.87061,"longitude":-89.00979},{"name":"Bargersville","countryCode":"US","stateCode":"IN","latitude":39.52088,"longitude":-86.16777},{"name":"Barker Heights","countryCode":"US","stateCode":"NC","latitude":35.31123,"longitude":-82.44401},{"name":"Barling","countryCode":"US","stateCode":"AR","latitude":35.32565,"longitude":-94.3016},{"name":"Barnegat","countryCode":"US","stateCode":"NJ","latitude":39.75318,"longitude":-74.22292},{"name":"Barnes County","countryCode":"US","stateCode":"ND","latitude":46.93611,"longitude":-98.07158},{"name":"Barnes Lake-Millers Lake","countryCode":"US","stateCode":"MI","latitude":43.17956,"longitude":-83.3123},{"name":"Barnesboro","countryCode":"US","stateCode":"PA","latitude":40.66257,"longitude":-78.78003},{"name":"Barnesville","countryCode":"US","stateCode":"GA","latitude":33.05457,"longitude":-84.15575},{"name":"Barnesville","countryCode":"US","stateCode":"MN","latitude":46.65218,"longitude":-96.41979},{"name":"Barnesville","countryCode":"US","stateCode":"OH","latitude":39.98813,"longitude":-81.1765},{"name":"Barneveld","countryCode":"US","stateCode":"WI","latitude":43.01555,"longitude":-89.8954},{"name":"Barnhart","countryCode":"US","stateCode":"MO","latitude":38.34422,"longitude":-90.39345},{"name":"Barnsdall","countryCode":"US","stateCode":"OK","latitude":36.56202,"longitude":-96.16167},{"name":"Barnstable","countryCode":"US","stateCode":"MA","latitude":41.70011,"longitude":-70.29947},{"name":"Barnstable County","countryCode":"US","stateCode":"MA","latitude":41.68419,"longitude":-70.27405},{"name":"Barnstead","countryCode":"US","stateCode":"NH","latitude":43.33397,"longitude":-71.29284},{"name":"Barnum Island","countryCode":"US","stateCode":"NY","latitude":40.60455,"longitude":-73.64402},{"name":"Barnwell","countryCode":"US","stateCode":"SC","latitude":33.24487,"longitude":-81.35872},{"name":"Barnwell County","countryCode":"US","stateCode":"SC","latitude":33.26606,"longitude":-81.43502},{"name":"Barrackville","countryCode":"US","stateCode":"WV","latitude":39.5037,"longitude":-80.16675},{"name":"Barranquitas","countryCode":"US","stateCode":"PR","latitude":18.20357,"longitude":-66.31211},{"name":"Barre","countryCode":"US","stateCode":"MA","latitude":42.42287,"longitude":-72.10508},{"name":"Barre","countryCode":"US","stateCode":"VT","latitude":44.19701,"longitude":-72.50205},{"name":"Barren County","countryCode":"US","stateCode":"KY","latitude":36.96558,"longitude":-85.93366},{"name":"Barrett","countryCode":"US","stateCode":"TX","latitude":29.87995,"longitude":-95.06298},{"name":"Barrington","countryCode":"US","stateCode":"IL","latitude":42.15391,"longitude":-88.13619},{"name":"Barrington","countryCode":"US","stateCode":"NH","latitude":43.22286,"longitude":-71.04701},{"name":"Barrington","countryCode":"US","stateCode":"NJ","latitude":39.86484,"longitude":-75.05517},{"name":"Barrington","countryCode":"US","stateCode":"RI","latitude":41.74066,"longitude":-71.30866},{"name":"Barrington Hills","countryCode":"US","stateCode":"IL","latitude":42.14475,"longitude":-88.15563},{"name":"Barron","countryCode":"US","stateCode":"WI","latitude":45.40135,"longitude":-91.84906},{"name":"Barron County","countryCode":"US","stateCode":"WI","latitude":45.42372,"longitude":-91.84831},{"name":"Barrow","countryCode":"US","stateCode":"AK","latitude":71.29058,"longitude":-156.78872},{"name":"Barrow County","countryCode":"US","stateCode":"GA","latitude":33.9932,"longitude":-83.71276},{"name":"Barry","countryCode":"US","stateCode":"IL","latitude":39.69421,"longitude":-91.03902},{"name":"Barry County","countryCode":"US","stateCode":"MI","latitude":42.59503,"longitude":-85.30897},{"name":"Barry County","countryCode":"US","stateCode":"MO","latitude":36.70987,"longitude":-93.82907},{"name":"Barstow","countryCode":"US","stateCode":"CA","latitude":34.89859,"longitude":-117.02282},{"name":"Barstow Heights","countryCode":"US","stateCode":"CA","latitude":34.86971,"longitude":-117.05615},{"name":"Bartholomew County","countryCode":"US","stateCode":"IN","latitude":39.20597,"longitude":-85.8976},{"name":"Bartlesville","countryCode":"US","stateCode":"OK","latitude":36.74731,"longitude":-95.98082},{"name":"Bartlett","countryCode":"US","stateCode":"IL","latitude":41.99503,"longitude":-88.18563},{"name":"Bartlett","countryCode":"US","stateCode":"NE","latitude":41.88529,"longitude":-98.5523},{"name":"Bartlett","countryCode":"US","stateCode":"TN","latitude":35.20453,"longitude":-89.87398},{"name":"Bartlett","countryCode":"US","stateCode":"TX","latitude":30.79491,"longitude":-97.42556},{"name":"Bartolo","countryCode":"US","stateCode":"PR","latitude":18.36138889,"longitude":-65.83861111},{"name":"Barton","countryCode":"US","stateCode":"WI","latitude":43.44361,"longitude":-88.18065},{"name":"Barton County","countryCode":"US","stateCode":"KS","latitude":38.47896,"longitude":-98.75646},{"name":"Barton County","countryCode":"US","stateCode":"MO","latitude":37.5023,"longitude":-94.34711},{"name":"Barton Creek","countryCode":"US","stateCode":"TX","latitude":30.28521,"longitude":-97.86917},{"name":"Bartonsville","countryCode":"US","stateCode":"MD","latitude":39.3926,"longitude":-77.35804},{"name":"Bartonville","countryCode":"US","stateCode":"IL","latitude":40.65032,"longitude":-89.65205},{"name":"Bartonville","countryCode":"US","stateCode":"TX","latitude":33.07318,"longitude":-97.13168},{"name":"Bartow","countryCode":"US","stateCode":"FL","latitude":27.89641,"longitude":-81.84314},{"name":"Bartow County","countryCode":"US","stateCode":"GA","latitude":34.23786,"longitude":-84.8405},{"name":"Barview","countryCode":"US","stateCode":"OR","latitude":43.35428,"longitude":-124.31317},{"name":"Basalt","countryCode":"US","stateCode":"CO","latitude":39.36887,"longitude":-107.03282},{"name":"Basehor","countryCode":"US","stateCode":"KS","latitude":39.14167,"longitude":-94.93858},{"name":"Basile","countryCode":"US","stateCode":"LA","latitude":30.4852,"longitude":-92.59597},{"name":"Basin","countryCode":"US","stateCode":"WY","latitude":44.37996,"longitude":-108.03899},{"name":"Basin City","countryCode":"US","stateCode":"WA","latitude":46.59403,"longitude":-119.15223},{"name":"Bass Lake","countryCode":"US","stateCode":"IN","latitude":41.20726,"longitude":-86.60196},{"name":"Bassett","countryCode":"US","stateCode":"NE","latitude":42.58583,"longitude":-99.53789},{"name":"Bassett","countryCode":"US","stateCode":"VA","latitude":36.7593,"longitude":-79.99032},{"name":"Bastrop","countryCode":"US","stateCode":"LA","latitude":32.77828,"longitude":-91.91144},{"name":"Bastrop","countryCode":"US","stateCode":"TX","latitude":30.11049,"longitude":-97.31527},{"name":"Bastrop County","countryCode":"US","stateCode":"TX","latitude":30.10361,"longitude":-97.31201},{"name":"Basye","countryCode":"US","stateCode":"VA","latitude":38.80706,"longitude":-78.79224},{"name":"Batavia","countryCode":"US","stateCode":"IL","latitude":41.85003,"longitude":-88.31257},{"name":"Batavia","countryCode":"US","stateCode":"NY","latitude":42.99812,"longitude":-78.18752},{"name":"Batavia","countryCode":"US","stateCode":"OH","latitude":39.07701,"longitude":-84.17688},{"name":"Bates County","countryCode":"US","stateCode":"MO","latitude":38.25729,"longitude":-94.34},{"name":"Batesburg","countryCode":"US","stateCode":"SC","latitude":33.90792,"longitude":-81.54733},{"name":"Batesburg-Leesville","countryCode":"US","stateCode":"SC","latitude":33.91014,"longitude":-81.53733},{"name":"Batesville","countryCode":"US","stateCode":"AR","latitude":35.7698,"longitude":-91.64097},{"name":"Batesville","countryCode":"US","stateCode":"IN","latitude":39.30005,"longitude":-85.22218},{"name":"Batesville","countryCode":"US","stateCode":"MS","latitude":34.3115,"longitude":-89.94426},{"name":"Batesville","countryCode":"US","stateCode":"TX","latitude":28.95108,"longitude":-99.61783},{"name":"Bath","countryCode":"US","stateCode":"ME","latitude":43.91064,"longitude":-69.8206},{"name":"Bath","countryCode":"US","stateCode":"MI","latitude":42.81864,"longitude":-84.44859},{"name":"Bath","countryCode":"US","stateCode":"NY","latitude":42.33702,"longitude":-77.31776},{"name":"Bath","countryCode":"US","stateCode":"PA","latitude":40.72565,"longitude":-75.39407},{"name":"Bath Beach","countryCode":"US","stateCode":"NY","latitude":40.60455,"longitude":-74.00431},{"name":"Bath County","countryCode":"US","stateCode":"KY","latitude":38.14497,"longitude":-83.74267},{"name":"Bath County","countryCode":"US","stateCode":"VA","latitude":38.05869,"longitude":-79.74109},{"name":"Baton Rouge","countryCode":"US","stateCode":"LA","latitude":30.44332,"longitude":-91.18747},{"name":"Battle Creek","countryCode":"US","stateCode":"MI","latitude":42.3173,"longitude":-85.17816},{"name":"Battle Creek","countryCode":"US","stateCode":"NE","latitude":41.99945,"longitude":-97.59839},{"name":"Battle Ground","countryCode":"US","stateCode":"IN","latitude":40.50837,"longitude":-86.84168},{"name":"Battle Ground","countryCode":"US","stateCode":"WA","latitude":45.78095,"longitude":-122.53343},{"name":"Battle Mountain","countryCode":"US","stateCode":"NV","latitude":40.64213,"longitude":-116.93427},{"name":"Battlefield","countryCode":"US","stateCode":"MO","latitude":37.11561,"longitude":-93.37019},{"name":"Battlement Mesa","countryCode":"US","stateCode":"CO","latitude":39.44137,"longitude":-108.02507},{"name":"Baudette","countryCode":"US","stateCode":"MN","latitude":48.71247,"longitude":-94.59993},