[{"name":"Isangel","countryCode":"VU","stateCode":"TAE","latitude":-19.54167,"longitude":169.28167},{"name":"Lakatoro","countryCode":"VU","stateCode":"MAP","latitude":-16.09992,"longitude":167.41636},{"name":"Luganville","countryCode":"VU","stateCode":"SAM","latitude":-15.51989,"longitude":167.16235},{"name":"Norsup","countryCode":"VU","stateCode":"MAP","latitude":-16.06536,"longitude":167.39714},{"name":"Port-Olry","countryCode":"VU","stateCode":"SAM","latitude":-15.04175,"longitude":167.07265},{"name":"Port-Vila","countryCode":"VU","stateCode":"SEE","latitude":-17.73648,"longitude":168.31366},{"name":"Sola","countryCode":"VU","stateCode":"TOB","latitude":-13.87611,"longitude":167.55167}]
