[{"name":"Banket","countryCode":"ZW","stateCode":"MW","latitude":-17.38333,"longitude":30.4},{"name":"Beatrice","countryCode":"ZW","stateCode":"ME","latitude":-18.25283,"longitude":30.8473},{"name":"Beitbridge","countryCode":"ZW","stateCode":"MS","latitude":-22.21667,"longitude":30},{"name":"Beitbridge District","countryCode":"ZW","stateCode":"MS","latitude":-21.89829,"longitude":30.07409},{"name":"Bikita District","countryCode":"ZW","stateCode":"MV","latitude":-20.13752,"longitude":31.93156},{"name":"Bindura","countryCode":"ZW","stateCode":"MC","latitude":-17.30192,"longitude":31.33056},{"name":"Bindura District","countryCode":"ZW","stateCode":"MC","latitude":-17.2123,"longitude":31.303},{"name":"Binga","countryCode":"ZW","stateCode":"MN","latitude":-17.62027,"longitude":27.34139},{"name":"Binga District","countryCode":"ZW","stateCode":"MN","latitude":-17.8046,"longitude":27.70088},{"name":"Bubi District","countryCode":"ZW","stateCode":"MN","latitude":-19.52508,"longitude":28.67998},{"name":"Buhera District","countryCode":"ZW","stateCode":"MA","latitude":-19.45658,"longitude":31.93156},{"name":"Bulawayo","countryCode":"ZW","stateCode":"BU","latitude":-20.15,"longitude":28.58333},{"name":"Centenary","countryCode":"ZW","stateCode":"MC","latitude":-16.72289,"longitude":31.11462},{"name":"Centenary District","countryCode":"ZW","stateCode":"MC","latitude":-16.41667,"longitude":31.16667},{"name":"Chakari","countryCode":"ZW","stateCode":"MW","latitude":-18.06294,"longitude":29.89246},{"name":"Chegutu","countryCode":"ZW","stateCode":"MW","latitude":-18.13021,"longitude":30.14074},{"name":"Chegutu District","countryCode":"ZW","stateCode":"MW","latitude":-18.13097,"longitude":30.40046},{"name":"Chimanimani","countryCode":"ZW","stateCode":"MA","latitude":-19.8,"longitude":32.86667},{"name":"Chimanimani District","countryCode":"ZW","stateCode":"MA","latitude":-19.78295,"longitude":32.73338},{"name":"Chinhoyi","countryCode":"ZW","stateCode":"MW","latitude":-17.36667,"longitude":30.2},{"name":"Chipinge","countryCode":"ZW","stateCode":"MA","latitude":-20.18833,"longitude":32.62365},{"name":"Chipinge District","countryCode":"ZW","stateCode":"MA","latitude":-20.54959,"longitude":32.4311},{"name":"Chiredzi","countryCode":"ZW","stateCode":"MV","latitude":-21.05,"longitude":31.66667},{"name":"Chiredzi District","countryCode":"ZW","stateCode":"MV","latitude":-21.28585,"longitude":31.77039},{"name":"Chirundu","countryCode":"ZW","stateCode":"MW","latitude":-16.03333,"longitude":28.85},{"name":"Chitungwiza","countryCode":"ZW","stateCode":"HA","latitude":-18.01274,"longitude":31.07555},{"name":"Chivhu","countryCode":"ZW","stateCode":"ME","latitude":-19.02112,"longitude":30.89218},{"name":"Chivi District","countryCode":"ZW","stateCode":"MV","latitude":-20.5,"longitude":30.58333},{"name":"Concession","countryCode":"ZW","stateCode":"MC","latitude":-17.38333,"longitude":30.95},{"name":"Dete","countryCode":"ZW","stateCode":"MN","latitude":-18.61667,"longitude":26.86667},{"name":"Dorowa Mining Lease","countryCode":"ZW","stateCode":"MA","latitude":-19.06667,"longitude":31.75},{"name":"Epworth","countryCode":"ZW","stateCode":"HA","latitude":-17.89,"longitude":31.1475},{"name":"Esigodini","countryCode":"ZW","stateCode":"MS","latitude":-20.28979,"longitude":28.92261},{"name":"Filabusi","countryCode":"ZW","stateCode":"MS","latitude":-20.53333,"longitude":29.28502},{"name":"Glendale","countryCode":"ZW","stateCode":"MC","latitude":-17.35514,"longitude":31.06718},{"name":"Gokwe","countryCode":"ZW","stateCode":"MI","latitude":-18.20476,"longitude":28.9349},{"name":"Goromonzi District","countryCode":"ZW","stateCode":"ME","latitude":-17.80695,"longitude":31.36372},{"name":"Guruve District","countryCode":"ZW","stateCode":"MC","latitude":-16.37206,"longitude":30.60607},{"name":"Gutu District","countryCode":"ZW","stateCode":"MV","latitude":-19.60884,"longitude":31.25059},{"name":"Gwanda","countryCode":"ZW","stateCode":"MS","latitude":-20.93622,"longitude":29.00698},{"name":"Gwanda District","countryCode":"ZW","stateCode":"MS","latitude":-21.20929,"longitude":29.17557},{"name":"Gweru","countryCode":"ZW","stateCode":"MI","latitude":-19.45,"longitude":29.81667},{"name":"Gweru District","countryCode":"ZW","stateCode":"MI","latitude":-19.45665,"longitude":29.64495},{"name":"Harare","countryCode":"ZW","stateCode":"HA","latitude":-17.82772,"longitude":31.05337},{"name":"Headlands","countryCode":"ZW","stateCode":"MA","latitude":-18.27733,"longitude":32.0515},{"name":"Hurungwe District","countryCode":"ZW","stateCode":"MW","latitude":-16.41301,"longitude":29.5858},{"name":"Hwange","countryCode":"ZW","stateCode":"MN","latitude":-18.36446,"longitude":26.49877},{"name":"Hwange District","countryCode":"ZW","stateCode":"MN","latitude":-18.75,"longitude":26.5},{"name":"Insiza","countryCode":"ZW","stateCode":"MS","latitude":-19.78333,"longitude":29.2},{"name":"Insiza District","countryCode":"ZW","stateCode":"MS","latitude":-20.26431,"longitude":29.47392},{"name":"Inyati","countryCode":"ZW","stateCode":"MN","latitude":-19.67563,"longitude":28.84687},{"name":"Kadoma","countryCode":"ZW","stateCode":"MW","latitude":-18.33328,"longitude":29.91534},{"name":"Kadoma District","countryCode":"ZW","stateCode":"MW","latitude":-18.34049,"longitude":29.82831},{"name":"Kamativi Mine","countryCode":"ZW","stateCode":"MN","latitude":-18.31563,"longitude":27.05729},{"name":"Kariba","countryCode":"ZW","stateCode":"MW","latitude":-16.51667,"longitude":28.8},{"name":"Kariba District","countryCode":"ZW","stateCode":"MW","latitude":-16.91011,"longitude":28.65983},{"name":"Karoi","countryCode":"ZW","stateCode":"MW","latitude":-16.80993,"longitude":29.69247},{"name":"Kwekwe","countryCode":"ZW","stateCode":"MI","latitude":-18.92809,"longitude":29.81486},{"name":"Kwekwe District","countryCode":"ZW","stateCode":"MI","latitude":-18.75,"longitude":29.5},{"name":"Lalapanzi","countryCode":"ZW","stateCode":"MI","latitude":-19.33225,"longitude":30.17768},{"name":"Lupane","countryCode":"ZW","stateCode":"MN","latitude":-18.93149,"longitude":27.80696},{"name":"Lupane District","countryCode":"ZW","stateCode":"MN","latitude":-18.83608,"longitude":27.99098},{"name":"Macheke","countryCode":"ZW","stateCode":"ME","latitude":-18.13901,"longitude":31.84933},{"name":"Makonde District","countryCode":"ZW","stateCode":"MW","latitude":-17.16667,"longitude":30.08333},{"name":"Makoni District","countryCode":"ZW","stateCode":"MA","latitude":-18.3355,"longitude":32.1465},{"name":"Mangwe District","countryCode":"ZW","stateCode":"MS","latitude":-20.95545,"longitude":27.98292},{"name":"Marondera","countryCode":"ZW","stateCode":"ME","latitude":-18.18527,"longitude":31.55193},{"name":"Marondera District","countryCode":"ZW","stateCode":"ME","latitude":-18.29214,"longitude":31.51252},{"name":"Mashava","countryCode":"ZW","stateCode":"MV","latitude":-20.03665,"longitude":30.48225},{"name":"Masvingo","countryCode":"ZW","stateCode":"MV","latitude":-20.06373,"longitude":30.82766},{"name":"Masvingo District","countryCode":"ZW","stateCode":"MV","latitude":-20.31481,"longitude":30.90008},{"name":"Matobo","countryCode":"ZW","stateCode":"MS","latitude":-20.95545,"longitude":28.49463},{"name":"Mazowe","countryCode":"ZW","stateCode":"MC","latitude":-17.50404,"longitude":30.97388},{"name":"Mazowe District","countryCode":"ZW","stateCode":"MC","latitude":-17.2808,"longitude":30.93231},{"name":"Mberengwa District","countryCode":"ZW","stateCode":"MI","latitude":-20.72579,"longitude":30.00962},{"name":"Mhangura","countryCode":"ZW","stateCode":"MW","latitude":-16.89387,"longitude":30.16828},{"name":"Mount Darwin","countryCode":"ZW","stateCode":"MC","latitude":-16.77251,"longitude":31.58381},{"name":"Mudzi District","countryCode":"ZW","stateCode":"ME","latitude":-17.04711,"longitude":32.65279},{"name":"Murehwa","countryCode":"ZW","stateCode":"ME","latitude":-17.64322,"longitude":31.784},{"name":"Murehwa District","countryCode":"ZW","stateCode":"ME","latitude":-17.80057,"longitude":31.83083},{"name":"Mutare","countryCode":"ZW","stateCode":"MA","latitude":-18.9707,"longitude":32.67086},{"name":"Mutare District","countryCode":"ZW","stateCode":"MA","latitude":-19.25512,"longitude":32.44327},{"name":"Mutasa District","countryCode":"ZW","stateCode":"MA","latitude":-18.66283,"longitude":32.74547},{"name":"Mutoko","countryCode":"ZW","stateCode":"ME","latitude":-17.39699,"longitude":32.22677},{"name":"Mvuma","countryCode":"ZW","stateCode":"MI","latitude":-19.27924,"longitude":30.52828},{"name":"Mvurwi","countryCode":"ZW","stateCode":"MC","latitude":-17.03333,"longitude":30.85},{"name":"Mwenezi District","countryCode":"ZW","stateCode":"MV","latitude":-21.35838,"longitude":30.70668},{"name":"Nkayi District","countryCode":"ZW","stateCode":"MN","latitude":-18.92472,"longitude":28.71221},{"name":"Norton","countryCode":"ZW","stateCode":"MW","latitude":-17.88333,"longitude":30.7},{"name":"Nyanga","countryCode":"ZW","stateCode":"MA","latitude":-18.21667,"longitude":32.75},{"name":"Nyanga District","countryCode":"ZW","stateCode":"MA","latitude":-17.92951,"longitude":32.76561},{"name":"Nyazura","countryCode":"ZW","stateCode":"MA","latitude":-18.70587,"longitude":32.16796},{"name":"Odzi","countryCode":"ZW","stateCode":"MA","latitude":-18.96167,"longitude":32.40557},{"name":"Penhalonga","countryCode":"ZW","stateCode":"MA","latitude":-18.89112,"longitude":32.69781},{"name":"Plumtree","countryCode":"ZW","stateCode":"MS","latitude":-20.48333,"longitude":27.81667},{"name":"Raffingora","countryCode":"ZW","stateCode":"MW","latitude":-17.03333,"longitude":30.43333},{"name":"Redcliff","countryCode":"ZW","stateCode":"MI","latitude":-19.03333,"longitude":29.78333},{"name":"Rusape","countryCode":"ZW","stateCode":"MA","latitude":-18.52785,"longitude":32.12843},{"name":"Rushinga District","countryCode":"ZW","stateCode":"MC","latitude":-16.60792,"longitude":32.31434},{"name":"Ruwa","countryCode":"ZW","stateCode":"ME","latitude":-17.88972,"longitude":31.24472},{"name":"Shamva","countryCode":"ZW","stateCode":"MC","latitude":-17.31159,"longitude":31.57561},{"name":"Shamva District","countryCode":"ZW","stateCode":"MC","latitude":-17.12366,"longitude":31.64146},{"name":"Shangani","countryCode":"ZW","stateCode":"MI","latitude":-19.78333,"longitude":29.36667},{"name":"Shurugwi","countryCode":"ZW","stateCode":"MI","latitude":-19.67016,"longitude":30.00589},{"name":"Shurugwi District","countryCode":"ZW","stateCode":"MI","latitude":-19.75,"longitude":30.16667},{"name":"Umzingwane District","countryCode":"ZW","stateCode":"MS","latitude":-20.34704,"longitude":28.94994},{"name":"Victoria Falls","countryCode":"ZW","stateCode":"MN","latitude":-17.93285,"longitude":25.83066},{"name":"Zvishavane","countryCode":"ZW","stateCode":"MV","latitude":-20.32674,"longitude":30.06648},{"name":"Zvishavane District","countryCode":"ZW","stateCode":"MI","latitude":-20.30345,"longitude":30.07514}]
